     2.11           OBSERVATION DATA    M (MIXED)           RINEX VERSION / TYPE
teqc  2012Jun6                          20190301 21:13:39UTCPGM / RUN BY / DATE
MSXP|IAx86-PII|bcc32 5.0|MSWin95->XP|486/DX+                COMMENT
BIT 2 OF LLI FLAGS DATA COLLECTED UNDER A/S CONDITION       COMMENT
-Unknown-                                                   MARKER NAME
-Unknown-           -Unknown-                               OBSERVER / AGENCY
1533745             LEICA               4.51/6.112          REC # / TYPE / VERS
                    LEIAT501        NONE                    ANT # / TYPE
  2346334.2046 -5239930.9245 -2772769.0802                  APPROX POSITION XYZ
        0.5360        0.0000        0.0000                  ANTENNA: DELTA H/E/N
     1     1                                                WAVELENGTH FACT L1/2
     6    L1    L2    C1    P2    S1    S2                  # / TYPES OF OBSERV
     1.0000                                                 INTERVAL
F03                                                         COMMENT
Project creator:                                            COMMENT
 SNR is mapped to RINEX snr flag value [0-9]                COMMENT
  L1 & L2: min(max(int(snr_dBHz/6), 0), 9)                  COMMENT
  2019     2    28    13     3   16.0000000     GPS         TIME OF FIRST OBS
    16                                                      LEAP SECONDS
                                                            END OF HEADER
 19  2 28 13  3 16.0000000  0 15G29G12G31G20G26G05G21G25R07R06R21R12
                                R10R11R22
 115346223.475 8  89880147.34047  21949655.900    21949651.180          49.850
        42.050
 125817373.604 7  98039503.01445  23942251.100    23942248.180          45.900
        35.850
 114778976.512 8  89438142.61246  21841713.560    21841708.160          49.750
        41.300
 117994514.422 7  91943759.56346  22453609.000    22453604.340          47.800
        38.500
 121423082.503 7  94615388.96146  23106043.620    23106042.120          45.250
        41.750
 130390709.847 7 101603131.35046  24812527.380    24812524.560          45.950
        36.850
 106197582.940 8  82751339.63947  20208727.640    20208721.760          49.800
        46.150
 112673756.916 8  87797722.06447  21441104.120    21441101.940          49.650
        44.750
 125756052.473 6  97810283.450 6  23492287.660    23492291.600          41.750
        38.150
 121600637.986 6                  22787907.520                          38.750

 116221227.492 7  90394292.172 7  21718714.560    21718716.000          43.350
        43.200
 108182863.403 7                  20252059.740                          45.900

 122169133.159 7  95020463.148 6  22918618.120    22918624.680          42.750
        37.850
 104746425.161 8  81469450.088 7  19601865.580    19601867.620          48.600
        46.300
 110683012.186 7  86086795.008 7  20734657.840    20734660.700          47.000
        45.450
 19  2 28 13  3 17.0000000  0 15G29G12G31G20G26G05G21G25R07R06R21R12
                                R10R11R22
 115347308.164 8  89880992.54447  21949862.300    21949857.600          49.950
        42.100
 125820385.223 7  98041849.73246  23942824.180    23942821.280          45.800
        36.200
 114779598.753 8  89438627.47546  21841831.980    21841826.560          49.750
        40.100
 117991382.122 7  91941318.81646  22453012.940    22453008.280          47.950
        38.550
 121419898.298 7  94612907.76746  23105437.660    23105436.160          44.950
        41.300
 130392818.424 7 101604774.39545  24812928.640    24812925.760          46.300
        34.400
 106196691.137 8  82750644.72847  20208557.940    20208552.060          50.000
        46.350
 112675590.815 8  87799151.07347  21441453.100    21441450.920          49.800
        43.350
 125752822.570 7  97807771.268 6  23491684.260    23491688.200          42.400
        38.750
 121599102.979 6                  22787619.840                          39.650

 116223448.786 7  90396019.839 7  21719129.660    21719131.100          43.850
        44.100
 108181008.993 7                  20251712.580                          46.250

 122173461.016 7  95023829.257 6  22919430.040    22919436.580          43.250
        38.050
 104748211.239 8  81470839.257 7  19602199.820    19602201.860          49.000
        46.950
 110683037.006 7  86086814.309 7  20734662.500    20734665.360          47.750
        46.150
 19  2 28 13  3 18.0000000  0 15G29G12G31G20G26G05G21G25R07R06R21R12
                                R10R11R22
 115348392.877 8  89881837.77146  21950068.720    21950064.000          50.000
        41.400
 125823397.120 7  98044196.66046  23943397.320    23943394.400          45.950
        37.650
 114780221.603 8  89439112.81346  21841950.500    21841945.080          49.200
        39.950
 117988250.000 7  91938878.20746  22452416.920    22452412.280          47.950
        38.300
 121416714.212 7  94610426.66546  23104831.740    23104830.180          44.750
        38.350
 130394927.470 7 101606417.80746  24813329.980    24813327.080          46.900
        36.100
 106195799.875 8  82749950.23847  20208388.360    20208382.460          49.950
        46.000
 112677425.191 8  87800580.45647  21441802.180    21441800.020          49.700
        44.050
 125749592.659 7  97805259.092 6  23491080.880    23491084.760          42.900
        38.550
 121597568.488 6                  22787332.300                          40.000

 116225670.057 7  90397747.483 7  21719544.760    21719546.220          43.250
        43.700
 108179155.405 7                  20251365.580                          45.900

 122177789.026 7  95027195.484 6  22920241.980    22920248.520          43.750
        38.350
 104749998.125 8  81472229.058 7  19602534.220    19602536.240          49.100
        46.100
 110683062.071 8  86086833.802 7  20734667.200    20734670.040          48.300
        46.650
 19  2 28 13  3 19.0000000  0 15G29G12G31G20G26G05G21G25R07R06R21R12
                                R10R11R22
 115349477.535 8  89882682.95746  21950275.120    21950270.400          50.100
        41.950
 125826409.209 7  98046543.73746  23943970.500    23943967.580          45.650
        37.100
 114780844.974 8  89439598.55446  21842069.120    21842063.720          48.550
        38.750
 117985117.957 8  91936437.65646  22451820.920    22451816.260          48.050
        39.300
 121413530.144 7  94607945.58346  23104225.720    23104224.000          44.550
        40.600
 130397036.831 7 101608061.46745  24813731.380    24813728.500          46.650
        34.500
 106194909.055 8  82749256.09047  20208218.840    20208212.940          49.900
        46.750
 112679259.994 8  87802010.17347  21442151.320    21442149.160          49.850
        44.550
 125746362.638 7  97802746.835 6  23490477.480    23490481.360          42.900
        37.850
 121596034.488 6                  22787044.840                          40.100

 116227891.215 7  90399475.045 7  21719959.840    21719961.300          43.800
        43.100
 108177302.474 7                  20251018.700                          45.650

 122182117.115 7  95030561.774 6  22921053.920    22921060.460          43.250
        37.500
 104751785.726 8  81473619.414 7  19602868.740    19602870.760          49.000
        45.800
 110683087.258 7  86086853.386 7  20734671.920    20734674.760          47.300
        45.950
 19  2 28 13  3 20.0000000  0 15G29G12G31G20G26G05G21G25R07R06R21R12
                                R10R11R22
 115350562.101 8  89883528.06947  21950481.520    21950476.780          50.150
        42.450
 125829421.391 7  98048890.86646  23944543.700    23944540.740          46.400
        37.050
 114781468.757 8  89440084.61547  21842187.820    21842182.420          50.200
        42.450
 117981985.971 7  91933997.15446  22451224.900    22451220.260          47.700
        38.300
 121410346.102 7  94605464.52046  23103619.800    23103618.220          45.050
        40.250
 130399146.449 7 101609705.32745  24814132.840    24814129.980          46.300
        34.050
 106194018.641 8  82748562.25847  20208049.400    20208043.500          50.000
        46.800
 112681095.147 8  87803440.15847  21442500.540    21442498.380          49.700
        44.600
 125743132.489 7  97800234.488 6  23489874.060    23489878.000          43.200
        38.600
 121594500.856 6                  22786757.440                          39.600

 116230112.162 7  90401202.448 7  21720374.860    21720376.360          43.350
        42.850
 108175450.265 7                  20250671.960                          46.250

 122186445.230 7  95033928.080 6  22921865.840    22921872.400          42.950
        37.150
 104753574.010 8  81475010.301 7  19603203.400    19603205.400          49.100
        45.850
 110683112.507 7  86086873.029 7  20734676.640    20734679.500          47.350
        45.450
 19  2 28 13  3 21.0000000  0 15G29G12G31G20G26G05G21G25R07R06R21R12
                                R10R11R22
 115351646.845 8  89884373.32447  21950687.940    21950683.200          50.100
        42.650
 125832434.021 7  98051238.36646  23945116.980    23945114.020          46.750
        37.100
 114782093.295 8  89440571.25546  21842306.680    21842301.260          49.150
        40.150
 117978854.275 7  91931556.87346  22450628.960    22450624.340          47.700
        38.350
 121407162.318 7  94602983.65146  23103014.000    23103012.460          44.850
        40.350
 130401256.648 7 101611349.64246  24814534.400    24814531.540          46.250
        36.900
 106193128.890 8  82747868.93947  20207880.080    20207874.180          49.950
        46.750
 112682930.933 8  87804870.64347  21442849.900    21442847.720          49.700
        44.750
 125739902.487 7  97797722.265 6  23489270.640    23489274.640          43.350
        38.350
 121592967.906 6                  22786470.140                          39.750

 116232333.168 7  90402929.895 7  21720789.900    21720791.440          43.550
        42.800
 108173598.971 7                  20250325.400                          46.050

 122190773.615 7  95037294.599 6  22922677.860    22922684.420          43.600
        37.250
 104755363.186 8  81476401.885 7  19603538.220    19603540.240          49.100
        45.950
 110683138.122 7  86086892.958 7  20734681.440    20734684.300          47.250
        45.650
 19  2 28 13  3 22.0000000  0 15G29G12G31G20G26G05G21G25R07R06R21R12
                                R10R11R22
 115352731.829 8  89885218.76047  21950894.400    21950889.660          50.100
        42.850
 125835447.119 7  98053586.23946  23945690.360    23945687.400          46.550
        37.300
 114782718.607 8  89441058.51146  21842425.680    21842420.260          48.100
        38.800
 117975722.952 7  91929116.88146  22450033.080    22450028.480          47.750
        38.350
 121403978.867 7  94600503.04446  23102408.240    23102406.720          45.300
        39.300
 130403367.459 7 101612994.42246  24814936.060    24814933.200          46.100
        36.950
 106192239.867 8  82747176.18747  20207710.920    20207705.000          50.000
        46.750
 112684767.408 8  87806301.66247  21443199.360    21443197.200          49.550
        44.750
 125736672.646 7  97795210.168 6  23488667.280    23488671.240          42.650
        38.000
 121591435.718 6                  22786182.980                          40.300

 116234554.331 7  90404657.464 7  21721204.980    21721206.520          43.800
        42.750
 108171748.680 7                  20249979.000                          46.150

 122195102.427 7  95040661.450 6  22923489.940    22923496.500          42.650
        37.250
 104757153.357 8  81477794.236 7  19603873.220    19603875.240          49.000
        46.100
 110683164.199 7  86086913.239 7  20734686.320    20734689.180          47.800
        45.100
 19  2 28 13  3 23.0000000  0 15G29G12G31G20G26G05G21G25R07R06R21R12
                                R10R11R22
 115353816.949 8  89886064.30447  21951100.900    21951096.140          50.000
        42.650
 125838460.588 7  98055934.40146  23946263.780    23946260.840          45.950
        37.100
 114783344.642 8  89441546.33347  21842544.800    21842539.400          49.800
        42.650
 117972591.902 7  91926677.10246  22449437.280    22449432.660          47.900
        37.850
 121400795.614 7  94598022.58346  23101802.480    23101800.840          45.000
        39.650
 130405478.774 7 101614639.59746  24815337.840    24815334.940          46.050
        36.000
 106191351.485 8  82746483.94247  20207541.880    20207535.960          50.000
        46.750
 112686604.461 8  87807733.13247  21443548.940    21443546.780          49.550
        45.150
 125733442.799 7  97792698.075 6  23488063.920    23488067.880          42.450
        38.600
 121589904.164 6                  22785895.940                          39.900

 116236775.556 7  90406385.079 7  21721620.060    21721621.620          43.650
        42.700
 108169899.269 7                  20249632.800                          46.100

 122199431.459 7  95044028.476 6  22924302.060    22924308.600          42.450
        36.100
 104758944.457 8  81479187.312 7  19604208.400    19604210.420          48.950
        46.100
 110683190.579 7  86086933.758 7  20734691.260    20734694.140          47.600
        45.600
 19  2 28 13  3 24.0000000  0 15G29G12G31G20G26G05G21G25R07R06R21R12
                                R10R11R22
 115354902.116 8  89886909.88947  21951307.400    21951302.640          50.050
        42.000
 125841474.295 7  98058282.74846  23946837.280    23946834.360          46.100
        36.850
 114783971.271 8  89442034.61346  21842664.040    21842658.640          49.750
        41.650
 117969461.041 7  91924237.47046  22448841.480    22448836.860          47.850
        38.850
 121397612.497 7  94595542.22446  23101196.820    23101195.200          45.200
        39.250
 130407590.510 7 101616285.10946  24815739.680    24815736.780          46.200
        36.450
 106190463.623 8  82745792.10747  20207372.920    20207367.000          49.850
        46.550
 112688442.018 8  87809164.99747  21443898.600    21443896.460          49.600
        44.600
 125730212.950 7  97790185.981 6  23487460.540    23487464.500          43.150
        37.500
 121588373.136 6                  22785609.060                          39.750

 116238996.749 7  90408112.670 7  21722035.120    21722036.720          43.850
        42.600
 108168050.666 7                  20249286.740                          45.800

 122203760.585 7  95047395.576 6  22925114.200    22925120.740          43.900
        36.650
 104760736.431 8  81480581.069 7  19604543.760    19604545.780          48.950
        45.750
 110683217.216 7  86086954.484 7  20734696.260    20734699.120          47.550
        45.000
 19  2 28 13  3 25.0000000  0 15G29G12G31G20G26G05G21G25R07R06R21R12
                                R10R11R22
 115355987.186 8  89887755.39647  21951513.880    21951509.140          49.900
        42.050
 125844488.184 7  98060631.24545  23947410.780    23947407.900          46.100
        35.650
 114784598.362 8  89442523.25447  21842783.380    21842777.960          50.050
        42.250
 117966330.222 7  91921797.87346  22448245.700    22448241.100          47.500
        38.150
 121394429.401 7  94593061.88546  23100591.060    23100589.420          45.100
        39.850
 130409702.554 7 101617930.86245  24816141.580    24816138.700          45.850
        35.750
 106189576.189 8  82745100.60747  20207204.040    20207198.120          49.850
        47.000
 112690279.956 8  87810597.15447  21444248.360    21444246.220          49.700
        45.100
 125726982.966 7  97787673.784 6  23486857.140    23486861.100          43.300
        37.700
 121586842.532 6                  22785322.200                          39.250

 116241217.787 7  90409840.137 7  21722450.160    21722451.780          43.800
        42.900
 108166202.735 7                  20248940.800                          46.050

 122208089.852 6  95050762.800 6  22925926.340    22925932.900          41.050
        38.100
 104762529.065 8  81481975.342 7  19604879.240    19604881.240          49.100
        45.800
 110683243.984 7  86086975.301 7  20734701.280    20734704.140          47.600
        45.600
 19  2 28 13  3 26.0000000  0 15G29G12G31G20G26G05G21G25R07R06R21R12
                                R10R11R22
 115357072.188 8  89888600.85647  21951720.360    21951715.620          49.900
        42.250
 125847502.228 7  98062979.85146  23947984.320    23947981.440          46.100
        37.600
 114785225.939 8  89443012.27546  21842902.800    21842897.380          49.800
        41.900
 117963199.464 7  91919358.34246  22447649.940    22447645.360          47.500
        37.800
 121391246.300 7  94590581.54946  23099985.360    23099983.700          45.050
        40.750
 130411814.857 7 101619576.82345  24816543.520    24816540.640          46.000
        35.150
 106188689.161 8  82744409.41947  20207035.260    20207029.320          49.850
        46.800
 112692118.265 8  87812029.60347  21444598.180    21444596.040          49.550
        45.400
 125723752.876 7  97785161.490 6  23486253.720    23486257.700          43.250
        38.050
 121585312.363 6                  22785035.460                          39.100

 116243438.635 7  90411567.461 7  21722865.180    21722866.800          43.800
        42.900
 108164355.458 7                  20248594.960                          46.050

 122212419.136 6  95054130.022 6  22926738.500    22926745.060          41.300
        37.550
 104764322.335 8  81483370.110 7  19605214.820    19605216.840          49.150
        45.850
 110683270.832 7  86086996.187 7  20734706.320    20734709.180          47.500
        45.300
 19  2 28 13  3 27.0000000  0 15G29G12G31G20G26G05G21G25R07R06R21R12
                                R10R11R22
 115358157.051 8  89889446.20447  21951926.800    21951922.060          49.950
        43.000
 125850516.356 7  98065328.52046  23948557.900    23948555.000          46.800
        37.900
 114785853.906 8  89443501.59547  21843022.300    21843016.880          49.750
        42.650
 117960068.687 7  91916918.78846  22447054.180    22447049.600          47.050
        38.200
 121388063.144 7  94588101.16746  23099379.600    23099378.200          44.950
        40.550
 130413927.400 7 101621222.96846  24816945.520    24816942.640          45.750
        36.600
 106187802.471 8  82743718.49447  20206866.520    20206860.580          49.750
        46.950
 112693956.865 8  87813462.28047  21444948.060    21444945.920          49.450
        45.250
 125720522.609 7  97782649.064 6  23485650.280    23485654.280          43.250
        38.200
 121583782.546 6                  22784748.780                          39.700

 116245659.239 7  90413294.598 7  21723280.160    21723281.780          43.800
        43.050
 108162508.796 7                  20248249.280                          46.000

 122216748.371 7  95057497.197 6  22927550.660    22927557.220          42.600
        37.300
 104766116.219 8  81484765.355 7  19605550.520    19605552.540          49.050
        46.050
 110683297.709 7  86087017.099 7  20734711.360    20734714.220          47.350
        45.350
 19  2 28 13  3 28.0000000  0 15G29G12G31G20G26G05G21G25R07R06R21R12
                                R10R11R22
 115359241.872 8  89890291.52047  21952133.240    21952128.500          49.700
        42.650
 125853530.689 7  98067677.33946  23949131.500    23949128.600          45.450
        38.150
 114786482.437 8  89443991.36647  21843141.920    21843136.480          50.000
        42.600
 117956938.036 7  91914479.31646  22446458.440    22446453.860          47.500
        38.900
 121384880.045 7  94585620.83546  23098773.860    23098772.580          45.150
        40.750
 130416040.353 7 101622869.41645  24817347.600    24817344.700          45.700
        35.700
 106186916.267 8  82743027.94647  20206697.880    20206691.940          49.750
        46.700
 112695795.904 8  87814895.29647  21445298.020    21445295.880          49.300
        45.250
 125717292.235 7  97780136.553 6  23485046.840    23485050.800          43.100
        38.500
 121582253.229 6                  22784462.200                          39.700

 116247879.734 7  90415021.652 7  21723695.120    21723696.760          43.700
        42.950
 108160662.877 7                  20247903.720                          46.100

 122221077.718 7  95060864.461 6  22928362.820    22928369.380          42.600
        36.700
 104767910.857 8  81486161.185 7  19605886.360    19605888.380          49.100
        46.000
 110683324.773 7  86087038.147 7  20734716.420    20734719.280          47.500
        45.300
 19  2 28 13  3 29.0000000  0 15G29G12G31G20G26G05G21G25R07R06R21R12
                                R10R11R22
 115360326.771 8  89891136.89747  21952339.700    21952334.940          49.800
        42.900
 125856545.319 7  98070026.39146  23949705.180    23949702.260          45.250
        37.150
 114787111.578 8  89444481.60147  21843261.640    21843256.200          49.650
        42.450
 117953807.578 7  91912039.97946  22445862.720    22445858.140          47.200
        38.550
 121381697.128 7  94583140.64046  23098168.200    23098166.820          44.900
        40.600
 130418153.712 7 101624516.18446  24817749.760    24817746.880          45.850
        36.200
 106186030.609 8  82742337.82147  20206529.360    20206523.400          49.700
        47.250
 112697635.474 8  87816328.72747  21445648.080    21445645.940          49.400
        45.350
 125714061.848 7  97777624.017 6  23484443.360    23484447.340          43.000
        39.050
 121580724.524 6                  22784175.740                          39.700

 116250100.188 7  90416748.670 7  21724110.060    21724111.720          43.850
        42.900
 108158817.799 7                  20247558.320                          45.900

 122225407.235 7  95064231.857 6  22929175.020    22929181.580          42.000
        37.600
 104769706.353 8  81487557.675 7  19606222.360    19606224.400          49.000
        45.900
 110683352.064 7  86087059.369 7  20734721.520    20734724.400          47.200
        45.600
 19  2 28 13  3 30.0000000  0 15G29G12G31G20G26G05G21G25R07R06R21R12
                                R10R11R22
 115361411.791 8  89891982.36746  21952546.160    21952541.420          50.700
        41.250
 125859560.296 7  98072375.71545  23950278.900    23950276.020          47.200
        35.900
 114787741.383 8  89444972.36146  21843381.500    21843376.060          50.350
        41.300
 117950677.355 8  91909600.84446  22445267.060    22445262.460          48.750
        36.250
 121378514.374 7  94580660.57146  23097562.480    23097561.120          46.100
        38.200
 130420267.545 7 101626163.32745  24818152.000    24818149.140          47.850
        32.900
 106185145.561 8  82741648.17347  20206360.940    20206354.980          50.700
        45.300
 112699475.603 8  87817762.59247  21445998.240    21445996.100          50.350
        44.150
 125710831.506 7  97775111.533 6  23483839.900    23483843.880          44.100
        37.350
 121579196.410 6                  22783889.360                          40.350

 116252320.686 7  90418475.721 6  21724525.000    21724526.680          45.100
        41.550
 108156973.586 7                  20247213.080                          47.200

 122229736.977 7  95067599.422 5  22929987.300    22929993.820          44.100
        35.300
 104771502.703 8  81488954.832 7  19606558.540    19606560.560          50.000
        44.400
 110683379.667 8  86087080.834 7  20734726.680    20734729.580          48.550
        44.250
 19  2 28 13  4 17.0000000  0 14G29G12G31G20G26G21G25R07R06R21R12R10
                                R11R22
 115412456.665 8  89931757.50347  21962259.780    21962255.040          48.350
        42.550
 126001571.331 6  98183033.55046  23977302.660    23977300.000          40.850
        38.500
 114818018.159 8  89468564.63846  21849143.000    21849137.500          48.250
        41.350
 117803758.676 7  91795118.82746  22417309.300    22417304.800          46.350
        41.000
 121229073.903 7  94464213.46046  23069125.080    23069123.820          43.750
        41.450
 106144153.132 8  82709706.00847  20198560.360    20198554.340          48.650
        47.350
 112786520.739 8  87885589.93147  21462562.480    21462560.240          48.150
        44.600
 125558990.040 6  97657012.817 6  23455474.480    23455478.640          41.550
        39.550
 121507995.192 6                  22770546.560                          37.800

 116356630.944 7  90499605.849 7  21744018.140    21744019.800          43.650
        42.900
 108071202.068 7                  20231156.580                          46.300

 122433410.716 7  95226012.203 5  22968196.260    22968202.640          45.150
        34.700
 104856839.227 8  81555327.651 7  19622528.180    19622530.260          49.050
        45.650
 110684940.302 8  86088294.632 7  20735019.180    20735021.880          48.050
        45.250
 19  2 28 13  4 18.0000000  0 14G29G12G31G20G26G21G25R07R06R21R12R10
                                R11R22
 115413543.761 8  89932604.59346  21962466.640    21962461.900          48.800
        41.000
 126004599.401 6  98185393.09746  23977878.900    23977876.200          41.100
        37.550
 114818676.692 8  89469077.77846  21849268.300    21849262.820          48.800
        41.300
 117800637.072 7  91792686.41046  22416715.280    22416710.760          47.150
        40.250
 121225897.463 7  94461738.31646  23068520.620    23068519.420          44.650
        41.750
 106143293.815 8  82709036.41147  20198396.840    20198390.820          49.150
        46.400
 112788384.655 8  87887042.33147  21462917.180    21462914.920          48.750
        44.750
 125555759.123 6  97654499.879 6  23454870.900    23454875.100          40.500
        39.350
 121506493.561 6                  22770265.160                          36.400

 116358849.145 6  90501331.115 7  21744432.660    21744434.340          41.700
        42.150
 108069396.453 7                  20230818.560                          44.650

 122437747.947 7  95229385.594 5  22969009.920    22969016.300          43.600
        34.600
 104858674.170 7  81556754.831 7  19622871.560    19622873.660          47.600
        45.450
 110684979.040 7  86088324.764 7  20735026.440    20735029.140          46.450
        44.600
 19  2 28 13  4 19.0000000  0 14G29G12G31G20G26G21G25R07R06R21R12R10
                                R11R22
 115414630.907 7  89933451.72047  21962673.520    21962668.780          47.700
        42.350
 126007627.757 6  98187752.85546  23978455.180    23978452.460          39.100
        38.400
 114819335.825 7  89469591.39146  21849393.720    21849388.240          47.750
        41.950
 117797515.686 7  91790254.16946  22416121.300    22416116.780          46.050
        40.800
 121222721.225 7  94459263.32546  23067916.200    23067914.980          43.300
        41.600
 106142435.050 8  82708367.24347  20198233.420    20198227.400          48.100
        47.600
 112790249.079 7  87888495.12747  21463271.960    21463269.720          47.500
        44.850
 125552528.182 6  97651986.933 6  23454267.300    23454271.580          40.750
        39.850
 121504992.533 6                  22769983.880                          37.600

 116361067.318 7  90503056.360 7  21744847.160    21744848.840          42.450
        42.050
 108067591.660 7                  20230480.680                          45.400

 122442085.311 7  95232759.092 5  22969823.620    22969829.980          44.150
        35.050
 104860509.957 8  81558182.663 7  19623215.120    19623217.200          48.100
        45.400
 110685018.032 7  86088355.089 7  20735033.720    20735036.440          46.750
        44.400
 19  2 28 13  4 20.0000000  0 14G29G12G31G20G26G21G25R07R06R21R12R10
                                R11R22
 115415718.227 8  89934298.98046  21962880.420    21962875.700          49.400
        41.200
 126010656.431 7  98190112.85746  23979031.520    23979028.820          43.700
        36.650
 114819995.669 8  89470105.55246  21849519.300    21849513.800          49.550
        40.450
 117794394.582 8  91787822.14646  22415527.360    22415522.840          48.100
        39.750
 121219545.197 7  94456788.49246  23067311.840    23067310.600          45.800
        40.200
 106141576.924 8  82707698.57447  20198070.120    20198064.080          49.950
        46.450
 112792114.104 8  87889948.38947  21463626.860    21463624.620          49.250
        43.200
 125549297.336 6  97649474.066 6  23453663.740    23453668.060          41.850
        38.250
 121503492.110 6                  22769702.700                          38.850

 116363285.565 7  90504781.659 6  21745261.700    21745263.380          43.350
        41.900
 108065787.764 7                  20230142.980                          46.350

 122446422.934 7  95236132.800 5  22970637.360    22970643.700          45.100
        33.700
 104862346.663 8  81559611.210 7  19623558.820    19623560.920          49.000
        45.050
 110685057.347 7  86088385.665 7  20735041.100    20735043.800          47.850
        44.650
 19  2 28 13  4 21.0000000  0 14G29G12G31G20G26G21G25R07R06R21R12R10
                                R11R22
 115416805.901 8  89935146.51046  21963087.400    21963082.680          48.700
        41.650
 126013685.728 7  98192473.34846  23979608.000    23979605.260          42.050
        40.300
 114820656.426 8  89470620.42246  21849645.040    21849639.560          48.900
        41.850
 117791273.981 7  91785390.51546  22414933.520    22414929.000          47.200
        40.100
 121216369.642 7  94454314.03446  23066707.540    23066706.320          44.750
        40.650
 106140719.657 8  82707030.56947  20197906.980    20197900.940          49.150
        47.000
 112793979.957 8  87891402.29447  21463981.940    21463979.660          48.600
        44.350
 125546066.813 6  97646961.445 6  23453060.240    23453064.600          39.600
        37.750
 121501992.579 6                  22769421.660                          37.050

 116365504.042 7  90506507.137 7  21745676.280    21745677.980          42.550
        42.200
 108063985.002 7                  20229805.500                          45.650

 122450761.015 7  95239506.864 5  22971451.180    22971457.520          44.250
        33.550
 104864184.462 8  81561040.605 7  19623902.740    19623904.840          48.400
        45.150
 110685097.222 7  86088416.671 7  20735048.580    20735051.260          47.050
        44.600
 19  2 28 13  4 22.0000000  0 14G29G12G31G20G26G21G25R07R06R21R12R10
                                R11R22
 115417893.394 8  89935993.90346  21963294.340    21963289.620          49.100
        41.950
 126016715.064 7  98194833.87046  23980184.460    23980181.720          44.100
        37.600
 114821317.583 8  89471135.60946  21849770.840    21849765.380          49.400
        40.750
 117788153.342 7  91782958.85446  22414339.680    22414335.160          47.100
        39.400
 121213193.995 7  94451839.50646  23066103.240    23066102.040          45.550
        40.300
 106139862.713 8  82706362.82147  20197743.920    20197737.880          49.650
        46.700
 112795846.091 8  87892856.41947  21464337.060    21464334.780          49.200
        43.600
 125542836.128 6  97644448.701 6  23452456.700    23452461.100          41.650
        37.750
 121500493.416 6                  22769140.740                          38.600

 116367722.244 7  90508232.401 7  21746090.840    21746092.500          44.300
        42.650
 108062182.853 7                  20229468.140                          46.600

 122455099.037 7  95242880.873 5  22972264.980    22972271.320          44.750
        35.200
 104866022.840 8  81562470.451 7  19624246.760    19624248.880          49.200
        45.800
 110685137.116 7  86088447.700 7  20735056.060    20735058.720          47.750
        45.100
 19  2 28 13  4 23.0000000  0 14G29G12G31G20G26G21G25R07R06R21R12R10
                                R11R22
 115418980.660 8  89936841.12647  21963501.240    21963496.540          48.100
        42.550
 126019744.421 7  98197194.42446  23980760.920    23980758.200          42.000
        38.000
 114821979.064 8  89471651.03447  21849896.720    21849891.240          48.900
        42.750
 117785032.628 7  91780527.14046  22413745.840    22413741.320          45.650
        39.850
 121210018.212 7  94449364.86347  23065498.920    23065497.720          43.850
        42.000
 106139006.043 8  82705695.28747  20197580.900    20197574.860          48.300
        47.100
 112797712.438 8  87894310.71547  21464692.220    21464689.920          48.000
        44.100
 125539605.163 7  97641935.734 6  23451853.100    23451857.540          42.650
        37.250
 121498994.491 6                  22768859.820                          40.900

 116369940.159 7  90509957.442 7  21746505.320    21746506.980          45.300
        42.850
 108060381.252 7                  20229130.880                          47.150

 122459436.943 7  95246254.801 6  22973078.760    22973085.100          44.900
        36.000
 104867861.756 8  81563900.717 7  19624590.880    19624593.000          49.850
        45.900
 110685176.976 8  86088478.697 7  20735063.520    20735066.200          48.450
        45.350
 19  2 28 13  4 24.0000000  0 14G29G12G31G20G26G21G25R07R06R21R12R10
                                R11R22
 115420068.074 8  89937688.46946  21963708.160    21963703.460          49.000
        41.050
 126022774.207 7  98199555.30446  23981337.480    23981334.780          44.100
        37.800
 114822641.230 8  89472166.99146  21850022.720    21850017.240          50.000
        41.800
 117781912.212 7  91778095.65346  22413152.040    22413147.500          46.550
        39.000
 121206842.668 7  94446890.41546  23064894.660    23064893.460          44.900
        40.650
 106138149.984 8  82705028.23347  20197417.980    20197411.960          49.250
        45.650
 112799579.376 8  87895765.47247  21465047.480    21465045.200          49.100
        43.500
 125536374.203 7  97639422.761 6  23451249.540    23451253.960          42.350
        38.350
 121497496.232 6                  22768579.040                          38.300

 116372158.141 7  90511682.537 7  21746919.800    21746921.480          44.000
        42.850
 108058580.546 7                  20228793.780                          45.800

 122463775.053 7  95249628.887 5  22973892.580    22973898.920          43.550
        34.200
 104869701.578 8  81565331.693 7  19624935.180    19624937.300          48.850
        45.600
 110685217.155 7  86088509.954 7  20735071.060    20735073.720          47.300
        45.050
 19  2 28 13  4 25.0000000  0 14G29G12G31G20G26G21G25R07R06R21R12R10
                                R11R22
 115421155.796 8  89938536.05146  21963915.160    21963910.460          49.050
        41.250
 126025804.441 7  98201916.51046  23981914.140    23981911.400          42.700
        37.700
 114823304.255 8  89472683.62646  21850148.900    21850143.400          49.550
        41.150
 117778792.224 7  91775664.48346  22412558.340    22412553.780          47.000
        38.950
 121203667.525 7  94444416.28046  23064290.480    23064289.280          45.000
        40.600
 106137294.748 8  82704361.81747  20197255.240    20197249.220          49.450
        46.050
 112801447.076 8  87897220.82347  21465402.900    21465400.600          49.150
        43.350
 125533143.574 7  97636910.052 6  23450646.020    23450650.440          43.250
        38.900
 121495998.779 6                  22768298.440                          39.000

 116374376.362 7  90513407.820 7  21747334.320    21747336.020          43.800
        42.650
 108056780.921 7                  20228456.880                          46.000

 122468113.588 7  95253003.307 6  22974706.460    22974712.820          44.000
        36.850
 104871542.529 8  81566763.546 7  19625279.680    19625281.820          48.650
        45.900
 110685257.858 7  86088541.614 7  20735078.700    20735081.340          47.450
        45.250
 19  2 28 13  4 26.0000000  0 14G29G12G31G20G26G21G25R07R06R21R12R10
                                R11R22
 115422243.785 8  89939383.83946  21964122.200    21964117.500          49.150
        41.000
 126028835.254 7  98204278.18446  23982490.900    23982488.160          43.250
        37.250
 114823968.116 8  89473200.93246  21850275.240    21850269.740          49.550
        40.950
 117775672.690 7  91773233.66945  22411964.700    22411960.140          44.750
        34.350
 121200492.717 7  94441942.40946  23063686.320    23063685.160          45.000
        40.550
 106136440.256 8  82703695.98147  20197092.640    20197086.620          49.450
        45.950
 112803315.511 8  87898676.74447  21465758.460    21465756.160          49.200
        43.800
 125529913.120 7  97634397.474 6  23450042.520    23450046.960          44.800
        38.550
 121494502.156 6                  22768017.980                          39.100

 116376594.729 7  90515133.219 7  21747748.880    21747750.580          44.150
        42.800
 108054982.343 7                  20228120.180                          46.200

 122472452.431 7  95256377.967 5  22975520.420    22975526.780          42.700
        35.150
 104873384.464 8  81568196.171 7  19625624.380    19625626.500          49.100
        45.300
 110685299.020 7  86088573.635 7  20735086.420    20735089.060          47.450
        45.150
 19  2 28 13  4 27.0000000  0 14G29G12G31G20G26G21G25R07R06R21R12R10
                                R11R22
 115423331.961 8  89940231.76646  21964329.260    21964324.580          49.150
        41.250
 126031866.401 7  98206640.09646  23983067.700    23983064.960          43.700
        38.300
 114824632.696 8  89473718.78846  21850401.700    21850396.200          49.550
        40.850
 117772553.348 7  91770803.01745  22411371.120    22411366.540          45.750
        35.150
 121197318.226 7  94439468.78646  23063082.240    23063081.080          45.200
        40.550
 106135586.441 8  82703030.67147  20196930.160    20196924.140          49.550
        45.950
 112805184.546 8  87900133.13347  21466114.120    21466111.820          48.800
        43.850
 125526682.845 7  97631885.024 6  23449439.080    23449443.520          44.300
        39.350
 121493006.222 6                  22767737.640                          39.200

 116378813.169 7  90516858.670 7  21748163.440    21748165.140          44.250
        42.450
 108053184.714 7                  20227783.660                          46.100

 122476791.864 6  95259753.073 5  22976334.440    22976340.860          40.750
        32.550
 104875227.318 8  81569629.500 7  19625969.240    19625971.380          49.050
        45.700
 110685340.561 7  86088605.943 7  20735094.200    20735096.840          47.550
        45.150
 19  2 28 13  4 28.0000000  0 14G29G12G31G20G26G21G25R07R06R21R12R10
                                R11R22
 115424420.158 8  89941079.71046  21964536.340    21964531.680          49.100
        40.900
 126034897.849 7  98209002.25546  23983644.560    23983641.800          45.000
        39.400
 114825297.863 8  89474237.09946  21850528.260    21850522.780          49.550
        41.250
 117769434.280 7  91768372.57246  22410777.580    22410773.020          47.650
        39.900
 121194143.822 7  94436995.22746  23062478.180    23062476.960          45.150
        39.950
 106134733.155 8  82702365.77247  20196767.780    20196761.760          49.600
        46.300
 112807054.083 8  87901589.91547  21466469.880    21466467.580          49.000
        43.800
 125523452.541 7  97629372.550 6  23448835.640    23448840.060          43.900
        40.550
 121491510.845 6                  22767457.420                          38.950

 116381031.558 7  90518584.082 7  21748578.000    21748579.700          44.350
        42.400
 108051387.875 7                  20227447.280                          46.250

 122481131.024 6  95263127.986 5  22977148.460    22977154.860          40.100
        33.200
 104877070.968 8  81571063.448 7  19626314.260    19626316.380          49.100
        45.700
 110685382.291 7  86088638.400 7  20735102.040    20735104.640          47.650
        45.200
 19  2 28 13  4 29.0000000  0 14G29G12G31G20G26G21G25R07R06R21R12R10
                                R11R22
 115425508.276 8  89941927.59046  21964743.400    21964738.740          49.150
        41.300
 126037929.382 7  98211364.48346  23984221.460    23984218.660          42.550
        38.050
 114825963.513 8  89474755.79046  21850654.940    21850649.440          49.650
        41.050
 117766315.248 7  91765942.14846  22410184.060    22410179.480          47.700
        39.650
 121190969.428 7  94434521.67146  23061874.120    23061872.860          45.200
        40.150
 106133880.286 8  82701701.19747  20196605.480    20196599.460          49.650
        45.800
 112808923.990 8  87903046.98647  21466825.720    21466823.420          49.100
        43.800
 125520222.105 7  97626859.985 6  23448232.160    23448236.600          43.000
        40.100
 121490015.849 6                  22767177.260                          39.100

 116383249.784 7  90520309.368 7  21748992.540    21748994.220          44.550
        42.600
 108049591.715 7                  20227111.040                          46.350

 122485470.441 6  95266503.094 5  22977962.520    22977968.940          40.100
        33.500
 104878915.300 8  81572497.926 7  19626659.400    19626661.520          49.050
        45.650
 110685424.110 7  86088670.923 7  20735109.880    20735112.480          47.700
        45.250
 19  2 28 13  4 30.0000000  0 14G29G12G31G20G26G21G25R07R06R21R12R10
                                R11R22
 115426596.184 8  89942775.30646  21964950.420    21964945.760          49.100
        41.000
 126040960.959 7  98213726.76346  23984798.360    23984795.560          42.650
        38.200
 114826629.484 8  89475274.72646  21850781.660    21850776.180          49.550
        41.600
 117763196.127 7  91763511.66646  22409590.500    22409585.920          47.850
        39.950
 121187794.930 7  94432048.04046  23061270.040    23061268.780          45.550
        40.350
 106133027.672 8  82701036.82347  20196443.240    20196437.220          49.600
        46.550
 112810794.126 8  87904504.23047  21467181.600    21467179.300          49.100
        43.350
 125516991.354 7  97624347.195 6  23447628.640    23447633.080          43.300
        40.050
 121488521.171 6                  22766897.160                          38.650

 116385467.651 7  90522034.374 7  21749407.020    21749408.680          44.600
        42.400
 108047796.075 7                  20226774.900                          46.300

 122489809.722 6  95269878.090 5  22978776.600    22978782.980          39.550
        32.700
 104880760.155 8  81573932.811 7  19627004.640    19627006.780          49.150
        45.750
 110685465.872 7  86088703.405 7  20735117.700    20735120.300          47.700
        45.050
 19  2 28 13  4 31.0000000  0 14G29G12G31G20G26G21G25R07R06R21R12R10
                                R11R22
 115427683.929 8  89943622.89846  21965157.420    21965152.760          49.150
        41.100
 126043992.603 6  98216089.09246  23985375.260    23985372.440          41.500
        37.850
 114827295.862 8  89475793.98346  21850908.460    21850902.980          49.550
        41.500
 117760077.030 7  91761081.19846  22408996.960    22408992.360          47.850
        39.900
 121184620.339 7  94429574.33946  23060665.940    23060664.680          45.550
        40.950
 106132175.406 8  82700372.71947  20196281.060    20196275.040          49.600
        46.150
 112812664.558 8  87905961.71247  21467537.540    21467535.220          49.100
        43.700
 125513760.460 7  97621834.305 6  23447025.060    23447029.540          42.250
        39.600
 121487026.872 6                  22766617.120                          38.750

 116387685.288 7  90523759.205 7  21749821.460    21749823.100          44.600
        42.350
 108046001.050 7                  20226438.860                          46.350

 122494148.930 6  95273253.028 5  22979590.600    22979597.000          40.050
        33.250
 104882605.606 8  81575368.160 7  19627350.000    19627352.120          49.200
        45.650
 110685507.682 7  86088735.926 7  20735125.540    20735128.120          47.650
        45.050
 19  2 28 13  4 32.0000000  0 14G29G12G31G20G26G21G25R07R06R21R12R10
                                R11R22
 115428771.729 8  89944470.53646  21965364.420    21965359.760          49.050
        41.250
 126047024.543 7  98218451.65746  23985952.200    23985949.440          43.150
        38.400
 114827962.836 8  89476313.70646  21851035.380    21851029.900          49.550
        41.750
 117756958.114 7  91758650.87046  22408403.420    22408398.860          47.900
        40.200
 121181445.909 7  94427100.75546  23060061.880    23060060.620          45.600
        40.400
 106131323.690 8  82699709.04747  20196118.980    20196112.960          49.500
        46.300
 112814535.490 8  87907419.58147  21467893.560    21467891.260          49.050
        43.750
 125510529.484 6  97619321.344 6  23446421.460    23446425.980          41.750
        39.750
 121485533.075 6                  22766337.160                          39.100

 116389902.914 7  90525484.028 7  21750235.880    21750237.500          44.500
        42.600
 108044206.828 7                  20226102.980                          46.400

 122498488.317 6  95276628.107 5  22980404.660    22980411.060          39.800
        32.700
 104884451.875 8  81576804.144 7  19627695.500    19627697.640          49.150
        45.750
 110685549.744 7  86088768.643 7  20735133.420    20735136.000          47.650
        45.150
 19  2 28 13  4 33.0000000  0 14G29G12G31G20G26G21G25R07R06R21R12R10
                                R11R22
 115429859.761 8  89945318.35146  21965571.460    21965566.800          49.000
        41.150
 126050056.937 7  98220814.56046  23986529.240    23986526.500          43.750
        36.900
 114828630.593 8  89476834.03446  21851162.460    21851156.980          49.550
        41.800
 117753839.571 7  91756220.84146  22407810.000    22407805.440          47.850
        39.400
 121178271.807 7  94424627.42746  23059457.860    23059456.620          45.400
        40.200
 106130472.682 8  82699045.92647  20195957.040    20195951.040          49.600
        46.350
 112816407.108 8  87908877.98947  21468249.720    21468247.420          49.050
        43.900
 125507298.717 6  97616808.540 6  23445817.920    23445822.400          41.750
        39.450
 121484040.040 6                  22766057.380                          39.450

 116392120.675 7  90527208.950 7  21750650.320    21750651.940          44.650
        42.750
 108042413.601 7                  20225767.280                          46.300

 122502828.009 6  95280003.414 5  22981218.780    22981225.200          39.850
        32.650
 104886299.151 8  81578240.914 7  19628041.200    19628043.320          49.150
        45.850
 110685592.227 7  86088801.685 7  20735141.380    20735143.960          47.700
        45.100
 19  2 28 13  4 34.0000000  0 14G29G12G31G20G26G21G25R07R06R21R12R10
                                R11R22
 115430947.968 8  89946166.30346  21965778.540    21965773.880          49.050
        41.250
 126053089.744 7  98223177.77446  23987106.360    23987103.620          43.200
        37.350
 114829299.081 8  89477354.93646  21851289.660    21851284.180          49.600
        41.500
 117750721.353 7  91753791.06346  22407216.620    22407212.080          47.800
        39.800
 121175097.965 7  94422154.30446  23058853.900    23058852.660          45.650
        41.000
 106129622.357 8  82698383.33547  20195795.240    20195789.220          49.600
        46.150
 112818279.359 8  87910336.88547  21468606.000    21468603.700          49.150
        43.750
 125504068.158 7  97614295.898 6  23445214.420    23445218.880          42.650
        40.900
 121482547.708 6                  22765777.720                          38.700

 116394338.520 7  90528933.941 7  21751064.780    21751066.400          44.550
        42.850
 108040621.300 7                  20225431.780                          46.450

 122507167.985 6  95283378.947 5  22982032.960    22982039.360          40.600
        32.300
 104888147.354 8  81579678.404 7  19628387.060    19628389.200          49.200
        45.950
 110685635.073 7  86088835.007 7  20735149.400    20735151.980          47.750
        45.350
 19  2 28 13  4 35.0000000  0 14G29G12G31G20G26G21G25R07R06R21R12R10
                                R11R22
 115432036.131 8  89947014.22046  21965985.600    21965980.960          49.050
        41.400
 126056122.688 7  98225541.10146  23987683.520    23987680.760          42.100
        37.100
 114829968.079 8  89477876.23446  21851416.960    21851411.500          49.600
        41.550
 117747603.210 7  91751361.34146  22406623.260    22406618.700          47.850
        40.000
 121171924.171 7  94419681.21546  23058249.960    23058248.720          45.600
        40.800
 106128772.471 8  82697721.08547  20195633.500    20195627.500          49.600
        46.450
 112820152.001 8  87911796.08747  21468962.360    21468960.060          49.100
        43.600
 125500837.407 6  97611783.085 6  23444610.900    23444615.340          41.750
        40.100
 121481055.805 6                  22765498.120                          39.100

 116396556.190 7  90530658.795 7  21751479.200    21751480.820          44.650
        42.750
 108038829.712 7                  20225096.400                          46.400

 122511508.038 6  95286754.546 5  22982847.100    22982853.540          40.550
        33.200
 104889996.249 8  81581116.431 7  19628733.040    19628735.200          49.250
        45.850
 110685678.055 7  86088868.438 7  20735157.460    20735160.020          47.850
        45.350
 19  2 28 13  4 36.0000000  0 14G29G12G31G20G26G21G25R07R06R21R12R10
                                R11R22
 115433124.260 8  89947862.11246  21966192.660    21966188.020          48.950
        41.200
 126059155.905 7  98227904.64346  23988260.720    23988257.980          42.400
        39.550
 114830637.586 8  89478397.92446  21851544.360    21851538.900          49.550
        41.650
 117744485.182 7  91748931.71146  22406029.920    22406025.360          47.850
        40.000
 121168750.421 7  94417208.16546  23057646.040    23057644.780          45.600
        40.550
 106127923.052 8  82697059.19947  20195471.860    20195465.840          49.600
        46.400
 112822025.080 8  87913255.62547  21469318.800    21469316.500          49.050
        44.050
 125497606.591 7  97609270.224 6  23444007.380    23444011.800          43.000
        40.350
 121479564.406 6                  22765218.660                          39.750

 116398773.738 7  90532383.551 7  21751893.620    21751895.220          44.650
        42.450
 108037038.861 7                  20224761.140                          46.550

 122515848.145 6  95290130.189 5  22983661.300    22983667.760          40.450
        32.350
 104891845.887 8  81582555.038 7  19629079.180    19629081.320          49.250
        45.850
 110685721.184 7  86088901.983 7  20735165.540    20735168.080          47.800
        45.350
 19  2 28 13  4 37.0000000  0 14G29G12G31G20G26G21G25R07R06R21R12R10
                                R11R22
 115434212.386 8  89948709.99646  21966399.740    21966395.080          49.050
        41.500
 126062189.235 7  98230268.26046  23988837.920    23988835.200          43.900
        37.100
 114831307.653 8  89478920.05046  21851671.860    21851666.420          49.550
        41.600
 117741367.298 7  91746502.19346  22405436.600    22405432.060          47.900
        40.050
 121165576.774 7  94414735.18946  23057042.140    23057040.860          45.600
        40.350
 106127074.130 8  82696397.69947  20195310.320    20195304.300          49.650
        46.650
 112823898.605 8  87914715.50947  21469675.320    21469673.020          49.100
        44.150
 125494375.725 7  97606757.322 6  23443403.840    23443408.260          42.300
        40.400
 121478073.484 6                  22764939.300                          39.450

 116400991.218 7  90534108.257 7  21752308.020    21752309.600          44.750
        42.650
 108035248.785 7                  20224426.040                          46.500

 122520188.415 6  95293505.965 5  22984475.500    22984482.000          40.700
        32.650
 104893696.278 8  81583994.231 7  19629425.440    19629427.600          49.300
        45.850
 110685764.492 7  86088935.667 7  20735173.660    20735176.200          47.850
        45.400
 19  2 28 13  4 38.0000000  0 14G29G12G31G20G26G21G25R07R06R21R12R10
                                R11R22
 115435300.307 8  89949557.72346  21966606.760    21966602.120          49.050
        41.850
 126065222.649 6  98232631.96546  23989415.180    23989412.400          41.400
        37.250
 114831978.048 8  89479442.43246  21851799.440    21851793.980          49.450
        41.800
 117738249.336 7  91744072.61446  22404843.260    22404838.720          47.900
        39.900
 121162403.016 7  94412262.12546  23056438.200    23056436.880          45.450
        40.250
 106126225.478 8  82695736.41447  20195148.820    20195142.820          49.600
        46.300
 112825772.367 8  87916175.58147  21470031.900    21470029.580          49.000
        43.700
 125491144.548 6  97604244.176 6  23442800.200    23442804.620          41.850
        40.150
 121476582.878 6                  22764659.920                          39.250

 116403208.373 7  90535832.712 7  21752722.340    21752723.920          44.700
        42.750
 108033459.254 7                  20224091.040                          46.550

 122524528.548 6  95296881.622 5  22985289.680    22985296.200          39.800
        33.050
 104895547.187 8  81585433.828 7  19629771.820    19629773.960          49.350
        45.850
 110685807.754 8  86088969.313 7  20735181.760    20735184.300          48.000
        45.550
 19  2 28 13  4 39.0000000  0 14G29G12G31G20G26G21G25R07R06R21R12R10
                                R11R22
 115436388.320 8  89950405.53246  21966813.800    21966809.160          49.050
        41.500
 126068256.412 6  98234995.94746  23989992.480    23989989.740          40.800
        38.800
 114832649.079 8  89479965.31446  21851927.120    21851921.660          49.450
        41.250
 117735131.615 7  91741643.22346  22404249.980    22404245.440          47.900
        39.650
 121159229.455 7  94409789.22346  23055834.320    23055832.980          45.300
        40.900
 106125377.418 8  82695075.58847  20194987.440    20194981.440          49.550
        46.500
 112827646.678 8  87917636.08347  21470388.560    21470386.260          48.950
        43.900
 125487913.462 7  97601731.111 6  23442196.600    23442201.000          42.300
        40.050
 121475092.904 6                  22764380.660                          39.000

 116405425.550 7  90537557.185 7  21753136.680    21753138.260          44.800
        42.850
 108031670.612 7                  20223756.200                          46.550

 122528868.882 6  95300257.437 5  22986103.940    22986110.440          39.300
        32.800
 104897398.973 8  81586874.106 7  19630118.360    19630120.500          49.300
        45.900
 110685851.310 7  86089003.190 7  20735189.920    20735192.460          47.950
        45.600
 19  2 28 13  4 40.0000000  0 14G29G12G31G20G26G21G25R07R06R21R12R10
                                R11R22
 115437476.551 8  89951253.50046  21967020.880    21967016.240          49.150
        41.650
 126071290.565 7  98237360.21346  23990569.860    23990567.160          42.550
        36.350
 114833320.873 8  89480488.79346  21852054.960    21852049.500          49.700
        41.400
 117732014.242 7  91739214.10346  22403656.760    22403652.220          47.950
        40.250
 121156056.197 7  94407316.56246  23055230.480    23055229.120          45.300
        41.300
 106124530.073 8  82694415.32147  20194826.200    20194820.200          49.600
        46.650
 112829521.661 8  87919097.10747  21470745.360    21470743.060          48.900
        43.700
 125484682.542 7  97599218.179 6  23441593.040    23441597.440          42.000
        40.000
 121473603.664 6                  22764101.560                          38.700

 116407642.842 7  90539281.743 7  21753551.040    21753552.600          44.700
        42.950
 108029882.956 7                  20223421.540                          46.600

 122533209.572 6  95303633.529 5  22986918.240    22986924.740          40.100
        32.550
 104899251.732 8  81588315.140 7  19630465.100    19630467.220          49.350
        45.800
 110685895.272 8  86089037.382 7  20735198.160    20735200.700          48.000
        45.550
 19  2 28 13  4 41.0000000  0 14G29G12G31G20G26G21G25R07R06R21R12R10
                                R11R22
 115438564.995 8  89952101.63646  21967228.020    21967223.380          49.100
        41.700
 126074325.164 7  98239724.83846  23991147.320    23991144.640          42.950
        37.500
 114833993.436 8  89481012.86447  21852182.960    21852177.480          49.650
        42.050
 117728897.223 8  91736785.25746  22403063.620    22403059.080          48.050
        40.550
 121152883.220 7  94404844.11246  23054626.700    23054625.360          45.450
        40.750
 106123683.426 8  82693755.59447  20194665.080    20194659.100          49.600
        46.550
 112831397.294 8  87920558.63247  21471102.280    21471099.980          48.850
        43.700
 125481451.801 6  97596705.385 6  23440989.460    23440993.940          41.950
        40.150
 121472115.165 6                  22763822.600                          39.700

 116409860.257 7  90541006.395 7  21753965.440    21753966.980          44.700
        42.850
 108028096.277 7                  20223087.080                          46.550

 122537550.561 6  95307009.850 5  22987732.580    22987739.100          39.900
        31.750
 104901105.452 8  81589756.923 7  19630811.980    19630814.120          49.300
        45.600
 110685939.647 7  86089071.896 7  20735206.460    20735209.020          47.900
        45.700
 19  2 28 13  4 42.0000000  0 14G29G12G31G20G26G21G25R07R06R21R12R10
                                R11R22
 115439653.647 8  89952949.93046  21967435.180    21967430.540          49.050
        41.550
 126077360.165 7  98242089.77846  23991724.860    23991722.200          44.650
        36.300
 114834666.756 8  89481537.52746  21852311.080    21852305.620          49.650
        41.800
 117725780.545 7  91734356.67746  22402470.520    22402466.000          47.700
        40.350
 121149710.553 7  94402371.90046  23054022.980    23054021.620          45.450
        41.100
 106122837.483 8  82693096.42047  20194504.120    20194498.120          49.550
        46.700
 112833273.586 8  87922020.67447  21471459.320    21471457.040          48.850
        43.900
 125478221.184 6  97594192.687 6  23440385.940    23440390.460          41.800
        37.150
 121470627.427 6                  22763543.780                          39.500

 116412077.774 7  90542731.126 7  21754379.860    21754381.360          44.650
        42.900
 108026310.565 7                  20222752.780                          46.450

 122541891.923 6  95310386.449 5  22988547.020    22988553.520          40.050
        33.050
 104902960.167 8  81591199.476 7  19631159.080    19631161.200          49.150
        45.900
 110685984.404 7  86089106.705 7  20735214.840    20735217.400          47.800
        45.650
 19  2 28 13  4 43.0000000  0 14G29G12G31G20G26G21G25R07R06R21R12R10
                                R11R22
 115440742.206 8  89953798.16046  21967642.320    21967637.680          49.000
        41.800
 126080395.350 7  98244454.85746  23992302.440    23992299.780          44.050
        36.700
 114835340.543 8  89482062.55446  21852439.300    21852433.840          49.650
        41.650
 117722663.933 7  91731928.15746  22401877.460    22401872.920          47.600
        40.100
 121146537.904 7  94399899.70446  23053419.240    23053417.900          45.150
        41.300
 106121991.948 8  82692437.56247  20194343.220    20194337.220          49.550
        46.400
 112835150.240 8  87923483.00047  21471816.440    21471814.140          48.850
        43.650
 125474990.497 7  97591679.926 6  23439782.400    23439786.920          42.150
        36.450
 121469140.105 6                  22763265.040                          38.700

 116414295.109 7  90544455.720 7  21754794.200    21754795.720          44.600
        42.750
 108024525.540 7                  20222418.620                          46.450

 122546233.275 6  95313763.045 5  22989361.460    22989367.960          41.300
        33.400
 104904815.552 8  81592642.556 7  19631506.280    19631508.420          49.150
        45.750
 110686029.270 7  86089141.601 7  20735223.240    20735225.820          47.750
        45.600
 19  2 28 13  4 44.0000000  0 14G29G12G31G20G26G21G25R07R06R21R12R10
                                R11R22
 115441830.716 8  89954646.34947  21967849.460    21967844.820          49.050
        42.150
 126083430.695 7  98246820.05346  23992880.040    23992877.380          45.600
        37.600
 114836014.832 8  89482587.97246  21852567.620    21852562.140          49.650
        41.900
 117719547.400 7  91729499.69446  22401284.400    22401279.860          47.600
        40.600
 121143365.276 7  94397427.52946  23052815.500    23052814.180          45.100
        41.900
 106121146.854 8  82691779.04747  20194182.400    20194176.420          49.400
        46.400
 112837027.284 8  87924945.62947  21472173.640    21472171.340          48.750
        43.850
 125471759.668 7  97589167.047 6  23439178.860    23439183.360          42.150
        37.350
 121467653.247 6                  22762986.380                          39.200

 116416512.291 7  90546180.193 7  21755208.540    21755210.040          44.650
        42.600
 108022741.214 7                  20222084.600                          46.400

 122550574.666 6  95317139.677 5  22990175.880    22990182.380          40.850
        33.600
 104906671.605 8  81594086.152 7  19631853.600    19631855.740          49.200
        45.800
 110686074.246 7  86089176.585 7  20735231.680    20735234.240          47.700
        45.550
 19  2 28 13  4 45.0000000  0 14G29G12G31G20G26G21G25R07R06R21R12R10
                                R11R22
 115442919.297 8  89955494.59446  21968056.620    21968051.980          49.100
        41.650
 126086466.340 7  98249185.48346  23993457.720    23993455.040          44.550
        37.250
 114836689.742 8  89483113.87646  21852696.060    21852690.580          49.700
        41.550
 117716431.091 7  91727071.40746  22400691.380    22400686.840          47.800
        40.350
 121140192.842 7  94394955.50346  23052211.820    23052210.520          45.350
        40.800
 106120302.320 8  82691120.96847  20194021.700    20194015.700          49.400
        46.800
 112838904.866 8  87926408.68547  21472530.940    21472528.640          48.750
        43.850
 125468528.868 6  97586654.188 6  23438575.340    23438579.840          41.950
        37.450
 121466166.971 6                  22762707.860                          39.200

 116418729.465 7  90547904.661 7  21755622.880    21755624.380          44.700
        42.850
 108020957.738 7                  20221750.740                          46.550

 122554916.239 6  95320516.447 5  22990990.340    22990996.860          41.250
        34.400
 104908528.464 8  81595530.375 7  19632201.080    19632203.240          49.200
        45.750
 110686119.489 7  86089211.774 7  20735240.160    20735242.720          47.850
        45.400
 19  2 28 13  4 46.0000000  0 14G29G12G31G20G26G21G25R07R06R21R12R10
                                R11R22
 115444007.893 8  89956342.85146  21968263.760    21968259.120          49.050
        40.950
 126089502.234 7  98251551.12146  23994035.440    23994032.760          43.500
        37.750
 114837365.224 8  89483640.23247  21852824.600    21852819.120          49.700
        42.050
 117713314.936 7  91724643.23646  22400098.400    22400093.860          47.650
        39.550
 121137020.483 7  94392483.53846  23051608.160    23051606.840          45.400
        40.150
 106119458.283 8  82690463.28147  20193861.080    20193855.100          49.450
        46.600
 112840782.908 8  87927872.09447  21472888.320    21472886.000          48.750
        43.800
 125465298.018 7  97584141.300 6  23437971.780    23437976.280          43.050
        37.600
 121464681.236 6                  22762429.420                          39.250

 116420946.556 7  90549629.066 7  21756037.220    21756038.680          44.800
        42.700
 108019175.039 7                  20221417.000                          46.550

 122559257.916 6  95323893.305 5  22991804.820    22991811.320          41.300
        33.650
 104910386.078 8  81596975.187 7  19632548.720    19632550.860          49.250
        45.750
 110686164.916 7  86089247.108 7  20735248.660    20735251.240          47.850
        45.600
 19  2 28 13  4 47.0000000  0 14G29G12G31G20G26G21G25R07R06R21R12R10
                                R11R22
 115445096.329 8  89957190.98546  21968470.880    21968466.240          49.000
        41.800
 126092538.234 7  98253916.83546  23994613.180    23994610.480          43.900
        37.850
 114838041.106 8  89484166.89146  21852953.220    21852947.740          49.650
        41.900
 117710198.776 7  91722215.06246  22399505.420    22399500.880          47.350
        39.700
 121133848.081 7  94390011.53546  23051004.480    23051003.180          45.450
        41.600
 106118614.597 8  82689805.86247  20193700.520    20193694.540          49.350
        46.850
 112842661.231 8  87929335.72247  21473245.740    21473243.440          48.700
        43.850
 125462066.966 7  97581628.264 6  23437368.180    23437372.680          42.600
        37.400
 121463195.825 6                  22762151.040                          38.800

 116423163.401 7  90551353.277 7  21756451.500    21756452.960          44.750
        42.900
 108017392.946 7                  20221083.380                          46.650

 122563599.502 6  95327270.090 5  22992619.300    22992625.800          40.850
        33.850
 104912244.316 8  81598420.486 7  19632896.460    19632898.600          49.250
        45.850
 110686210.386 7  86089282.475 7  20735257.180    20735259.760          47.850
        45.450
 19  2 28 13  4 48.0000000  0 14G29G12G31G20G26G21G25R07R06R21R12R10
                                R11R22
 115446184.923 8  89958039.23646  21968678.040    21968673.400          49.000
        41.850
 126095574.546 7  98256282.78246  23995190.980    23995188.280          44.300
        36.950
 114838717.679 8  89484694.09047  21853081.960    21853076.480          49.650
        42.050
 117707082.893 7  91719787.09846  22398912.480    22398907.960          47.550
        40.400
 121130675.894 7  94387539.70146  23050400.840    23050399.540          45.450
        41.100
 106117771.540 8  82689148.93247  20193540.100    20193534.120          49.450
        46.900
 112844540.166 8  87930799.82847  21473603.300    21473601.000          48.700
        44.100
 125458836.046 7  97579115.329 6  23436764.620    23436769.100          42.250
        38.800
 121461711.085 6                  22761872.780                          39.300

 116425380.295 7  90553077.527 7  21756865.800    21756867.220          44.750
        42.900
 108015611.764 7                  20220749.940                          46.450

 122567941.395 6  95330647.119 5  22993433.820    22993440.320          39.800
        33.000
 104914103.498 8  81599866.514 7  19633244.380    19633246.520          49.250
        45.700
 110686256.189 7  86089318.094 7  20735265.760    20735268.340          47.900
        45.650
 19  2 28 13  4 49.0000000  0 14G29G12G31G20G26G21G25R07R06R21R12R10
                                R11R22
 115447273.685 8  89958887.62046  21968885.220    21968880.580          49.100
        41.550
 126098611.284 7  98258649.05946  23995768.840    23995766.180          44.900
        36.900
 114839394.995 8  89485221.86946  21853210.860    21853205.360          49.600
        41.900
 117703967.355 7  91717359.40346  22398319.600    22398315.100          47.450
        40.900
 121127504.008 7  94385068.10146  23049797.260    23049795.940          45.450
        40.950
 106116929.160 8  82688492.53447  20193379.800    20193373.820          49.450
        46.850
 112846419.745 8  87932264.43347  21473960.980    21473958.680          48.600
        44.000
 125455605.220 6  97576602.466 6  23436161.080    23436165.560          41.650
        39.750
 121460227.016 6                  22761594.660                          39.350

 116427597.279 7  90554801.844 7  21757280.100    21757281.520          44.600
        43.000
 108013831.538 7                  20220416.680                          46.650

 122572283.530 6  95334024.336 5  22994248.380    22994254.900          39.250
        33.100
 104915963.631 8  81601313.284 7  19633592.480    19633594.600          49.250
        45.650
 110686302.361 7  86089354.007 7  20735274.420    20735277.000          47.800
        45.600
 19  2 28 13  4 50.0000000  0 14G29G12G31G20G26G21G25R07R06R21R12R10
                                R11R22
 115448362.381 8  89959735.95646  21969092.400    21969087.760          49.100
        41.750
 126101648.185 7  98261015.46146  23996346.760    23996344.080          44.500
        37.950
 114840072.779 8  89485750.01046  21853339.840    21853334.340          49.700
        41.600
 117700851.863 7  91714931.74846  22397726.740    22397722.240          47.650
        40.650
 121124332.155 7  94382596.52546  23049193.680    23049192.340          45.400
        41.400
 106116087.209 8  82687836.46847  20193219.580    20193213.600          49.550
        46.800
 112848299.703 8  87933729.33247  21474318.720    21474316.420          48.750
        44.550
 125452374.332 6  97574089.561 6  23435557.520    23435562.060          41.700
        39.300
 121458743.365 6                  22761316.620                          39.350

 116429814.121 7  90556526.053 7  21757694.400    21757695.780          44.750
        42.700
 108012051.996 7                  20220083.540                          46.450

 122576625.745 6  95337401.618 5  22995062.960    22995069.500          39.900
        32.500
 104917824.407 8  81602760.555 7  19633940.700    19633942.820          49.300
        45.650
 110686348.631 7  86089389.993 7  20735283.080    20735285.660          47.850
        45.650
 19  2 28 13  4 51.0000000  0 14G29G12G31G20G26G21G25R07R06R21R12R10
                                R11R22
 115449451.114 8  89960584.31846  21969299.580    21969294.940          49.000
        41.950
 126104685.311 7  98263382.04746  23996924.700    23996922.060          43.900
        38.350
 114840751.159 8  89486278.61947  21853468.920    21853463.440          49.700
        42.450
 117697736.541 7  91712504.22746  22397133.920    22397129.420          47.200
        40.650
 121121160.415 7  94380125.04446  23048590.120    23048588.760          45.400
        40.400
 106115245.765 8  82687180.79747  20193059.460    20193053.480          49.450
        46.950
 112850180.131 8  87935194.59947  21474676.560    21474674.260          48.700
        44.250
 125449143.404 6  97571576.632 6  23434953.920    23434958.500          41.800
        38.350
 121457260.283 6                  22761038.700                          38.800

 116432030.884 7  90558250.201 7  21758108.680    21758110.040          44.650
        42.550
 108010273.245 7                  20219750.560                          46.550

 122580968.061 6  95340778.975 5  22995877.580    22995884.100          40.050
        33.450
 104919685.956 8  81604208.426 7  19634289.060    19634291.180          49.250
        45.650
 110686395.112 7  86089426.149 7  20735291.800    20735294.380          47.850
        45.550
 19  2 28 13  4 52.0000000  0 14G29G12G31G20G26G21G25R07R06R21R12R10
                                R11R22
 115450540.002 8  89961432.80046  21969506.780    21969502.140          49.000
        41.850
 126107722.864 7  98265748.98546  23997502.720    23997500.100          44.650
        36.850
 114841430.246 8  89486807.77547  21853598.140    21853592.680          49.600
        42.100
 117694621.545 7  91710076.96646  22396541.140    22396536.680          47.400
        40.450
 121117988.917 7  94377653.74946  23047986.600    23047985.180          45.550
        40.350
 106114404.988 8  82686525.64747  20192899.460    20192893.480          49.450
        46.850
 112852061.163 8  87936660.34047  21475034.500    21475032.200          48.750
        44.000
 125445912.519 6  97569063.728 6  23434350.380    23434354.900          41.600
        38.050
 121455777.881 6                  22760760.880                          39.700

 116434247.699 7  90559974.391 7  21758522.940    21758524.280          44.750
        42.600
 108008495.433 7                  20219417.760                          46.600

 122585310.601 6  95344156.507 5  22996692.220    22996698.760          39.600
        33.000
 104921548.446 8  81605657.029 7  19634637.600    19634639.720          49.300
        45.850
 110686441.927 7  86089462.561 7  20735300.560    20735303.140          47.950
        45.700
 19  2 28 13  4 53.0000000  0 14G29G12G31G20G26G21G25R07R06R21R12R10
                                R11R22
 115451629.171 8  89962281.50346  21969714.040    21969709.400          49.150
        41.800
 126110760.892 7  98268116.28446  23998080.840    23998078.240          43.750
        37.200
 114842110.164 8  89487337.58346  21853727.540    21853722.060          49.600
        41.900
 117691506.952 7  91707650.01446  22395948.460    22395943.980          47.200
        40.600
 121114817.800 7  94375182.75346  23047383.160    23047381.740          45.400
        40.900
 106113564.965 8  82685871.08647  20192739.620    20192733.620          49.400
        46.850
 112853942.938 8  87938126.65947  21475392.600    21475390.300          48.650
        44.050
 125442681.915 7  97566551.040 6  23433746.880    23433751.380          42.050
        38.000
 121454296.274 6                  22760483.220                          39.800

 116436464.678 7  90561698.706 7  21758937.240    21758938.580          44.700
        42.750
 108006718.672 7                  20219085.140                          46.650

 122589653.603 6  95347534.399 5  22997506.920    22997513.520          39.950
        33.950
 104923411.980 8  81607106.448 7  19634986.320    19634988.460          49.250
        45.700
 110686489.228 8  86089499.352 7  20735309.440    20735312.020          48.000
        45.350
 19  2 28 13  4 54.0000000  0 14G29G12G31G20G26G21G25R07R06R21R12R10
                                R11R22
 115452718.390 8  89963130.24346  21969921.320    21969916.680          49.050
        41.900
 126113799.230 7  98270483.82846  23998659.020    23998656.400          44.050
        37.050
 114842790.691 8  89487867.86247  21853857.040    21853851.560          49.650
        42.250
 117688392.550 7  91705223.21346  22395355.780    22395351.320          47.000
        40.850
 121111646.833 7  94372711.86946  23046779.760    23046778.320          45.550
        41.350
 106112725.497 8  82685216.95447  20192579.860    20192573.880          49.500
        47.100
 112855825.213 8  87939593.36247  21475750.780    21475748.500          48.800
        44.300
 125439451.297 7  97564038.337 6  23433143.380    23433147.900          42.650
        37.900
 121452815.275 6                  22760205.680                          39.800

 116438681.676 7  90563423.037 7  21759351.560    21759352.860          44.650
        42.750
 108004942.733 7                  20218752.700                          46.650

 122593996.676 6  95350912.328 5  22998321.620    22998328.260          39.800
        33.750
 104925276.324 8  81608556.491 7  19635335.200    19635337.340          49.300
        45.750
 110686536.758 7  86089536.318 7  20735318.340    20735320.920          47.950
        45.550
 19  2 28 13  4 55.0000000  0 14G29G12G31G20G26G21G25R07R06R21R12R10
                                R11R22
 115453807.354 8  89963978.78347  21970128.540    21970123.920          49.050
        42.200
 126116837.513 7  98272851.31146  23999237.180    23999234.560          44.500
        38.600
 114843471.515 8  89488398.37247  21853986.600    21853981.140          49.650
        42.100
 117685278.032 7  91702796.31446  22394763.120    22394758.680          47.200
        40.750
 121108475.700 7  94370240.85446  23046176.320    23046174.880          45.600
        40.850
 106111886.265 8  82684563.00847  20192420.160    20192414.180          49.400
        47.150
 112857707.698 8  87941060.23047  21476109.020    21476106.720          48.700
        44.150
 125436220.367 7  97561525.393 6  23432539.820    23432544.360          42.350
        37.650
 121451334.490 6                  22759928.200                          38.950

 116440898.310 7  90565147.086 7  21759765.780    21759767.100          44.650
        42.750
 108003167.307 7                  20218420.340                          46.650

 122598339.616 6  95354290.156 5  22999136.400    22999143.000          40.900
        33.500
 104927141.156 8  81610006.913 7  19635684.180    19635686.300          49.350
        45.800
 110686584.227 7  86089573.238 7  20735327.240    20735329.820          47.900
        45.550
 19  2 28 13  4 56.0000000  0 14G29G12G31G20G26G21G25R07R06R21R12R10
                                R11R22
 115454896.258 8  89964827.27747  21970335.760    21970331.120          48.900
        42.000
 126119875.958 7  98275218.92746  23999815.380    23999812.780          43.650
        38.150
 114844152.825 8  89488929.26547  21854116.260    21854110.800          49.700
        42.100
 117682163.593 7  91700369.47946  22394170.460    22394166.020          47.050
        40.850
 121105304.588 7  94367769.85046  23045572.880    23045571.440          45.450
        40.850
 106111047.462 8  82683909.39247  20192260.560    20192254.560          49.400
        46.650
 112859590.543 8  87942527.38447  21476467.300    21476465.020          48.700
        44.200
 125432989.348 7  97559012.387 6  23431936.220    23431940.780          42.200
        37.650
 121449854.244 6                  22759650.820                          39.250

 116443114.756 7  90566870.991 7  21760179.980    21760181.300          44.500
        42.800
 108001392.580 7                  20218088.100                          46.650

 122602682.607 6  95357668.033 5  22999951.120    22999957.760          40.150
        34.100
 104929006.665 8  81611457.866 7  19636033.280    19636035.420          49.350
        45.750
 110686631.821 8  86089610.256 7  20735336.160    20735338.740          48.050
        45.400
 19  2 28 13  4 57.0000000  0 14G29G12G31G20G26G21G25R07R06R21R12R10
                                R11R22
 115455985.338 8  89965675.90847  21970543.000    21970538.380          49.050
        42.700
 126122914.825 7  98277586.87546  24000393.660    24000391.040          44.200
        38.150
 114844834.858 8  89489460.71346  21854246.040    21854240.580          49.650
        41.900
 117679049.467 7  91697942.89546  22393577.840    22393573.420          47.450
        40.750
 121102133.760 7  94365299.08346  23044969.500    23044968.040          45.450
        41.200
 106110209.323 8  82683256.29747  20192101.060    20192095.060          49.550
        46.950
 112861474.029 8  87943995.03547  21476825.720    21476823.440          48.700
        44.300
 125429758.481 6  97556499.505 6  23431332.660    23431337.220          41.950
        37.550
 121448374.635 6                  22759373.560                          39.400

 116445331.261 7  90568594.933 7  21760594.200    21760595.500          44.300
        42.800
 107999618.799 7                  20217756.060                          46.700

 122607025.808 6  95361046.074 5  23000765.920    23000772.520          41.000
        34.250
 104930873.106 8  81612909.540 7  19636382.560    19636384.680          49.350
        45.700
 110686679.775 8  86089647.554 7  20735345.120    20735347.720          48.050
        45.550
 19  2 28 13  4 58.0000000  0 14G29G12G31G20G26G21G25R07R06R21R12R10
                                R11R22
 115457074.683 8  89966524.74947  21970750.300    21970745.680          48.950
        42.250
 126125954.148 7  98279955.17946  24000972.020    24000969.420          43.150
        38.100
 114845517.721 8  89489992.81247  21854376.000    21854370.540          49.550
        42.400
 117675935.746 7  91695516.62546  22392985.300    22392980.900          47.050
        40.050
 121098963.258 7  94362828.56646  23044366.180    23044364.720          45.350
        41.250
 106109371.938 8  82682603.79447  20191941.720    20191935.720          49.450
        46.950
 112863358.222 8  87945463.24047  21477184.260    21477182.000          48.700
        44.350
 125426527.890 7  97553986.844 6  23430729.160    23430733.700          42.250
        37.650
 121446895.840 6                  22759096.440                          38.850

 116447547.981 7  90570319.046 7  21761008.440    21761009.740          44.250
        42.750
 107997846.047 7                  20217424.200                          46.600

 122611369.521 6  95364424.524 5  23001580.780    23001587.380          40.200
        33.350
 104932740.589 8  81614362.027 7  19636732.040    19636734.160          49.350
        45.550
 110686728.170 7  86089685.196 7  20735354.180    20735356.780          47.950
        45.400
 19  2 28 13  4 59.0000000  0 14G29G12G31G20G26G21G25R07R06R21R12R10
                                R11R22
 115458164.055 8  89967373.60247  21970957.600    21970952.960          49.000
        42.050
 126128993.747 7  98282323.70446  24001550.420    24001547.820          42.800
        39.350
 114846201.151 8  89490525.35347  21854506.040    21854500.600          49.600
        42.400
 117672822.203 7  91693090.48546  22392392.820    22392388.400          47.100
        40.900
 121095792.919 7  94360358.17246  23043762.880    23043761.440          45.400
        41.000
 106108535.071 8  82681951.68847  20191782.460    20191776.460          49.400
        46.900
 112865242.899 8  87946931.81547  21477542.900    21477540.640          48.700
        44.100
 125423297.251 6  97551474.135 6  23430125.640    23430130.180          41.900
        37.550
 121445417.593 6                  22758819.440                          39.850

 116449764.636 7  90572043.109 7  21761422.660    21761423.980          44.250
        42.650
 107996074.088 7                  20217092.480                          46.650

 122615713.274 6  95367802.990 5  23002395.680    23002402.260          40.650
        33.650
 104934608.839 8  81615815.108 7  19637081.660    19637083.780          49.400
        45.750
 110686776.771 8  86089722.995 7  20735363.280    20735365.880          48.000
        45.350
 19  2 28 13  5  0.0000000  0 14G29G12G31G20G26G21G25R07R06R21R12R10
                                R11R22
 115459253.276 8  89968222.34447  21971164.880    21971160.240          48.900
        42.450
 126132033.467 7  98284692.31946  24002128.860    24002126.240          42.100
        38.200
 114846884.992 8  89491058.21647  21854636.180    21854630.740          49.650
        42.400
 117669708.670 7  91690664.36746  22391800.320    22391795.920          47.350
        40.300
 121092622.496 7  94357887.71446  23043159.580    23043158.160          45.600
        40.800
 106107698.546 8  82681299.85047  20191623.260    20191617.280          49.450
        47.050
 112867127.883 8  87948400.63347  21477901.600    21477899.340          48.750
        44.050
 125420066.412 6  97548961.256 6  23429522.120    23429526.620          41.400
        38.250
 121443939.705 6                  22758542.480                          39.550

 116451981.037 7  90573766.976 7  21761836.840    21761838.160          44.400
        42.750
 107994302.748 7                  20216760.900                          46.600

 122620056.899 6  95371181.361 5  23003210.520    23003217.120          40.400
        34.500
 104936477.690 8  81617268.659 7  19637431.400    19637433.500          49.400
        45.650
 110686825.395 7  86089760.814 7  20735372.400    20735375.000          47.950
        45.500
 19  2 28 13  5  1.0000000  0 14G29G12G31G20G26G21G25R07R06R21R12R10
                                R11R22
 115460342.430 8  89969071.03547  21971372.140    21971367.520          49.000
        42.350
 126135073.282 7  98287061.00346  24002707.320    24002704.720          42.150
        39.200
 114847569.302 8  89491591.44547  21854766.400    21854760.960          49.600
        42.400
 117666595.170 7  91688238.26846  22391207.860    22391203.440          46.750
        39.350
 121089452.114 7  94355417.28746  23042556.280    23042554.860          45.300
        41.300
 106106862.446 8  82680648.34347  20191464.160    20191458.180          49.450
        47.050
 112869013.232 8  87949869.73447  21478260.380    21478258.100          48.700
        44.400
 125416835.433 7  97546448.264 6  23428918.540    23428923.040          42.900
        40.050
 121442462.231 6                  22758265.540                          39.450

 116454197.264 7  90575490.709 7  21762251.000    21762252.320          44.400
        42.750
 107992532.095 7                  20216429.420                          46.700

 122624400.673 7  95374559.850 5  23004025.380    23004032.000          43.250
        35.750
 104938347.206 8  81618722.727 7  19637781.260    19637783.360          49.350
        45.750
 110686874.129 7  86089798.720 7  20735381.540    20735384.120          47.950
        45.400
 19  2 28 13  5  2.0000000  0 14G29G12G31G20G26G21G25R07R06R21R12R10
                                R11R22
 115461431.580 8  89969919.72446  21971579.400    21971574.780          48.950
        41.650
 126138113.344 6  98289429.86446  24003285.780    24003283.220          41.300
        37.750
 114848254.170 8  89492125.10647  21854896.720    21854891.280          49.550
        42.650
 117663481.850 7  91685812.31546  22390615.400    22390611.000          47.150
        40.550
 121086281.833 7  94352946.93446  23041953.000    23041951.600          45.450
        41.350
 106106026.838 8  82679997.22247  20191305.160    20191299.160          49.450
        46.950
 112870899.033 8  87951339.18647  21478619.220    21478616.960          48.750
        44.350
 125413604.443 6  97543935.262 6  23428314.980    23428319.440          41.950
        39.100
 121440985.242 6                  22757988.780                          39.750

 116456413.389 7  90577214.362 7  21762665.120    21762666.440          44.550
        42.700
 107990762.224 7                  20216098.100                          46.900

 122628744.559 6  95377938.420 5  23004840.300    23004846.920          41.300
        34.600
 104940217.519 8  81620177.411 7  19638131.260    19638133.360          49.400
        45.650
 110686923.055 7  86089836.774 7  20735390.700    20735393.300          47.850
        45.500
 19  2 28 13  5  3.0000000  0 14G29G12G31G20G26G21G25R07R06R21R12R10
                                R11R22
 115462520.805 8  89970768.47047  21971786.680    21971782.040          48.950
        42.100
 126141153.631 7  98291798.91546  24003864.320    24003861.780          42.050
        38.550
 114848939.655 8  89492659.25147  21855027.180    21855021.740          49.450
        42.100
 117660368.733 7  91683386.50646  22390023.000    22390018.580          47.150
        40.500
 121083111.701 7  94350476.70446  23041349.740    23041348.340          45.450
        40.750
 106105191.776 8  82679346.52247  20191146.260    20191140.260          49.550
        47.150
 112872785.351 8  87952809.04647  21478978.180    21478975.920          48.700
        44.250
 125410373.419 6  97541422.241 6  23427711.420    23427715.840          41.650
        39.300
 121439508.825 6                  22757712.120                          39.450

 116458629.507 7  90578938.008 7  21763079.240    21763080.580          44.400
        42.700
 107988993.168 7                  20215766.940                          46.850

 122633088.622 6  95381317.133 5  23005655.220    23005661.860          41.350
        34.550
 104942088.641 8  81621632.730 7  19638481.400    19638483.520          49.450
        45.650
 110686972.235 7  86089875.022 7  20735399.920    20735402.520          47.800
        45.650
 19  2 28 13  5  4.0000000  0 14G29G12G31G20G26G21G25R07R06R21R12R10
                                R11R22
 115463610.347 8  89971617.46446  21971994.000    21971989.380          49.000
        41.750
 126144194.534 6  98294168.45646  24004442.960    24004440.460          40.900
        36.950
 114849626.010 8  89493194.07747  21855157.780    21855152.340          49.600
        42.450
 117657256.055 7  91680961.04446  22389430.660    22389426.280          47.000
        41.100
 121079941.982 7  94348006.78846  23040746.580    23040745.180          45.600
        41.250
 106104357.534 8  82678696.46547  20190987.520    20190981.500          49.550
        47.100
 112874672.445 8  87954279.50947  21479337.280    21479335.020          48.600
        44.550
 125407142.697 7  97538909.461 6  23427107.920    23427112.320          42.250
        39.300
 121438033.251 6                  22757435.580                          39.900

 116460845.846 7  90580661.826 7  21763493.420    21763494.740          44.400
        42.600
 107987225.212 7                  20215435.980                          46.900

 122637433.081 6  95384696.155 5  23006470.260    23006476.880          41.700
        34.300
 104943960.821 8  81623088.872 7  19638831.760    19638833.880          49.450
        45.800
 110687021.913 7  86089913.663 7  20735409.220    20735411.820          47.900
        45.550
 19  2 28 13  5  5.0000000  0 14G29G12G31G20G26G21G25R07R06R21R12R10
                                R11R22
 115464700.404 8  89972466.85746  21972201.440    21972196.820          48.900
        41.950
 126147236.180 7  98296538.57646  24005021.760    24005019.300          42.300
        37.150
 114850313.435 8  89493729.73247  21855288.600    21855283.140          49.600
        42.250
 117654144.054 7  91678536.11146  22388838.460    22388834.080          47.200
        40.100
 121076772.867 7  94345537.35746  23040143.520    23040142.100          45.650
        40.700
 106103524.293 8  82678047.19147  20190828.960    20190822.940          49.550
        46.550
 112876560.501 8  87955750.72347  21479696.560    21479694.300          48.700
        44.150
 125403912.441 6  97536397.050 6  23426504.440    23426508.880          41.900
        39.700
 121436558.717 6                  22757159.280                          39.350

 116463062.619 7  90582385.981 7  21763907.680    21763909.000          44.500
        42.650
 107985458.541 7                  20215105.240                          46.900

 122641778.188 6  95388075.678 5  23007285.440    23007292.020          41.500
        34.950
 104945834.289 8  81624546.014 7  19639182.360    19639184.460          49.400
        45.650
 110687072.310 7  86089952.865 7  20735418.660    20735421.260          47.750
        45.350
 19  2 28 13  5  6.0000000  0 14G29G12G31G20G26G21G25R07R06R21R12R10
                                R11R22
 115465790.393 8  89973316.19747  21972408.860    21972404.240          48.900
        42.000
 126150277.962 6  98298908.79446  24005600.620    24005598.100          41.100
        37.350
 114851001.332 8  89494265.75447  21855419.500    21855414.040          49.600
        42.250
 117651032.101 7  91676111.21646  22388246.280    22388241.880          46.850
        40.300
 121073603.771 7  94343067.92946  23039540.460    23039539.060          45.350
        40.750
 106102691.467 8  82677398.23647  20190670.480    20190664.460          49.550
        47.200
 112878448.916 8  87957222.21647  21480055.920    21480053.660          48.550
        44.200
 125400682.061 6  97533884.531 6  23425900.980    23425905.420          41.350
        38.550
 121435084.655 6                  22756883.060                          40.150

 116465279.194 7  90584109.985 7  21764321.880    21764323.220          44.500
        42.600
 107983692.552 7                  20214774.660                          46.950

 122646123.324 7  95391455.227 5  23008100.580    23008107.160          42.400
        34.600
 104947708.452 8  81626003.696 7  19639533.080    19639535.200          49.450
        45.650
 110687122.795 7  86089992.127 7  20735428.120    20735430.720          47.900
        45.350
 19  2 28 13  5  7.0000000  0 14G29G12G31G20G26G21G25R07R06R21R12R10
                                R11R22
 115466880.372 8  89974165.52947  21972616.260    21972611.660          48.850
        42.650
 126153320.003 7  98301279.21146  24006179.500    24006176.980          42.150
        40.450
 114851689.762 8  89494802.19147  21855550.520    21855545.040          49.600
        42.450
 117647920.295 7  91673686.42846  22387654.140    22387649.720          46.850
        40.850
 121070434.756 7  94340598.57346  23038937.440    23038936.020          45.300
        41.000
 106101859.124 8  82676749.65747  20190512.100    20190506.080          49.450
        46.950
 112880337.791 8  87958694.06647  21480415.360    21480413.100          48.600
        44.250
 125397451.610 7  97531371.951 6  23425297.540    23425301.940          42.050
        38.800
 121433611.109 6                  22756606.920                          39.750

 116467495.656 7  90585833.901 7  21764736.080    21764737.420          44.250
        42.650
 107981927.334 7                  20214444.220                          46.900

 122650468.522 7  95394834.812 5  23008915.720    23008922.300          42.550
        35.400
 104949583.374 8  81627461.966 7  19639883.940    19639886.060          49.550
        45.750
 110687173.459 8  86090031.532 7  20735437.620    20735440.220          48.050
        45.600
 19  2 28 13  5  8.0000000  0 14G29G12G31G20G26G21G25R07R06R21R12R10
                                R11R22
 115467970.095 8  89975014.66647  21972823.620    21972819.020          48.800
        42.250
 126156361.932 6  98303649.53446  24006758.340    24006755.860          40.850
        38.700
 114852378.519 8  89495338.88347  21855681.580    21855676.120          49.700
        42.350
 117644808.384 7  91671261.55846  22387061.960    22387057.520          46.850
        39.100
 121067265.638 7  94338129.12846  23038334.380    23038332.940          45.350
        41.300
 106101027.037 8  82676101.27547  20190353.760    20190347.740          49.650
        47.200
 112882226.861 8  87960166.06347  21480774.840    21480772.600          48.700
        44.650
 125394220.858 6  97528859.148 6  23424693.960    23424698.420          41.700
        38.500
 121432137.853 6                  22756330.820                          39.900

 116469711.801 7  90587557.564 7  21765150.240    21765151.560          44.200
        42.850
 107980162.645 7                  20214113.860                          46.800

 122654813.564 7  95398214.282 5  23009730.840    23009737.440          43.100
        35.600
 104951458.789 8  81628920.625 7  19640234.920    19640237.020          49.600
        45.750
 110687224.063 8  86090070.887 7  20735447.100    20735449.700          48.050
        45.600
 19  2 28 13  5  9.0000000  0 14G29G12G31G20G26G21G25R07R06R21R12R10
                                R11R22
 115469059.790 8  89975863.77346  21973030.980    21973026.400          48.950
        41.700
 126159404.057 7  98306020.02446  24007337.240    24007334.740          42.850
        37.950
 114853067.762 8  89495875.95547  21855812.740    21855807.260          49.700
        42.250
 117641696.583 7  91668836.79146  22386469.780    22386465.340          46.450
        38.600
 121064096.513 7  94335659.68646  23037731.320    23037729.880          45.700
        41.250
 106100195.388 8  82675453.23547  20190195.500    20190189.480          49.650
        46.950
 112884116.351 8  87961638.39247  21481134.400    21481132.160          48.750
        44.100
 125390990.003 6  97526346.286 6  23424090.400    23424094.840          41.100
        36.850
 121430665.008 6                  22756054.820                          39.550

 116471927.803 7  90589281.119 7  21765564.340    21765565.680          44.300
        42.700
 107978398.666 7                  20213783.640                          46.850

 122659158.693 7  95401593.830 5  23010545.980    23010552.580          42.350
        35.400
 104953334.871 8  81630379.799 7  19640586.000    19640588.120          49.600
        45.700
 110687274.780 8  86090110.334 7  20735456.600    20735459.200          48.050
        45.400
 19  2 28 13  5 10.0000000  0 14G29G12G31G20G26G21G25R07R06R21R12R10
                                R11R22
 115470149.429 8  89976712.83646  21973238.340    21973233.760          48.900
        41.800
 126162446.444 6  98308390.73246  24007916.160    24007913.700          41.650
        38.100
 114853757.527 8  89496413.43647  21855944.000    21855938.520          49.600
        42.250
 117638584.874 7  91666412.08246  22385877.640    22385873.180          46.700
        40.250
 121060927.477 7  94333190.30947  23037128.280    23037126.820          45.450
        42.050
 106099364.194 8  82674805.55147  20190037.340    20190031.300          49.600
        47.100
 112886006.243 8  87963111.03847  21481494.040    21481491.800          48.800
        44.700
 125387759.050 6  97523833.348 6  23423486.860    23423491.260          41.500
        36.450
 121429192.665 6                  22755778.920                          40.100

 116474143.677 7  90591004.575 7  21765978.400    21765979.780          43.950
        42.700
 107976635.414 7                  20213453.560                          46.800

 122663503.882 6  95404973.414 5  23011361.160    23011367.720          41.950
        34.750
 104955211.681 8  81631839.541 7  19640937.220    19640939.340          49.450
        45.650
 110687325.652 8  86090149.901 7  20735466.120    20735468.720          48.050
        45.600
 19  2 28 13  5 11.0000000  0 14G29G12G31G20G26G21G25R07R06R21R12R10
                                R11R22
 115471239.248 8  89977562.04347  21973445.720    21973441.140          48.800
        42.400
 126165489.204 6  98310761.70546  24008495.180    24008492.720          41.950
        38.700
 114854448.012 8  89496951.47347  21856075.400    21856069.920          49.650
        42.200
 117635473.481 7  91663987.62046  22385285.560    22385281.100          47.000
        40.600
 121057758.704 7  94330721.13346  23036525.280    23036523.840          45.650
        40.250
 106098533.667 8  82674158.39047  20189879.280    20189873.260          49.600
        47.050
 112887896.766 8  87964584.17247  21481853.800    21481851.560          48.800
        44.550
 125384528.318 7  97521320.566 6  23422883.300    23422887.740          42.150
        37.550
 121427721.015 6                  22755503.160                          39.450

 116476359.644 7  90592728.107 7  21766392.540    21766393.880          44.250
        42.800
 107974873.102 7                  20213123.660                          46.650

 122667849.354 7  95408353.225 5  23012176.380    23012182.940          42.500
        33.950
 104957089.448 8  81633300.026 7  19641288.620    19641290.740          49.350
        45.650
 110687376.900 8  86090189.760 7  20735475.720    20735478.320          48.050
        45.400
 19  2 28 13  5 12.0000000  0 14G29G12G31G20G26G21G25R07R06R21R12R10
                                R11R22
 115472329.352 8  89978411.47747  21973653.160    21973648.580          48.850
        42.700
 126168532.421 6  98313133.02146  24009074.280    24009071.860          41.800
        38.850
 114855139.333 8  89497490.16447  21856206.960    21856201.480          49.700
        42.700
 117632362.513 7  91661563.48346  22384693.560    22384689.100          47.200
        41.350
 121054590.291 7  94328252.23846  23035922.360    23035920.880          45.650
        41.200
 106097703.894 8  82673511.81547  20189721.400    20189715.380          49.550
        47.000
 112889788.013 8  87966057.87247  21482213.700    21482211.460          48.800
        44.300
 125381297.821 6  97518807.943 6  23422279.820    23422284.260          41.850
        37.150
 121426250.171 6                  22755227.540                          39.750

 116478575.791 7  90594451.773 7  21766806.640    21766808.040          44.150
        42.750
 107973111.831 7                  20212793.960                          46.800

 122672195.168 6  95411733.304 5  23012991.640    23012998.220          41.500
        33.350
 104958968.206 8  81634761.279 7  19641640.220    19641642.340          49.350
        45.750
 110687428.610 7  86090229.981 7  20735485.400    20735488.000          47.950
        45.400
 19  2 28 13  5 13.0000000  0 14G29G12G31G20G26G21G25R07R06R21R12R10
                                R11R22
 115473419.459 8  89979260.91047  21973860.600    21973856.020          48.950
        42.550
 126171575.901 6  98315504.54546  24009653.420    24009651.020          41.750
        38.000
 114855831.209 8  89498029.28846  21856338.620    21856333.140          49.800
        41.750
 117629251.695 7  91659139.47146  22384101.600    22384097.140          47.150
        40.500
 121051421.996 7  94325783.43746  23035319.460    23035317.980          45.700
        41.050
 106096874.639 8  82672865.64547  20189563.600    20189557.580          49.650
        46.950
 112891679.721 8  87967531.92847  21482573.680    21482571.420          48.850
        44.250
 125378067.334 7  97516295.338 6  23421676.320    23421680.760          42.000
        37.250
 121424779.864 6                  22754951.980                          39.800

 116480791.836 7  90596175.363 7  21767220.740    21767222.160          44.250
        42.650
 107971351.336 7                  20212464.400                          46.700

 122676541.058 6  95415113.446 5  23013806.920    23013813.500          40.800
        32.950
 104960847.734 8  81636223.132 7  19641991.940    19641994.060          49.450
        45.800
 110687480.518 8  86090270.353 7  20735495.120    20735497.740          48.050
        45.650
 19  2 28 13  5 14.0000000  0 14G29G12G31G20G26G21G25R07R06R21R12R10
                                R11R22
 115474509.724 8  89980110.46446  21974068.060    21974063.500          48.850
        41.950
 126174619.723 6  98317876.35546  24010232.660    24010230.300          41.400
        37.450
 114856523.788 8  89498568.95447  21856470.420    21856464.940          49.800
        42.250
 117626141.192 7  91656715.69846  22383509.680    22383505.220          47.300
        40.300
 121048253.945 7  94323314.82446  23034716.580    23034715.120          45.400
        41.050
 106096046.025 8  82672219.96947  20189405.920    20189399.900          49.600
        46.750
 112893572.038 8  87969006.46147  21482933.780    21482931.520          48.850
        44.500
 125374836.888 6  97513782.760 6  23421072.840    23421077.280          41.850
        38.000
 121423310.223 6                  22754676.580                          40.000

 116483007.932 7  90597898.996 7  21767634.900    21767636.300          44.200
        42.700
 107969591.761 7                  20212135.020                          46.750

 122680887.231 6  95418493.809 5  23014622.260    23014628.860          41.350
        32.650
 104962728.178 8  81637685.699 7  19642343.840    19642345.960          49.350
        45.800
 110687532.761 8  86090310.987 7  20735504.920    20735507.520          48.000
        45.450
 19  2 28 13  5 15.0000000  0 14G29G12G31G20G26G21G25R07R06R21R12R10
                                R11R22
 115475600.010 8  89980960.03646  21974275.520    21974270.980          49.000
        41.600
 126177663.847 6  98320248.40946  24010811.900    24010809.580          41.350
        37.550
 114857216.954 8  89499109.08147  21856602.340    21856596.840          49.750
        42.050
 117623030.855 7  91654292.06146  22382917.800    22382913.340          47.300
        40.000
 121045086.020 7  94320846.31146  23034113.740    23034112.260          45.650
        40.800
 106095217.939 8  82671574.70847  20189248.340    20189242.320          49.550
        47.000
 112895464.815 8  87970481.35447  21483293.960    21483291.720          48.800
        44.500
 125371606.407 6  97511270.152 6  23420469.360    23420473.800          41.500
        38.250
 121421841.153 6                  22754401.260                          40.150

 116485223.959 7  90599622.570 7  21768049.000    21768050.420          43.950
        42.650
 107967832.986 7                  20211805.780                          46.800

 122685233.543 6  95421874.284 5  23015437.640    23015444.200          40.650
        33.200
 104964609.405 8  81639148.876 7  19642695.900    19642698.020          49.400
        45.650
 110687585.221 7  86090351.789 7  20735514.740    20735517.360          47.900
        45.250
 19  2 28 13  5 16.0000000  0 14G29G12G31G20G26G21G25R07R06R21R12R10
                                R11R22
 115476690.099 8  89981809.45647  21974482.960    21974478.420          49.000
        42.250
 126180707.994 6  98322620.47246  24011391.180    24011388.880          40.500
        38.850
 114857910.453 8  89499649.47247  21856734.300    21856728.840          49.750
        42.650
 117619920.452 7  91651868.37046  22382325.900    22382321.440          47.200
        40.800
 121041917.996 7  94318377.71946  23033510.900    23033509.400          45.700
        40.100
 106094390.137 8  82670929.66547  20189090.820    20189084.800          49.550
        47.000
 112897357.858 8  87971956.45247  21483654.200    21483651.940          48.900
        44.400
 125368375.674 6  97508757.364 6  23419865.860    23419870.260          41.400
        38.350
 121420372.383 6                  22754126.000                          39.850

 116487439.699 7  90601345.921 7  21768463.060    21768464.480          43.900
        42.850
 107966074.771 7                  20211476.640                          46.750

 122689579.726 6  95425254.663 5  23016253.000    23016259.540          40.250
        33.650
 104966491.162 8  81640612.464 7  19643048.040    19643050.160          49.400
        45.800
 110687637.638 7  86090392.558 7  20735524.560    20735527.160          47.850
        45.350
 19  2 28 13  5 17.0000000  0 14G29G12G31G20G26G21G25R07R06R21R12R10
                                R11R22
 115477780.280 8  89982658.94547  21974690.420    21974685.880          48.950
        42.050
 126183752.446 6  98324992.76746  24011970.500    24011968.260          40.700
        38.550
 114858604.588 8  89500190.35447  21856866.380    21856860.920          49.750
        42.000
 117616810.288 7  91649444.86846  22381734.060    22381729.600          47.100
        40.100
 121038750.129 7  94315909.24946  23032908.080    23032906.600          45.600
        40.400
 106093562.910 8  82670285.07547  20188933.400    20188927.380          49.500
        46.800
 112899251.423 8  87973431.95347  21484014.520    21484012.280          48.900
        44.550
 125365144.936 6  97506244.574 6  23419262.320    23419266.720          41.750
        38.100
 121418904.207 6                  22753850.860                          39.450

 116489655.449 7  90603069.283 7  21768877.100    21768878.560          43.900
        42.950
 107964317.427 7                  20211147.640                          46.800

 122693926.107 6  95428635.186 5  23017068.360    23017074.920          41.050
        33.600
 104968373.741 8  81642076.690 7  19643400.340    19643402.480          49.400
        45.900
 110687690.325 7  86090433.535 7  20735534.440    20735537.040          47.950
        45.450
 19  2 28 13  5 18.0000000  0 14G29G12G31G20G26G21G25R07R06R21R12R10
                                R11R22
 115478870.455 8  89983508.43047  21974897.860    21974893.340          48.950
        42.300
 126186797.109 6  98327365.21946  24012549.880    24012547.640          41.250
        38.800
 114859299.277 8  89500731.66946  21856998.580    21856993.120          49.800
        41.900
 117613700.263 7  91647021.47046  22381142.240    22381137.780          47.300
        39.300
 121035582.370 7  94313440.86146  23032305.280    23032303.800          45.750
        40.300
 106092736.178 8  82669640.86647  20188776.080    20188770.060          49.600
        46.600
 112901145.443 8  87974907.81147  21484374.940    21484372.700          48.900
        44.650
 125361914.201 6  97503731.782 6  23418658.780    23418663.200          41.950
        38.700
 121417436.557 6                  22753575.820                          39.700

 116491871.085 7  90604792.553 7  21769291.140    21769292.600          43.950
        42.800
 107962560.860 7                  20210818.820                          46.800

 122698272.595 6  95432015.779 5  23017883.760    23017890.300          41.350
        33.600
 104970257.087 8  81643541.513 7  19643752.780    19643754.920          49.400
        45.900
 110687743.185 8  86090474.646 7  20735544.340    20735546.940          48.000
        45.650
 19  2 28 13  5 19.0000000  0 14G29G12G31G20G26G21G25R07R06R21R12R10
                                R11R22
 115479960.499 8  89984357.81347  21975105.280    21975100.760          48.900
        42.350
 126189841.834 6  98329737.72046  24013129.280    24013127.060          41.300
        39.550
 114859994.387 8  89501273.31547  21857130.860    21857125.400          49.800
        42.400
 117610590.257 7  91644598.08946  22380550.420    22380545.980          47.250
        39.700
 121032414.574 7  94310972.44946  23031702.460    23031701.000          45.750
        40.700
 106091909.813 8  82668996.94347  20188618.820    20188612.800          49.600
        46.850
 112903039.783 8  87976383.92047  21484735.420    21484733.180          48.950
        44.200
 125358683.321 6  97501218.873 6  23418055.240    23418059.620          41.850
        38.500
 121415969.312 6                  22753300.840                          39.950

 116494086.475 7  90606515.632 7  21769705.120    21769706.600          43.850
        42.800
 107960804.923 7                  20210490.100                          46.800

 122702619.048 6  95435396.343 5  23018699.160    23018705.700          41.200
        34.000
 104972141.082 8  81645006.842 7  19644105.340    19644107.480          49.400
        45.950
 110687796.099 8  86090515.801 7  20735554.260    20735556.860          48.000
        45.450
 19  2 28 13  5 20.0000000  0 14G29G12G31G20G26G21G25R07R06R21R12R10
                                R11R22
 115481050.535 8  89985207.18647  21975312.700    21975308.180          48.850
        42.250
 126192886.809 6  98332110.41946  24013708.700    24013706.520          40.950
        39.700
 114860690.030 8  89501815.36847  21857263.240    21857257.780          49.750
        42.250
 117607480.388 7  91642174.81646  22379958.620    22379954.200          47.300
        39.100
 121029246.868 7  94308504.10246  23031099.680    23031098.180          45.700
        40.700
 106091083.921 8  82668353.39147  20188461.660    20188455.660          49.450
        47.000
 112904934.557 8  87977860.36347  21485096.000    21485093.760          48.850
        44.450
 125355452.372 6  97498705.912 6  23417451.680    23417456.040          41.750
        38.400
 121414502.508 6                  22753025.980                          38.700

 116496301.763 7  90608238.631 7  21770119.080    21770120.580          43.950
        42.850
 107959049.759 7                  20210161.540                          46.800

 122706965.597 6  95438776.994 5  23019514.580    23019521.100          40.850
        33.050
 104974025.838 8  81646472.762 7  19644458.060    19644460.200          49.400
        45.900
 110687849.178 7  86090557.083 7  20735564.200    20735566.780          47.950
        45.450
 19  2 28 13  5 21.0000000  0 14G29G12G31G20G26G21G25R07R06R21R12R10
                                R11R22
 115482140.763 8  89986056.71747  21975520.160    21975515.680          48.800
        42.100
 126195932.250 6  98334483.50246  24014288.240    24014286.040          41.350
        39.400
 114861386.417 8  89502358.00747  21857395.760    21857390.300          49.700
        42.700
 117604370.862 7  91639751.80946  22379366.900    22379362.480          47.250
        40.200
 121026079.456 7  94306035.99546  23030496.960    23030495.440          45.650
        41.600
 106090258.704 8  82667710.36547  20188304.640    20188298.620          49.550
        47.000
 112906829.967 8  87979337.31047  21485456.680    21485454.440          48.800
        44.150
 125352221.564 6  97496193.068 6  23416848.120    23416852.500          41.300
        38.550
 121413036.456 6                  22752751.280                          39.300

 116498517.182 7  90609961.733 7  21770533.080    21770534.600          43.950
        42.750
 107957295.569 7                  20209833.160                          46.800

 122711312.455 6  95442157.880 5  23020330.060    23020336.560          39.600
        32.950
 104975911.535 8  81647939.415 7  19644810.940    19644813.080          49.450
        45.950
 110687902.628 8  86090598.657 7  20735574.220    20735576.800          48.000
        45.600
 19  2 28 13  5 22.0000000  0 14G29G12G31G20G26G21G25R07R06R21R12R10
                                R11R22
 115483231.057 8  89986906.30246  21975727.620    21975723.160          48.900
        41.950
 126198977.895 6  98336856.73446  24014867.800    24014865.580          41.800
        38.850
 114862083.411 8  89502901.11746  21857528.400    21857522.940          49.750
        41.950
 117601261.521 7  91637328.95046  22378775.220    22378770.780          47.250
        39.700
 121022912.188 7  94303568.00046  23029894.240    23029892.740          45.600
        40.100
 106089434.042 8  82667067.77347  20188147.720    20188141.700          49.550
        46.750
 112908725.897 8  87980814.65847  21485817.460    21485815.240          48.800
        44.050
 125348990.778 7  97493680.243 6  23416244.520    23416248.960          42.400
        39.250
 121411570.967 6                  22752476.660                          39.600

 116500732.553 7  90611684.799 7  21770947.060    21770948.580          44.050
        42.850
 107955542.205 7                  20209504.940                          46.800

 122715659.470 6  95445538.887 5  23021145.560    23021152.060          40.950
        32.950
 104977798.010 8  81649406.673 7  19645163.960    19645166.120          49.400
        45.800
 110687956.310 7  86090640.412 7  20735584.260    20735586.860          47.950
        45.650
 19  2 28 13  5 23.0000000  0 14G29G12G31G20G26G21G25R07R06R21R12R10
                                R11R22
 115484321.419 8  89987755.93546  21975935.120    21975930.640          48.950
        41.800
 126202023.858 6  98339230.20146  24015447.420    24015445.220          41.800
        39.950
 114862781.025 8  89503444.71146  21857661.140    21857655.680          49.750
        41.750
 117598152.408 7  91634906.27346  22378183.580    22378179.140          47.400
        40.300
 121019745.086 7  94301100.12646  23029291.560    23029290.040          45.750
        40.400
 106088609.945 8  82666425.62147  20187990.900    20187984.880          49.600
        46.750
 112910622.324 8  87982292.39647  21486178.340    21486176.120          48.850
        44.000
 125345760.072 7  97491167.488 6  23415640.980    23415645.420          43.000
        38.500
 121410106.033 6                  22752202.160                          38.750

 116502947.870 7  90613407.822 7  21771361.040    21771362.580          44.100
        42.900
 107953789.692 7                  20209176.880                          46.750

 122720006.674 7  95448920.026 5  23021961.100    23021967.580          42.050
        34.900
 104979685.291 8  81650874.559 7  19645517.140    19645519.300          49.450
        45.800
 110688010.233 7  86090682.352 7  20735594.360    20735596.960          47.950
        45.500
 19  2 28 13  5 24.0000000  0 14G29G12G31G20G26G21G25R07R06R21R12R10
                                R11R22
 115485411.981 8  89988605.72146  21976142.620    21976138.180          49.000
        41.850
 126205070.262 6  98341604.02146  24016027.120    24016024.960          41.800
        38.000
 114863479.393 8  89503988.89347  21857794.040    21857788.580          49.750
        42.600
 117595043.631 7  91632483.85246  22377592.000    22377587.580          47.500
        38.950
 121016578.288 7  94298632.49646  23028688.940    23028687.380          45.850
        40.000
 106087786.544 8  82665784.00847  20187834.200    20187828.180          49.700
        46.700
 112912519.429 8  87983770.65747  21486539.360    21486537.120          48.850
        44.000
 125342529.468 6  97488654.790 6  23415037.480    23415041.880          41.350
        38.750
 121408641.881 6                  22751927.780                          39.350

 116505163.297 7  90615130.929 7  21771775.040    21771776.580          44.050
        42.700
 107952038.149 7                  20208848.960                          46.800

 122724354.153 6  95452301.382 5  23022776.660    23022783.160          41.150
        33.900
 104981573.561 8  81652343.215 7  19645870.500    19645872.660          49.550
        45.750
 110688064.542 8  86090724.597 7  20735604.540    20735607.140          48.000
        45.500
 19  2 28 13  5 25.0000000  0 14G29G12G31G20G26G21G25R07R06R21R12R10
                                R11R22
 115486502.703 8  89989455.62647  21976350.200    21976345.740          49.100
        42.050
 126208117.035 7  98343978.13346  24016606.920    24016604.760          42.850
        36.250
 114864178.451 8  89504533.61347  21857927.080    21857921.620          49.750
        42.450
 117591935.170 7  91630061.66646  22377000.480    22376996.040          47.450
        39.800
 121013411.733 7  94296165.04446  23028086.380    23028084.800          45.750
        40.300
 106086963.781 8  82665142.89447  20187677.640    20187671.620          49.600
        46.700
 112914417.135 8  87985249.38747  21486900.480    21486898.240          48.850
        44.200
 125339298.936 6  97486142.146 6  23414434.020    23414438.380          41.950
        39.550
 121407178.390 6                  22751653.540                          39.350

 116507378.802 7  90616854.100 7  21772189.040    21772190.580          44.000
        42.900
 107950287.522 7                  20208521.240                          46.850

 122728701.848 6  95455682.914 5  23023592.300    23023598.780          41.200
        32.600
 104983462.780 8  81653812.603 7  19646224.060    19646226.200          49.600
        46.000
 110688119.217 8  86090767.118 7  20735614.800    20735617.380          48.000
        45.600
 19  2 28 13  5 26.0000000  0 14G29G12G31G20G26G21G25R07R06R21R12R10
                                R11R22
 115487593.556 8  89990305.63846  21976557.760    21976553.340          48.850
        41.850
 126211164.172 6  98346352.52246  24017186.760    24017184.620          41.950
        37.850
 114864878.217 8  89505078.88146  21858060.240    21858054.780          49.600
        41.700
 117588826.987 7  91627639.70346  22376409.020    22376404.580          47.250
        40.350
 121010245.416 7  94293697.77446  23027483.840    23027482.260          45.550
        40.450
 106086141.657 8  82664502.27847  20187521.200    20187515.180          49.550
        46.700
 112916315.425 8  87986728.57447  21487261.700    21487259.480          48.750
        44.350
 125336068.589 7  97483629.660 6  23413830.560    23413834.940          42.900
        39.100
 121405715.561 6                  22751379.400                          39.350

 116509594.365 7  90618577.314 7  21772603.080    21772604.620          43.900
        42.500
 107948537.806 7                  20208193.680                          46.900

 122733049.823 6  95459064.674 5  23024407.940    23024414.460          40.350
        33.000
 104985352.875 8  81655282.677 7  19646577.760    19646579.900          49.450
        45.900
 110688174.221 8  86090809.898 7  20735625.120    20735627.680          48.000
        45.650
 19  2 28 13  5 27.0000000  0 14G29G12G31G20G26G21G25R07R06R21R12R10
                                R11R22
 115488684.192 8  89991155.48447  21976765.300    21976760.880          49.000
        42.000
 126214211.302 6  98348726.91146  24017766.620    24017764.460          41.900
        37.550
 114865578.298 8  89505624.40046  21858193.460    21858188.000          49.750
        41.350
 117585718.734 7  91625217.68546  22375817.540    22375813.080          47.300
        39.350
 121007078.989 7  94291230.43346  23026881.300    23026879.720          45.550
        39.850
 106085319.804 8  82663861.87547  20187364.800    20187358.780          49.600
        46.450
 112918213.951 8  87988207.94947  21487622.980    21487620.760          48.800
        44.100
 125332837.926 6  97481116.922 6  23413227.060    23413231.420          41.700
        39.300
 121404253.023 6                  22751105.300                          39.850

 116511809.589 7  90620300.266 7  21773017.040    21773018.580          44.000
        42.550
 107946788.606 7                  20207866.220                          46.800

 122737397.681 6  95462446.343 5  23025223.580    23025230.080          40.750
        32.750
 104987243.456 8  81656753.125 7  19646931.560    19646933.700          49.400
        45.900
 110688229.179 8  86090852.639 7  20735635.400    20735637.980          48.000
        45.650
 19  2 28 13  5 28.0000000  0 14G29G12G31G20G26G21G25R07R06R21R12R10
                                R11R22
 115489774.811 8  89992005.31747  21976972.840    21976968.420          48.900
        42.000
 126217258.673 7  98351101.49246  24018346.500    24018344.360          42.300
        39.550
 114866278.910 8  89506170.33446  21858326.780    21858321.300          49.650
        41.900
 117582610.593 7  91622795.75846  22375226.060    22375221.600          47.000
        39.400
 121003912.620 7  94288763.13446  23026278.760    23026277.160          45.300
        41.000
 106084498.413 8  82663221.83047  20187208.500    20187202.480          49.550
        46.700
 112920112.889 8  87989687.64147  21487984.340    21487982.120          48.750
        44.200
 125329607.249 7  97478604.175 6  23412623.560    23412627.900          42.850
        39.550
 121402791.035 6                  22750831.340                          39.650

 116514024.684 7  90622023.113 7  21773430.940    21773432.520          44.000
        42.550
 107945040.148 7                  20207538.880                          46.750

 122741745.594 6  95465828.054 5  23026039.280    23026045.740          40.650
        32.250
 104989134.735 8  81658224.120 7  19647285.480    19647287.620          49.350
        45.700
 110688284.286 7  86090895.499 7  20735645.720    20735648.300          47.950
        45.600
 19  2 28 13  5 29.0000000  0 14G29G12G31G20G26G21G25R07R06R21R12R10
                                R11R22
 115490865.591 8  89992855.27747  21977180.400    21977176.000          49.000
        42.000
 126220306.405 6  98353476.33846  24018926.460    24018924.340          41.900
        39.050
 114866980.242 8  89506716.82847  21858460.240    21858454.760          49.750
        42.000
 117579502.791 7  91620374.09646  22374634.680    22374630.200          47.000
        39.600
 121000746.530 7  94286296.05346  23025676.260    23025674.660          45.700
        40.150
 106083677.682 8  82662582.30147  20187052.320    20187046.300          49.600
        46.850
 112922012.456 8  87991167.82547  21488345.820    21488343.600          48.750
        44.050
 125326376.688 7  97476091.519 6  23412020.080    23412024.400          42.900
        38.900
 121401329.724 6                  22750557.460                          39.300

 116516239.878 7  90623746.038 7  21773844.900    21773846.480          43.850
        42.650
 107943292.625 7                  20207211.760                          46.700

 122746093.790 6  95469209.986 5  23026855.020    23026861.460          39.550
        32.100
 104991026.959 8  81659695.852 7  19647639.580    19647641.740          49.400
        45.750
 110688339.746 8  86090938.638 7  20735656.120    20735658.700          48.100
        45.600
 19  2 28 13  5 30.0000000  0 14G29G12G31G20G26G21G25R07R06R21R12R10
                                R11R22
 115491956.402 8  89993705.26246  21977387.980    21977383.580          48.750
        41.750
 126223354.394 6  98355851.39246  24019506.480    24019504.320          41.650
        38.050
 114867682.152 8  89507263.77147  21858593.800    21858588.320          49.600
        42.150
 117576395.119 7  91617952.53546  22374043.300    22374038.840          47.100
        39.400
 120997580.557 7  94283829.06346  23025073.780    23025072.180          45.750
        40.350
 106082857.481 8  82661943.18447  20186896.240    20186890.220          49.650
        46.800
 112923912.508 8  87992648.38347  21488707.380    21488705.160          48.750
        43.950
 125323146.057 7  97473578.822 6  23411416.580    23411420.880          42.350
        40.200
 121399868.947 6                  22750283.700                          38.700

 116518454.990 7  90625468.904 7  21774258.840    21774260.420          43.900
        42.550
 107941545.900 7                  20206884.760                          46.650

 122750442.127 6  95472592.032 5  23027670.740    23027677.200          41.750
        33.900
 104992919.988 8  81661168.207 7  19647993.840    19647995.980          49.300
        45.800
 110688395.428 7  86090981.952 7  20735666.560    20735669.120          47.950
        45.250
 19  2 28 13  5 31.0000000  0 14G29G12G31G20G26G21G25R07R06R21R12R10
                                R11R22
 115493047.090 8  89994555.15146  21977595.520    21977591.120          48.900
        41.850
 126226402.459 7  98358226.52246  24020086.520    24020084.320          42.300
        37.350
 114868384.477 8  89507811.03546  21858727.460    21858721.980          49.550
        41.800
 117573287.482 7  91615531.01046  22373451.940    22373447.480          47.200
        39.650
 120994414.554 7  94281362.04746  23024471.320    23024469.680          45.650
        39.300
 106082037.630 8  82661304.33947  20186740.220    20186734.220          49.600
        46.750
 112925812.879 8  87994129.19047  21489069.000    21489066.800          48.800
        44.700
 125319915.300 7  97471066.022 6  23410813.040    23410817.340          42.300
        39.700
 121398408.538 6                  22750010.020                          39.050

 116520669.900 7  90627191.615 7  21774672.740    21774674.320          44.200
        42.550
 107939799.811 7                  20206557.900                          46.750

 122754790.435 6  95475974.045 5  23028486.460    23028492.920          41.550
        33.000
 104994813.636 8  81662641.047 7  19648348.220    19648350.360          49.400
        45.750
 110688451.160 7  86091025.304 7  20735676.980    20735679.580          47.900
        45.400
 19  2 28 13  5 32.0000000  0 14G29G12G31G20G26G21G25R07R06R21R12R10
                                R11R22
 115494137.868 8  89995405.10346  21977803.080    21977798.700          48.800
        41.500
 126229450.829 6  98360601.87546  24020666.620    24020664.420          41.200
        37.950
 114869087.432 8  89508358.79047  21858861.220    21858855.760          49.450
        42.300
 117570180.088 7  91613109.67646  22372860.620    22372856.140          47.150
        40.650
 120991248.739 7  94278895.17246  23023868.880    23023867.260          45.400
        41.050
 106081218.375 8  82660665.96047  20186584.320    20186578.320          49.550
        46.950
 112927713.794 8  87995610.41647  21489430.740    21489428.540          48.900
        43.550
 125316684.597 6  97468553.257 6  23410209.500    23410213.820          41.650
        39.900
 121396948.772 6                  22749736.460                          39.850

 116522884.817 7  90628914.321 7  21775086.640    21775088.220          44.250
        42.550
 107938054.601 7                  20206231.200                          46.750

 122759138.868 6  95479356.154 5  23029302.220    23029308.680          41.900
        33.700
 104996708.110 8  81664114.527 7  19648702.740    19648704.880          49.450
        45.800
 110688507.175 7  86091068.867 7  20735687.480    20735690.060          47.850
        45.400
 19  2 28 13  5 33.0000000  0 14G29G12G31G20G26G21G25R07R06R21R12R10
                                R11R22
 115495228.576 8  89996255.00647  21978010.620    21978006.240          49.050
        42.200
 126232499.369 7  98362977.36346  24021246.740    24021244.540          42.100
        38.850
 114869790.885 8  89508906.93347  21858995.100    21858989.620          49.450
        42.100
 117567072.788 7  91610688.40846  22372269.320    22372264.860          47.500
        40.000
 120988082.940 7  94276428.31646  23023266.460    23023264.800          45.600
        40.400
 106080399.535 8  82660027.89947  20186428.500    20186422.480          49.600
        46.600
 112929615.071 8  87997091.92447  21489792.540    21489790.340          48.900
        43.850
 125313453.833 6  97466040.446 6  23409605.960    23409610.260          41.400
        39.600
 121395489.409 6                  22749462.960                          39.300

 116525099.543 7  90630636.884 7  21775500.500    21775502.100          44.300
        42.450
 107936310.086 7                  20205904.620                          46.750

 122763487.387 6  95482738.335 5  23030117.960    23030124.460          39.800
        33.550
 104998603.298 8  81665588.558 7  19649057.380    19649059.560          49.450
        45.700
 110688563.294 7  86091112.515 7  20735697.980    20735700.580          47.850
        45.650
 19  2 28 13  5 34.0000000  0 14G29G12G31G20G26G21G25R07R06R21R12R10
                                R11R22
 115496319.301 8  89997104.92046  21978218.180    21978213.800          49.000
        41.750
 126235548.191 6  98365353.06946  24021826.940    24021824.700          41.900
        38.250
 114870494.891 8  89509455.51047  21859129.060    21859123.580          49.350
        42.100
 117563965.643 7  91608267.25246  22371678.040    22371673.580          47.100
        40.150
 120984917.278 7  94273961.57046  23022664.040    23022662.400          45.550
        40.300
 106079581.203 8  82659390.23847  20186272.780    20186266.780          49.650
        46.650
 112931516.826 8  87998573.80947  21490154.440    21490152.220          48.900
        43.950
 125310222.974 6  97463527.569 6  23409002.420    23409006.720          40.800
        38.850
 121394030.550 6                  22749189.580                          39.050

 116527314.164 7  90632359.363 7  21775914.380    21775915.960          44.300
        42.450
 107934566.366 7                  20205578.200                          46.750

 122767835.983 6  95486120.580 5  23030933.760    23030940.240          41.350
        35.450
 105000499.231 8  81667063.172 7  19649412.180    19649414.340          49.350
        45.850
 110688619.600 7  86091156.308 7  20735708.540    20735711.140          47.800
        45.350
 19  2 28 13  5 35.0000000  0 14G29G12G31G20G26G21G25R07R06R21R12R10
                                R11R22
 115497410.120 8  89997954.90446  21978425.760    21978421.400          48.950
        41.200
 126238597.278 7  98367728.97746  24022407.160    24022404.940          42.050
        38.750
 114871199.549 8  89510004.59447  21859263.140    21859257.680          49.450
        42.100
 117560858.732 7  91605846.28446  22371086.800    22371082.340          46.950
        39.750
 120981751.797 7  94271494.96246  23022061.680    23022060.020          45.450
        40.250
 106078763.456 8  82658753.03547  20186117.160    20186111.160          49.600
        47.000
 112933419.109 8  88000056.11047  21490516.440    21490514.220          48.850
        44.350
 125306992.158 6  97461014.739 6  23408398.860    23408403.180          41.100
        39.000
 121392572.279 6                  22748916.260                          38.500

 116529528.789 7  90634081.847 7  21776328.240    21776329.800          44.100
        42.600
 107932823.517 7                  20205251.920                          46.650

 122772184.754 6  95489502.939 5  23031749.580    23031756.080          40.650
        35.200
 105002395.984 8  81668538.427 7  19649767.140    19649769.300          49.300
        45.700
 110688676.170 7  86091200.309 7  20735719.120    20735721.740          47.700
        45.300
 19  2 28 13  5 36.0000000  0 14G29G12G31G20G26G21G25R07R06R21R12R10
                                R11R22
 115498501.053 8  89998804.98446  21978633.360    21978629.000          48.950
        41.800
 126241646.741 6  98370105.17846  24022987.440    24022985.200          41.400
        38.200
 114871904.862 8  89510554.18847  21859397.360    21859391.900          49.400
        42.150
 117557752.081 7  91603425.51546  22370495.620    22370491.160          46.950
        39.800
 120978586.495 7  94269028.49746  23021459.340    23021457.660          45.400
        40.350
 106077946.314 8  82658116.30247  20185961.680    20185955.660          49.600
        46.750
 112935321.971 8  88001538.86347  21490878.540    21490876.320          48.900
        44.100
 125303761.386 7  97458501.929 6  23407795.320    23407799.640          42.450
        39.950
 121391114.690 6                  22748643.120                          38.950

 116531743.416 7  90635804.332 7  21776742.100    21776743.660          44.150
        42.400
 107931081.554 7                  20204925.820                          46.600

 122776533.734 6  95492885.483 5  23032565.440    23032571.920          40.800
        32.500
 105004293.614 8  81670014.361 7  19650122.260    19650124.420          49.250
        45.650
 110688733.023 7  86091244.533 7  20735729.780    20735732.400          47.650
        45.450
 19  2 28 13  5 37.0000000  0 14G29G12G31G20G26G21G25R07R06R21R12R10
                                R11R22
 115499592.135 8  89999655.17746  21978840.980    21978836.620          48.950
        41.550
 126244696.543 7  98372481.63046  24023567.800    24023565.580          42.950
        37.700
 114872610.868 8  89511104.32547  21859531.720    21859526.260          49.450
        42.050
 117554645.725 7  91601004.98046  22369904.500    22369900.040          46.900
        40.600
 120975421.489 7  94266562.26146  23020857.060    23020855.380          45.450
        40.050
 106077129.823 8  82657480.07647  20185806.300    20185800.300          49.600
        46.800
 112937225.421 8  88003022.07547  21491240.740    21491238.540          48.850
        43.900
 125300530.712 7  97455989.162 6  23407191.820    23407196.080          42.450
        38.350
 121389657.760 6                  22748370.100                          38.750

 116533958.115 7  90637526.876 7  21777155.940    21777157.540          44.000
        42.550
 107929340.513 7                  20204599.880                          46.600

 122780882.993 6  95496268.249 5  23033381.380    23033387.840          40.150
        34.300
 105006192.170 8  81671491.016 7  19650477.560    19650479.700          49.300
        45.650
 110688790.234 7  86091289.032 7  20735740.480    20735743.120          47.700
        45.450
 19  2 28 13  5 38.0000000  0 14G29G12G31G20G26G21G25R07R06R21R12R10
                                R11R22
 115500683.550 8  90000505.63146  21979048.680    21979044.320          48.900
        41.800
 126247746.939 6  98374858.53946  24024148.260    24024146.040          41.550
        39.300
 114873317.739 8  89511655.13546  21859666.220    21859660.780          49.400
        41.900
 117551539.860 7  91598584.83546  22369313.460    22369309.000          46.950
        39.700
 120972256.896 7  94264096.34646  23020254.860    23020253.160          45.550
        39.800
 106076314.142 8  82656844.48247  20185651.080    20185645.080          49.600
        46.950
 112939129.664 8  88004505.90347  21491603.100    21491600.900          48.800
        43.750
 125297300.391 7  97453476.678 6  23406588.360    23406592.600          42.850
        39.650
 121388201.697 6                  22748097.260                          38.800

 116536173.058 7  90639249.609 7  21777569.840    21777571.440          44.200
        42.350
 107927600.576 7                  20204274.160                          46.550

 122785232.671 6  95499651.325 5  23034197.360    23034203.840          40.850
        33.900
 105008091.844 8  81672968.542 7  19650833.060    19650835.200          49.300
        45.650
 110688847.954 7  86091333.926 7  20735751.300    20735753.940          47.650
        45.450
 19  2 28 13  5 39.0000000  0 14G29G12G31G20G26G21G25R07R06R21R12R10
                                R11R22
 115501774.984 8  90001356.10346  21979256.360    21979252.020          48.800
        41.700
 126250797.511 7  98377235.58846  24024728.740    24024726.540          42.700
        37.950
 114874025.198 8  89512206.40046  21859800.840    21859795.400          49.350
        41.500
 117548434.160 7  91596164.81246  22368722.460    22368718.020          47.050
        40.250
 120969092.390 7  94261630.49946  23019652.680    23019650.980          45.350
        39.900
 106075498.984 8  82656209.29447  20185495.960    20185489.960          49.600
        46.600
 112941034.363 8  88005990.08647  21491965.560    21491963.340          48.800
        43.950
 125294070.087 7  97450964.212 6  23405984.920    23405989.140          42.300
        40.050
 121386746.219 6                  22747824.520                          38.900

 116538387.947 7  90640972.301 7  21777983.760    21777985.340          44.250
        42.400
 107925861.418 7                  20203948.600                          46.550

 122789582.480 6  95503034.497 5  23035013.400    23035019.860          41.050
        34.650
 105009992.268 8  81674446.648 7  19651188.700    19651190.840          49.300
        45.650
 110688905.886 7  86091378.984 7  20735762.160    20735764.780          47.650
        45.500
 19  2 28 13  5 40.0000000  0 14G29G12G31G20G26G21G25R07R06R21R12R10
                                R11R22
 115502866.347 8  90002206.51246  21979464.040    21979459.680          48.850
        41.950
 126253848.290 7  98379612.81246  24025309.280    24025307.120          42.550
        38.700
 114874733.130 8  89512758.03147  21859935.560    21859930.120          49.350
        42.050
 117545328.505 7  91593744.81446  22368131.460    22368127.020          46.800
        39.200
 120965927.939 7  94259164.68946  23019050.480    23019048.800          45.350
        40.850
 106074684.240 8  82655574.42747  20185340.940    20185334.920          49.600
        46.750
 112942939.442 8  88007474.56347  21492328.080    21492325.860          48.800
        44.500
 125290839.662 7  97448451.656 6  23405381.440    23405385.680          43.750
        39.450
 121385291.173 6                  22747551.860                          38.550

 116540602.638 7  90642694.837 7  21778397.640    21778399.220          44.250
        42.750
 107924122.944 7                  20203623.160                          46.550

 122793932.307 6  95506417.690 5  23035829.440    23035835.900          41.350
        34.300
 105011893.352 8  81675925.267 7  19651544.460    19651546.600          49.400
        45.600
 110688963.903 7  86091424.106 7  20735773.020    20735775.660          47.650
        45.350
 19  2 28 13  5 41.0000000  0 14G29G12G31G20G26G21G25R07R06R21R12R10
                                R11R22
 115503957.658 8  90003056.88046  21979671.700    21979667.360          48.950
        41.750
 126256899.198 7  98381990.14346  24025889.860    24025887.700          42.700
        38.600
 114875441.553 8  89513310.04946  21860070.380    21860064.920          49.450
        41.900
 117542222.963 7  91591324.91046  22367540.500    22367536.060          47.250
        39.250
 120962763.538 7  94256698.91846  23018448.320    23018446.640          45.150
        40.850
 106073869.941 8  82654939.90847  20185185.980    20185179.960          49.600
        46.900
 112944844.928 8  88008959.35847  21492690.680    21492688.460          48.800
        43.500
 125287609.141 7  97445939.036 6  23404777.960    23404782.180          43.550
        39.350
 121383836.613 6                  22747279.260                          39.200

 116542817.193 7  90644417.266 7  21778811.480    21778813.060          44.300
        43.100
 107922385.193 7                  20203297.860                          46.650

 122798282.163 6  95509800.914 5  23036645.460    23036651.920          41.250
        33.750
 105013795.155 8  81677404.443 7  19651900.360    19651902.500          49.250
        45.600
 110689022.061 7  86091469.338 7  20735783.920    20735786.560          47.800
        45.400
 19  2 28 13  5 42.0000000  0 14G29G12G31G20G26G21G25R07R06R21R12R10
                                R11R22
 115505048.908 8  90003907.19446  21979879.360    21979875.020          48.950
        41.650
 126259950.277 7  98384367.60746  24026470.460    24026468.320          43.400
        38.050
 114876150.465 8  89513862.44447  21860205.280    21860199.820          49.550
        42.050
 117539117.526 7  91588905.08746  22366949.560    22366945.120          47.250
        39.950
 120959599.166 7  94254233.17646  23017846.160    23017844.480          45.300
        41.400
 106073056.065 8  82654305.71747  20185031.100    20185025.100          49.650
        47.100
 112946750.782 8  88010444.44147  21493053.360    21493051.140          48.650
        44.250
 125284378.462 7  97443426.307 6  23404174.460    23404178.680          42.900
        38.600
 121382382.516 6                  22747006.760                          39.900

 116545031.579 7  90646139.566 7  21779225.300    21779226.880          44.200
        42.950
 107920648.148 7                  20202972.680                          46.550

 122802632.022 6  95513184.127 5  23037461.460    23037467.960          40.600
        33.850
 105015697.637 8  81678884.151 7  19652256.380    19652258.520          49.300
        45.700
 110689080.318 7  86091514.649 7  20735794.820    20735797.480          47.750
        45.400
 19  2 28 13  5 43.0000000  0 14G29G12G31G20G26G21G25R07R06R21R12R10
                                R11R22
 115506140.292 8  90004757.62246  21980087.040    21980082.720          48.900
        41.700
 126263001.776 6  98386745.40946  24027051.160    24027048.960          40.350
        38.500
 114876860.055 8  89514415.37247  21860340.300    21860334.840          49.400
        42.350
 117536012.375 7  91586485.48546  22366358.660    22366354.220          46.650
        39.800
 120956435.035 7  94251767.62446  23017244.040    23017242.340          45.100
        40.700
 106072242.822 8  82653672.01947  20184876.360    20184870.340          49.600
        46.950
 112948657.246 8  88011929.99147  21493416.140    21493413.940          48.650
        44.150
 125281147.914 7  97440913.673 6  23403570.960    23403575.200          42.600
        40.100
 121380929.085 6                  22746734.440                          39.450

 116547246.016 7  90647861.906 7  21779639.120    21779640.700          44.300
        42.700
 107918912.003 7                  20202647.660                          46.600

 122806982.169 7  95516567.567 6  23038277.560    23038284.020          44.200
        36.400
 105017601.006 8  81680364.546 7  19652612.560    19652614.720          49.300
        45.500
 110689138.914 7  86091560.223 7  20735805.800    20735808.460          47.800
        45.450
 19  2 28 13  5 44.0000000  0 14G29G12G31G20G26G21G25R07R06R21R12R10
                                R11R22
 115507231.719 8  90005608.08447  21980294.740    21980290.420          48.900
        42.800
 126266053.457 6  98389123.33646  24027631.880    24027629.680          41.850
        38.150
 114877570.237 8  89514968.75846  21860475.440    21860470.000          49.350
        41.950
 117532907.369 7  91584066.00146  22365767.800    22365763.380          46.950
        40.550
 120953271.013 7  94249302.15346  23016641.940    23016640.280          45.150
        40.800
 106071430.096 8  82653038.72847  20184721.700    20184715.680          49.600
        47.150
 112950564.185 8  88013415.91647  21493779.020    21493776.820          48.700
        44.400
 125277917.337 7  97438401.004 6  23402967.440    23402971.680          42.700
        38.100
 121379476.221 6                  22746462.180                          39.250

 116549460.347 7  90649584.163 7  21780052.920    21780054.500          44.200
        42.850
 107917176.683 7                  20202322.800                          46.600

 122811332.482 7  95519951.120 6  23039093.660    23039100.120          46.050
        38.600
 105019505.157 8  81681845.553 7  19652968.900    19652971.040          49.300
        45.600
 110689197.707 7  86091605.950 7  20735816.820    20735819.480          47.750
        45.250
 19  2 28 13  5 45.0000000  0 14G29G12G31G20G26G21G25R07R06R21R12R10
                                R11R22
 115508323.155 8  90006458.55847  21980502.420    21980498.100          48.900
        42.350
 126269105.389 7  98391501.46346  24028212.640    24028210.460          42.700
        40.000
 114878280.970 8  89515522.57447  21860610.680    21860605.240          49.400
        42.250
 117529802.537 7  91581646.66446  22365176.960    22365172.560          46.650
        39.850
 120950107.121 7  94246836.78446  23016039.880    23016038.200          45.100
        40.100
 106070617.873 8  82652405.82747  20184567.140    20184561.120          49.600
        47.050
 112952471.572 8  88014902.18647  21494141.980    21494139.780          48.850
        44.250
 125274686.759 7  97435888.339 6  23402363.960    23402368.180          42.300
        38.500
 121378023.888 6                  22746190.000                          39.100

 116551674.610 7  90651306.366 7  21780466.720    21780468.300          44.300
        42.600
 107915442.122 7                  20201998.100                          46.450

 122815682.914 7  95523334.773 6  23039909.800    23039916.240          44.850
        37.700
 105021410.065 8  81683327.148 7  19653325.380    19653327.520          49.350
        45.700
 110689256.698 7  86091651.831 7  20735827.880    20735830.520          47.750
        45.400
 19  2 28 13  5 46.0000000  0 14G29G12G31G20G26G21G25R07R06R21R12R10
                                R11R22
 115509414.671 8  90007309.08546  21980710.140    21980705.820          48.900
        41.900
 126272157.622 7  98393879.83046  24028793.480    24028791.360          42.800
        36.800
 114878992.344 8  89516076.89146  21860746.060    21860740.620          49.400
        41.800
 117526697.946 7  91579227.51446  22364586.180    22364581.780          47.300
        39.950
 120946943.377 7  94244371.53246  23015437.840    23015436.160          45.150
        40.200
 106069806.219 8  82651773.36847  20184412.700    20184406.680          49.450
        46.950
 112954379.491 8  88016388.87347  21494505.040    21494502.840          48.800
        43.950
 125271456.209 6  97433375.705 6  23401760.460    23401764.680          41.150
        38.900
 121376572.130 6                  22745917.920                          39.000

 116553888.865 7  90653028.562 7  21780880.500    21780882.080          44.250
        42.900
 107913708.416 7                  20201673.540                          46.500

 122820033.468 7  95526718.527 6  23040725.940    23040732.400          44.250
        38.250
 105023315.788 8  81684809.377 7  19653682.000    19653684.160          49.250
        45.600
 110689315.924 7  86091697.896 7  20735838.980    20735841.620          47.650
        45.350
 19  2 28 13  5 47.0000000  0 14G29G12G31G20G26G21G25R07R06R21R12R10
                                R11R22
 115510506.294 8  90008159.69746  21980917.860    21980913.540          48.850
        41.850
 126275210.154 7  98396258.42246  24029374.340    24029372.240          43.600
        37.900
 114879704.362 8  89516631.71047  21860881.540    21860876.100          49.550
        42.650
 117523593.597 7  91576808.54546  22363995.440    22363991.020          46.800
        39.850
 120943779.859 7  94241906.44946  23014835.840    23014834.140          45.200
        40.850
 106068995.165 8  82651141.37747  20184258.360    20184252.340          49.550
        47.150
 112956287.973 8  88017875.99947  21494868.220    21494866.000          48.800
        44.350
 125268225.725 6  97430863.127 6  23401156.980    23401161.180          40.150
        38.250
 121375121.032 6                  22745646.020                          38.600

 116556103.173 7  90654750.800 7  21781294.300    21781295.880          44.050
        42.750
 107911975.582 7                  20201349.140                          46.400

 122824384.194 7  95530102.431 6  23041542.120    23041548.600          43.800
        37.800
 105025222.392 8  81686292.293 7  19654038.800    19654040.940          49.300
        45.650
 110689375.454 7  86091744.197 7  20735850.140    20735852.760          47.550
        45.350
 19  2 28 13  5 48.0000000  0 14G29G12G31G20G26G21G25R07R06R21R12R10
                                R11R22
 115511598.269 8  90009010.58146  21981125.660    21981121.340          48.900
        41.850
 126278263.308 7  98398637.50846  24029955.340    24029953.220          44.250
        37.650
 114880417.265 8  89517187.21947  21861017.200    21861011.760          49.650
        42.250
 117520489.723 7  91574389.94446  22363404.800    22363400.360          46.800
        39.550
 120940616.788 7  94239441.71446  23014233.920    23014232.260          45.250
        41.550
 106068184.944 8  82650510.03647  20184104.180    20184098.160          49.450
        46.950
 112958197.232 8  88019363.73247  21495231.540    21495229.340          48.850
        43.650
 125264995.498 6  97428350.749 6  23400553.560    23400557.740          39.450
        40.350
 121373670.807 6                  22745374.240                          38.600

 116558317.691 7  90656473.200 7  21781708.140    21781709.720          44.150
        42.900
 107910243.871 7                  20201024.980                          46.450

 122828735.433 7  95533486.741 6  23042358.420    23042364.880          45.100
        37.500
 105027130.076 8  81687776.043 7  19654395.800    19654397.940          49.150
        45.650
 110689435.500 7  86091790.899 7  20735861.380    20735864.020          47.600
        45.600
 19  2 28 13  5 49.0000000  0 14G29G12G31G20G26G21G25R07R06R21R12R10
                                R11R22
 115512690.324 8  90009861.53047  21981333.480    21981329.160          48.900
        42.100
 126281316.770 7  98401016.83346  24030536.400    24030534.300          44.150
        38.300
 114881130.825 8  89517743.23647  21861153.000    21861147.540          49.750
        43.050
 117517386.126 7  91571971.57346  22362814.200    22362809.760          46.650
        39.650
 120937453.918 7  94236977.14546  23013632.040    23013630.400          45.300
        41.700
 106067375.311 8  82649879.15547  20183950.120    20183944.080          49.550
        46.950
 112960107.059 8  88020851.91147  21495594.960    21495592.760          48.700
        44.000
 125261765.405 6  97425838.469 6  23399950.140    23399954.340          37.850
        39.600
 121372221.164 6                  22745102.560                          38.850

 116560532.189 7  90658195.584 7  21782121.960    21782123.560          44.150
        42.850
 107908513.033 7                  20200700.960                          46.550

 122833086.820 7  95536871.148 6  23043174.720    23043181.200          45.150
        37.650
 105029038.601 8  81689260.452 7  19654752.960    19654755.100          49.250
        45.700
 110689495.836 7  86091837.827 7  20735872.700    20735875.320          47.700
        45.450
 19  2 28 13  5 50.0000000  0 14G29G12G31G20G26G21G25R07R06R21R12R10
                                R11R22
 115513782.323 8  90010712.44246  21981541.280    21981536.960          49.200
        41.700
 126284370.364 7  98403396.25046  24031117.460    24031115.360          44.700
        38.650
 114881844.861 8  89518299.62647  21861288.880    21861283.440          49.450
        42.550
 117514282.596 7  91569553.24446  22362223.600    22362219.180          47.050
        39.200
 120934291.073 7  94234512.59046  23013030.180    23013028.500          45.450
        41.650
 106066566.093 8  82649248.59447  20183796.140    20183790.100          49.350
        46.750
 112962017.249 8  88022340.37347  21495958.460    21495956.260          48.750
        44.150
 125258535.168 6  97423326.071 6  23399346.700    23399350.880          39.000
        40.350
 121370771.999 6                  22744830.960                          39.200

 116562746.503 7  90659917.830 7  21782535.780    21782537.360          44.300
        42.950
 107906782.882 7                  20200377.080                          46.550

 122837438.241 7  95540255.591 6  23043991.020    23043997.520          43.850
        37.550
 105030947.824 8  81690745.399 7  19655110.260    19655112.380          49.300
        45.850
 110689556.265 7  86091884.830 7  20735884.020    20735886.660          47.750
        45.650
 19  2 28 13  5 51.0000000  0 14G29G12G31G20G26G21G25R07R06R21R12R10
                                R11R22
 115514874.025 8  90011563.11947  21981749.020    21981744.720          49.250
        42.350
 126287423.917 7  98405775.63346  24031698.540    24031696.440          44.200
        38.300
 114882559.152 8  89518856.21847  21861424.800    21861419.360          49.350
        42.800
 117511178.941 7  91567134.80946  22361633.000    22361628.540          46.950
        38.600
 120931128.027 7  94232047.88546  23012428.280    23012426.620          45.500
        41.550
 106065757.083 8  82648618.19847  20183642.180    20183636.160          49.400
        47.250
 112963927.607 8  88023828.96147  21496322.000    21496319.780          48.950
        44.250
 125255304.646 6  97420813.441 6  23398743.200    23398747.400          39.900
        40.400
 121369323.073 6                  22744559.400                          39.250

 116564960.459 7  90661639.796 7  21782949.520    21782951.100          44.350
        42.600
 107905053.216 7                  20200053.260                          46.600

 122841789.446 7  95543639.864 6  23044807.320    23044813.800          43.600
        37.500
 105032857.527 8  81692230.721 7  19655467.640    19655469.760          49.300
        45.850
 110689616.588 7  86091931.752 7  20735895.320    20735897.960          47.700
        45.600
 19  2 28 13  5 52.0000000  0 14G29G12G31G20G26G21G25R07R06R21R12R10
                                R11R22
 115515965.661 8  90012413.74747  21981956.760    21981952.460          49.200
        42.350
 126290477.608 7  98408155.12846  24032279.640    24032277.540          43.200
        38.550
 114883273.916 8  89519413.18146  21861560.820    21861555.380          49.250
        41.800
 117508075.340 7  91564716.41346  22361042.400    22361037.960          46.900
        39.600
 120927965.019 7  94229583.19946  23011826.380    23011824.720          45.550
        40.450
 106064948.480 8  82647988.11847  20183488.320    20183482.280          49.400
        47.200
 112965838.330 8  88025317.83447  21496685.600    21496683.380          48.950
        44.400
 125252074.021 6  97418300.709 6  23398139.700    23398143.880          40.400
        40.600
 121367874.596 6                  22744287.960                          38.700

 116567174.270 7  90663361.645 7  21783363.220    21783364.800          44.350
        42.750
 107903324.242 7                  20199729.600                          46.400

 122846140.694 7  95547024.163 6  23045623.600    23045630.100          43.700
        37.200
 105034767.888 8  81693716.556 7  19655825.120    19655827.260          49.250
        45.900
 110689677.023 7  86091978.759 7  20735906.640    20735909.300          47.550
        45.600
 19  2 28 13  5 53.0000000  0 14G29G12G31G20G26G21G25R07R06R21R12R10
                                R11R22
 115517057.271 8  90013264.35247  21982164.500    21982160.180          49.250
        42.050
 126293531.438 7  98410534.74246  24032860.760    24032858.700          43.250
        36.650
 114883989.218 8  89519970.56347  21861696.920    21861691.500          49.750
        42.900
 117504971.893 7  91562298.13846  22360451.840    22360447.400          46.450
        39.450
 120924802.055 7  94227118.55646  23011224.480    23011222.800          44.950
        41.450
 106064140.353 8  82647358.41147  20183334.520    20183328.500          49.550
        47.100
 112967749.470 8  88026807.03347  21497049.260    21497047.060          48.850
        44.500
 125248843.334 6  97415787.938 6  23397536.160    23397540.360          40.050
        41.000
 121366426.588 6                  22744016.600                          39.350

 116569387.931 7  90665083.377 7  21783776.880    21783778.480          44.200
        42.750
 107901596.017 7                  20199406.080                          46.350

 122850491.979 7  95550408.496 6  23046439.880    23046446.400          44.150
        36.850
 105036678.933 8  81695202.924 7  19656182.760    19656184.900          49.350
        45.800
 110689737.613 7  86092025.880 7  20735918.000    20735920.640          47.600
        45.550
 19  2 28 13  5 54.0000000  0 14G29G12G31G20G26G21G25R07R06R21R12R10
                                R11R22
 115518148.926 8  90014114.98847  21982372.220    21982367.900          48.900
        42.150
 126296585.599 7  98412914.62646  24033441.960    24033439.920          43.150
        38.000
 114884705.093 8  89520528.37847  21861833.160    21861827.740          49.550
        42.150
 117501868.608 7  91559879.99046  22359861.300    22359856.880          46.150
        39.000
 120921639.265 7  94224654.05046  23010622.640    23010620.940          44.950
        40.750
 106063332.767 8  82646729.12347  20183180.840    20183174.820          49.400
        47.100
 112969661.121 8  88028296.63047  21497413.060    21497410.840          48.900
        44.650
 125245612.588 6  97413275.117 6  23396932.620    23396936.820          40.150
        41.600
 121364979.080 6                  22743745.300                          38.950

 116571601.504 7  90666805.045 7  21784190.520    21784192.140          44.200
        42.950
 107899868.613 7                  20199082.700                          46.450

 122854843.450 7  95553792.989 6  23047256.220    23047262.720          43.700
        38.050
 105038590.785 8  81696689.922 7  19656540.540    19656542.680          49.350
        45.400
 110689798.437 7  86092073.188 7  20735929.380    20735932.040          47.600
        45.600
 19  2 28 13  5 55.0000000  0 14G29G12G31G20G26G21G25R07R06R21R12R10
                                R11R22
 115519240.841 8  90014965.82946  21982580.020    21982575.700          49.150
        41.750
 126299640.246 7  98415294.89346  24034023.240    24034021.200          42.750
        36.700
 114885421.751 8  89521086.81347  21861969.520    21861964.120          49.350
        42.250
 117498765.717 7  91557462.14346  22359270.840    22359266.420          46.000
        39.900
 120918476.816 7  94222189.80546  23010020.840    23010019.160          45.150
        40.750
 106062525.909 8  82646100.40747  20183027.300    20183021.280          49.450
        46.850
 112971573.460 8  88029786.76747  21497776.960    21497774.740          48.800
        44.200
 125242381.994 6  97410762.419 6  23396329.100    23396333.300          40.650
        40.850
 121363532.393 6                  22743474.220                          39.200

 116573815.240 7  90668526.841 7  21784604.220    21784605.840          44.300
        42.900
 107898142.233 7                  20198759.520                          46.450

 122859195.191 7  95557177.686 6  23048072.600    23048079.100          44.100
        37.750
 105040503.647 8  81698177.705 7  19656898.520    19656900.640          49.300
        45.700
 110689859.686 7  86092120.824 7  20735940.840    20735943.520          47.700
        45.600
 19  2 28 13  5 56.0000000  0 14G29G12G31G20G26G21G25R07R06R21R12R10
                                R11R22
 115520332.864 8  90015816.75446  21982787.840    21982783.500          49.050
        41.900
 126302695.208 7  98417675.38346  24034604.580    24034602.560          42.600
        37.900
 114886139.105 8  89521645.78847  21862106.020    21862100.620          49.400
        42.300
 117495663.089 7  91555044.51046  22358680.420    22358676.000          46.200
        37.850
 120915314.588 7  94219725.73346  23009419.100    23009417.400          45.100
        41.050
 106061719.674 8  82645472.17147  20182873.880    20182867.860          49.450
        46.950
 112973486.387 8  88031277.36247  21498140.980    21498138.760          48.800
        43.800
 125239151.594 6  97408249.887 6  23395725.620    23395729.840          39.350
        41.150
 121362086.360 6                  22743203.240                          38.850

 116576029.067 7  90670248.709 7  21785017.920    21785019.560          44.300
        42.800
 107896416.780 7                  20198436.520                          46.550

 122863547.366 6  95560562.705 5  23048889.040    23048895.540          40.200
        34.050
 105042417.372 8  81699666.162 7  19657256.640    19657258.760          49.300
        45.600
 110689921.256 7  86092168.712 7  20735952.380    20735955.040          47.750
        45.650
 19  2 28 13  5 57.0000000  0 14G29G12G31G20G26G21G25R07R06R21R12R10
                                R11R22
 115521424.955 8  90016667.73646  21982995.660    21982991.340          49.050
        41.950
 126305750.428 6  98420056.08646  24035185.960    24035183.980          41.600
        37.000
 114886857.056 8  89522205.23046  21862242.640    21862237.240          49.350
        41.900
 117492560.721 7  91552627.07546  22358090.060    22358085.640          47.000
        40.250
 120912152.541 7  94217261.79846  23008817.380    23008815.700          45.350
        39.950
 106060913.998 8  82644844.37247  20182720.580    20182714.560          49.550
        46.700
 112975399.819 8  88032768.34547  21498505.100    21498502.880          48.850
        43.800
 125235921.204 6  97405737.374 6  23395122.140    23395126.380          38.400
        40.850
 121360640.892 6                  22742932.360                          39.200

 116578242.873 7  90671970.558 7  21785431.620    21785433.240          44.400
        42.700
 107894692.146 7                  20198113.680                          46.450

 122867899.382 6  95563947.612 5  23049705.520    23049711.960          40.150
        34.150
 105044331.911 8  81701155.251 7  19657614.920    19657617.040          49.200
        45.550
 110689983.055 7  86092216.773 7  20735963.960    20735966.620          47.600
        45.600
 19  2 28 13  5 58.0000000  0 14G29G12G31G20G26G21G25R07R06R21R12R10
                                R11R22
 115522517.229 8  90017518.85747  21983203.500    21983199.180          49.100
        42.450
 126308806.116 7  98422437.15546  24035767.440    24035765.480          43.200
        38.050
 114887575.743 8  89522765.24647  21862379.400    21862374.000          49.450
        42.250
 117489458.663 7  91550209.89146  22357499.760    22357495.340          47.050
        39.700
 120908990.728 7  94214798.04446  23008215.720    23008214.000          45.250
        40.150
 106060108.982 8  82644217.08447  20182567.380    20182561.360          49.550
        46.950
 112977313.866 8  88034259.81147  21498869.340    21498867.120          48.750
        44.400
 125232690.947 6  97403224.958 6  23394518.740    23394522.920          40.900
        40.400
 121359196.100 6                  22742661.600                          39.100

 116580456.702 7  90673692.421 7  21785845.320    21785846.960          44.100
        42.650
 107892968.477 7                  20197790.980                          46.550

 122872251.853 7  95567332.870 6  23050522.040    23050528.480          44.150
        37.150
 105046247.399 8  81702645.075 7  19657973.380    19657975.480          49.250
        45.400
 110690045.198 7  86092265.109 7  20735975.600    20735978.260          47.700
        45.600
 19  2 28 13  5 59.0000000  0 14G29G12G31G20G26G21G25R07R06R21R12R10
                                R11R22
 115523609.525 8  90018369.99547  21983411.360    21983407.040          49.000
        42.050
 126311862.013 7  98424818.34046  24036348.960    24036347.000          43.850
        36.250
 114888294.989 8  89523325.69546  21862516.260    21862510.880          49.400
        41.850
 117486356.752 7  91547792.82246  22356909.500    22356905.040          46.450
        40.200
 120905829.070 7  94212334.41246  23007614.060    23007612.360          45.150
        40.600
 106059304.478 8  82643590.19847  20182414.280    20182408.260          49.450
        47.100
 112979228.402 8  88035751.65447  21499233.660    21499231.420          48.750
        44.400
 125229460.667 6  97400712.514 6  23393915.300    23393919.460          40.950
        38.950
 121357751.891 6                  22742390.960                          39.600

 116582670.433 7  90675414.206 7  21786259.000    21786260.640          44.400
        42.850
 107891245.622 7                  20197468.480                          46.600

 122876604.422 7  95570718.195 6  23051338.580    23051345.020          43.050
        37.450
 105048163.657 8  81704135.497 7  19658331.980    19658334.080          49.250
        45.650
 110690107.557 7  86092313.608 7  20735987.300    20735989.960          47.700
        45.400
 19  2 28 13  6  0.0000000  0 14G29G12G31G20G26G21G25R07R06R21R12R10
                                R11R22
 115524701.645 8  90019220.99346  21983619.200    21983614.860          49.150
        41.850
 126314917.914 7  98427199.53646  24036930.500    24036928.560          42.950
        37.400
 114889014.608 8  89523886.44047  21862653.200    21862647.820          49.450
        42.100
 117483254.836 7  91545375.75646  22356319.220    22356314.760          47.000
        39.300
 120902667.328 7  94209870.71746  23007012.420    23007010.680          45.300
        40.800
 106058500.286 8  82642963.55447  20182261.260    20182255.240          49.550
        46.900
 112981143.192 8  88037243.69747  21499598.040    21499595.800          48.850
        44.150
 125226230.127 6  97398199.876 6  23393311.780    23393315.980          39.050
        38.250
 121356307.974 6                  22742120.320                          39.550

 116584883.862 7  90677135.757 7  21786672.640    21786674.280          44.200
        42.900
 107889523.342 7                  20197146.060                          46.600

 122880956.851 7  95574103.422 6  23052155.100    23052161.520          43.250
        36.250
 105050080.452 8  81705626.336 7  19658690.700    19658692.800          49.300
        45.600
 110690169.906 7  86092362.102 7  20735998.980    20736001.640          47.800
        45.600
 19  2 28 13  6  1.0000000  0 14G29G12G31G20G26G21G25R07R06R21R12R10
                                R11R22
 115525793.770 8  90020071.99746  21983827.020    21983822.680          49.000
        41.900
 126317974.100 6  98429580.97445  24037512.060    24037510.100          41.450
        32.500
 114889734.785 8  89524447.61846  21862790.240    21862784.860          49.400
        41.950
 117480153.077 7  91542958.79846  22355728.960    22355724.520          46.550
        39.450
 120899505.699 7  94207407.11246  23006410.780    23006409.060          44.800
        40.800
 106057696.602 8  82642337.30847  20182108.320    20182102.300          49.550
        46.800
 112983058.440 8  88038736.09847  21499962.480    21499960.260          48.850
        44.000
 125222999.587 5  97395687.255 6  23392708.340    23392712.480          34.350
        36.100
 121354864.643 6                  22741849.840                          38.900

 116587097.258 7  90678857.289 7  21787086.260    21787087.920          44.350
        42.900
 107887801.863 7                  20196823.800                          46.450

 122885309.471 7  95577488.795 6  23052971.640    23052978.060          43.800
        36.350
 105051998.029 8  81707117.785 7  19659049.540    19659051.640          49.350
        45.750
 110690232.454 7  86092410.753 7  20736010.700    20736013.360          47.900
        45.700
 19  2 28 13  6  2.0000000  0 14G29G12G31G20G26G21G25R07R06R21R12R10
                                R11R22
 115526885.951 8  90020923.04347  21984034.840    21984030.520          49.000
        42.400
 126321030.560 6  98431962.63146  24038093.700    24038091.660          41.900
        36.200
 114890455.552 8  89525009.25147  21862927.400    21862922.020          49.400
        42.550
 117477051.521 7  91540541.99346  22355138.760    22355134.300          46.850
        38.850
 120896344.209 7  94204943.60947  23005809.160    23005807.460          45.000
        42.050
 106056893.452 8  82641711.47947  20181955.480    20181949.460          49.550
        47.100
 112984974.187 8  88040228.89147  21500327.040    21500324.820          48.750
        44.150
 125219769.090 6  97393174.673 6  23392104.880    23392109.020          38.050
        36.750
 121353421.879 6                  22741579.480                          39.200

 116589310.619 7  90680578.791 7  21787499.880    21787501.540          44.250
        43.000
 107886081.206 7                  20196501.680                          46.550

 122889662.196 7  95580874.241 6  23053788.220    23053794.600          43.850
        36.050
 105053916.417 8  81708609.864 7  19659408.540    19659410.640          49.350
        45.850
 110690295.238 7  86092459.585 7  20736022.460    20736025.120          47.900
        45.550
 19  2 28 13  6  3.0000000  0 14G29G12G31G20G26G21G25R07R06R21R12R10
                                R11R22
 115527978.352 8  90021774.26047  21984242.740    21984238.400          49.050
        42.050
 126324087.467 7  98434344.62645  24038675.400    24038673.380          42.600
        34.850
 114891177.087 8  89525571.48647  21863064.700    21863059.320          49.350
        42.450
 117473950.320 7  91538125.47446  22354548.620    22354544.160          46.800
        39.100
 120893183.040 7  94202480.35946  23005207.600    23005205.900          44.900
        40.200
 106056091.018 8  82641086.20847  20181802.800    20181796.760          49.600
        47.150
 112986890.617 8  88041722.21347  21500691.740    21500689.520          48.750
        44.050
 125216538.818 6  97390662.251 6  23391501.420    23391505.600          38.100
        37.850
 121351979.885 6                  22741309.280                          39.700

 116591524.101 7  90682300.386 7  21787913.540    21787915.200          44.300
        43.000
 107884361.541 7                  20196179.740                          46.450

 122894015.269 7  95584259.971 6  23054604.840    23054611.220          43.700
        36.300
 105055835.792 8  81710102.710 7  19659767.720    19659769.820          49.350
        45.850
 110690358.425 7  86092508.730 7  20736034.280    20736036.960          47.850
        45.700
 19  2 28 13  6  4.0000000  0 14G29G12G31G20G26G21G25R07R06R21R12R10
                                R11R22
 115529071.018 8  90022625.68946  21984450.660    21984446.340          49.000
        41.800
 126327144.799 7  98436726.95345  24039257.200    24039255.200          42.000
        34.600
 114891899.444 8  89526134.35946  21863202.180    21863196.780          49.350
        41.950
 117470849.555 7  91535709.29746  22353958.560    22353954.120          46.850
        38.700
 120890022.239 7  94200017.39746  23004606.120    23004604.420          44.900
        40.600
 106055289.342 8  82640461.52347  20181650.240    20181644.200          49.550
        47.050
 112988807.756 8  88043216.08447  21501056.540    21501054.320          48.700
        43.800
 125213308.727 6  97388149.957 6  23390898.080    23390902.180          36.800
        36.450
 121350538.689 6                  22741039.200                          39.700

 116593737.744 7  90684022.105 7  21788327.240    21788328.880          44.100
        43.200
 107882642.898 7                  20195858.000                          46.550

 122898368.689 7  95587645.962 6  23055421.520    23055427.940          44.200
        36.400
 105057756.167 8  81711596.335 7  19660127.100    19660129.180          49.400
        45.800
 110690422.041 7  86092558.209 7  20736046.200    20736048.880          47.850
        45.600
 19  2 28 13  6  5.0000000  0 14G29G12G31G20G26G21G25R07R06R21R12R10
                                R11R22
 115530163.763 8  90023477.17747  21984658.600    21984654.280          49.000
        42.600
 126330202.473 6  98439109.55845  24039839.060    24039837.040          41.850
        35.250
 114892622.408 8  89526697.70647  21863339.740    21863334.360          49.400
        42.250
 117467748.989 7  91533293.26846  22353368.540    22353364.100          46.600
        39.100
 120886861.616 7  94197554.58047  23004004.660    23004002.960          44.950
        42.000
 106054488.230 8  82639837.27847  20181497.800    20181491.760          49.550
        47.050
 112990725.418 8  88044710.36947  21501421.480    21501419.240          48.850
        44.000
 125210078.651 6  97385637.677 6  23390294.640    23390298.720          36.550
        36.100
 121349098.099 6                  22740769.220                          39.850

 116595951.367 7  90685743.809 7  21788740.880    21788742.560          44.400
        43.100
 107880925.113 7                  20195536.420                          46.450

 122902722.287 7  95591032.088 6  23056238.260    23056244.660          44.350
        36.350
 105059677.325 8  81713090.566 7  19660486.620    19660488.700          49.350
        45.950
 110690485.898 7  86092607.876 7  20736058.160    20736060.840          47.800
        45.650
 19  2 28 13  6  6.0000000  0 14G29G12G31G20G26G21G25R07R06R21R12R10
                                R11R22
 115531256.703 8  90024328.81846  21984866.600    21984862.260          49.000
        41.850
 126333260.568 6  98441492.49945  24040420.980    24040419.020          41.300
        33.950
 114893346.132 8  89527261.64947  21863477.460    21863472.080          49.450
        42.350
 117464648.799 7  91530877.53646  22352778.600    22352774.180          46.600
        39.200
 120883701.296 7  94195091.99046  23003403.260    23003401.580          44.900
        41.750
 106053687.812 8  82639213.57547  20181345.480    20181339.440          49.450
        46.850
 112992643.716 8  88046205.14647  21501786.520    21501784.300          48.800
        44.100
 125206848.769 6  97383125.559 5  23389691.280    23389695.340          36.550
        35.750
 121347658.229 6                  22740499.400                          39.650

 116598165.090 7  90687465.593 7  21789154.580    21789156.260          44.250
        43.100
 107879208.303 7                  20195215.020                          46.650

 122907076.190 7  95594418.449 6  23057055.040    23057061.440          44.250
        36.250
 105061599.448 8  81714585.550 7  19660846.320    19660848.400          49.400
        45.800
 110690550.141 7  86092657.839 7  20736070.200    20736072.880          47.950
        45.450
 19  2 28 13  6  7.0000000  0 14G29G12G31G20G26G21G25R07R06R21R12R10
                                R11R22
 115532349.855 8  90025180.62147  21985074.620    21985070.280          49.000
        42.100
 126336319.101 6  98443875.76545  24041003.020    24041001.100          41.300
        35.400
 114894070.594 8  89527826.16647  21863615.320    21863609.940          49.350
        42.600
 117461548.930 7  91528462.05846  22352188.700    22352184.280          46.750
        38.700
 120880541.267 7  94192629.63446  23002801.920    23002800.240          45.000
        41.350
 106052888.072 8  82638590.40347  20181193.300    20181187.260          49.450
        47.100
 112994562.687 8  88047700.44847  21502151.680    21502149.460          48.850
        44.150
 125203619.075 6  97380613.585 6  23389087.960    23389091.980          37.600
        36.400
 121346219.061 6                  22740229.720                          39.400

 116600378.917 7  90689187.454 7  21789568.280    21789569.960          44.200
        42.850
 107877492.470 7                  20194893.800                          46.700

 122911430.356 7  95597805.014 6  23057871.860    23057878.260          44.150
        36.650
 105063522.556 8  81716081.299 7  19661206.220    19661208.280          49.400
        45.700
 110690614.753 7  86092708.092 7  20736082.300    20736084.980          47.900
        45.450
 19  2 28 13  6  8.0000000  0 14G29G12G31G20G26G21G25R07R06R21R12R10
                                R11R22
 115533442.703 8  90026032.19047  21985282.580    21985278.260          49.000
        42.250
 126339377.489 7  98446258.91545  24041585.000    24041583.080          42.650
        35.050
 114894795.292 8  89528390.86247  21863753.240    21863747.840          49.400
        42.150
 117458448.916 7  91526046.46046  22351598.780    22351594.360          46.600
        38.250
 120877381.041 7  94190167.12146  23002200.540    23002198.880          45.250
        41.050
 106052088.531 8  82637967.38347  20181041.140    20181035.120          49.350
        47.200
 112996481.784 8  88049195.84247  21502516.860    21502514.640          48.800
        44.250
 125200388.982 6  97378101.291 6  23388484.600    23388488.580          37.050
        37.250
 121344780.124 6                  22739960.100                          39.400

 116602592.327 7  90690908.991 7  21789981.920    21789983.600          44.100
        42.950
 107875777.083 7                  20194572.680                          46.600

 122915784.312 7  95601191.420 6  23058688.640    23058695.060          44.350
        36.550
 105065446.097 8  81717577.383 7  19661566.180    19661568.240          49.400
        45.750
 110690679.224 7  86092758.236 7  20736094.380    20736097.060          47.850
        45.450
 19  2 28 13  6  9.0000000  0 14G29G12G31G20G26G21G25R07R06R21R12R10
                                R11R22
 115534535.341 8  90026883.59647  21985490.520    21985486.180          48.900
        42.300
 126342435.954 6  98448642.13846  24042167.000    24042165.060          41.800
        37.150
 114895520.342 8  89528955.83647  21863891.220    21863885.820          49.450
        42.600
 117455348.855 7  91523630.83546  22351008.860    22351004.440          46.900
        39.050
 120874220.694 7  94187704.51546  23001599.160    23001597.480          45.350
        40.950
 106051289.274 8  82637344.58547  20180889.060    20180883.020          49.400
        46.950
 112998401.131 8  88050691.43747  21502882.120    21502879.880          48.800
        44.600
 125197158.662 6  97375588.819 6  23387881.160    23387885.120          36.900
        37.900
 121343341.487 6                  22739690.500                          39.350

 116604805.405 7  90692630.272 7  21790395.480    21790397.160          44.000
        42.950
 107874062.257 7                  20194251.660                          46.550

 122920138.123 7  95604577.712 6  23059505.380    23059511.820          44.350
        36.700
 105067370.146 8  81719073.865 7  19661926.240    19661928.300          49.450
        45.850
 110690743.686 7  86092808.376 7  20736106.460    20736109.140          47.850
        45.550
 19  2 28 13  6 10.0000000  0 14G29G12G31G20G26G21G25R07R06R21R12R10
                                R11R22
 115535628.070 8  90027735.07446  21985698.460    21985694.120          48.950
        41.650
 126345494.682 7  98451025.56346  24042749.060    24042747.100          42.400
        36.800
 114896246.013 8  89529521.29247  21864029.300    21864023.900          49.350
        42.350
 117452249.033 7  91521215.39746  22350418.980    22350414.560          46.600
        39.000
 120871060.536 7  94185242.05046  23000997.800    23000996.100          44.950
        41.200
 106050490.588 8  82636722.23447  20180737.080    20180731.040          49.300
        46.750
 113000320.997 8  88052187.43547  21503247.460    21503245.220          48.750
        44.350
 125193928.360 6  97373076.360 6  23387277.680    23387281.680          36.700
        37.400
 121341903.464 6                  22739421.020                          38.800

 116607018.509 7  90694351.573 7  21790809.040    21790810.740          44.200
        42.850
 107872348.283 7                  20193930.780                          46.550

 122924492.114 7  95607964.140 6  23060322.160    23060328.620          44.550
        36.700
 105069295.036 8  81720571.000 7  19662286.460    19662288.520          49.350
        45.700
 110690808.408 7  86092858.715 7  20736118.580    20736121.280          47.750
        45.650
 19  2 28 13  6 11.0000000  0 14G29G12G31G20G26G21G25R07R06R21R12R10
                                R11R22
 115536720.668 8  90028586.44946  21985906.360    21985902.040          49.000
        41.950
 126348553.517 7  98453409.06946  24043331.140    24043329.160          42.050
        36.300
 114896972.096 8  89530087.06947  21864167.480    21864162.080          49.450
        42.200
 117449149.214 7  91518799.95646  22349829.100    22349824.700          46.900
        39.900
 120867900.355 7  94182779.57146  23000396.440    23000394.760          45.000
        41.350
 106049692.261 8  82636100.16147  20180585.160    20180579.120          49.450
        46.950
 113002241.190 8  88053683.68547  21503612.860    21503610.620          48.750
        44.150
 125190697.919 6  97370563.797 6  23386674.160    23386678.200          36.850
        37.550
 121340465.827 6                  22739151.620                          39.350

 116609231.408 7  90696072.710 7  21791222.560    21791224.280          44.250
        42.750
 107870634.937 7                  20193610.060                          46.600

 122928846.053 7  95611350.534 6  23061138.960    23061145.400          44.550
        36.600
 105071220.549 8  81722068.619 7  19662646.780    19662648.860          49.450
        45.750
 110690873.201 7  86092909.107 7  20736130.720    20736133.420          47.950
        45.650
 19  2 28 13  6 12.0000000  0 14G29G12G31G20G26G21G25R07R06R21R12R10
                                R11R22
 115537813.587 8  90029438.07247  21986114.340    21986110.040          49.000
        42.600
 126351612.941 7  98455793.04945  24043913.320    24043911.340          42.800
        34.100
 114897699.051 8  89530653.52847  21864305.820    21864300.420          49.350
        42.850
 117446049.870 7  91516384.89146  22349239.320    22349234.920          47.050
        39.100
 120864740.586 7  94180317.41846  22999795.140    22999793.460          45.100
        40.300
 106048894.752 8  82635478.72647  20180433.380    20180427.360          49.400
        47.250
 113004162.150 8  88055180.53747  21503978.420    21503976.160          48.700
        43.650
 125187467.807 6  97368051.493 6  23386070.700    23386074.780          38.900
        36.650
 121339029.041 6                  22738882.360                          39.750

 116611444.497 7  90697793.999 7  21791636.140    21791637.840          44.000
        42.700
 107868922.694 7                  20193289.520                          46.600

 122933200.422 7  95614737.256 6  23061955.820    23061962.280          44.750
        36.850
 105073147.126 8  81723567.069 7  19663007.320    19663009.380          49.550
        45.750
 110690938.481 7  86092959.880 7  20736142.960    20736145.660          47.950
        45.600
 19  2 28 13  6 13.0000000  0 14G29G12G31G20G26G21G25R07R06R21R12R10
                                R11R22
 115538906.513 8  90030289.69947  21986322.320    21986318.020          49.000
        42.700
 126354672.546 7  98458177.14546  24044495.540    24044493.560          42.400
        36.800
 114898426.569 8  89531220.42647  21864444.260    21864438.860          49.550
        42.050
 117442950.718 7  91513969.97746  22348649.560    22348645.160          46.700
        39.600
 120861580.946 7  94177855.36746  22999193.880    22999192.220          45.150
        41.250
 106048097.736 8  82634857.67547  20180281.720    20180275.700          49.450
        47.100
 113006083.570 8  88056677.74547  21504344.060    21504341.800          48.800
        44.850
 125184237.672 6  97365539.163 5  23385467.320    23385471.360          38.250
        35.800
 121337592.813 6                  22738613.220                          39.200

 116613657.481 7  90699515.207 7  21792049.680    21792051.400          44.000
        42.900
 107867211.252 7                  20192969.100                          46.400

 122937554.873 7  95618124.042 6  23062772.700    23062779.160          45.050
        37.050
 105075074.458 8  81725066.104 7  19663368.000    19663370.060          49.350
        45.800
 110691003.957 7  86093010.809 7  20736155.220    20736157.920          47.900
        45.550
 19  2 28 13  6 14.0000000  0 14G29G12G31G20G26G21G25R07R06R21R12R10
                                R11R22
 115539999.227 8  90031141.16447  21986530.260    21986525.940          49.000
        42.450
 126357732.167 7  98460561.24945  24045077.780    24045075.780          42.100
        35.700
 114899154.404 8  89531787.57547  21864582.760    21864577.360          49.550
        42.300
 117439851.477 7  91511554.98846  22348059.800    22348055.380          46.800
        38.800
 120858421.175 7  94175393.20946  22998592.600    22998590.940          45.300
        41.650
 106047301.002 8  82634236.84547  20180130.100    20180124.080          49.450
        47.000
 113008005.220 8  88058175.13747  21504709.740    21504707.480          48.800
        44.200
 125181007.287 6  97363026.643 5  23384863.820    23384867.920          37.950
        35.700
 121336156.868 6                  22738344.120                          39.300

 116615870.139 7  90701236.161 7  21792463.160    21792464.900          44.000
        42.800
 107865500.358 7                  20192648.820                          46.450

 122941909.181 7  95621510.719 6  23063589.540    23063596.000          45.050
        36.850
 105077002.328 8  81726565.560 7  19663728.780    19663730.840          49.350
        45.750
 110691069.375 8  86093061.689 7  20736167.500    20736170.180          48.050
        45.600
 19  2 28 13  6 15.0000000  0 14G29G12G31G20G26G21G25R07R06R21R12R10
                                R11R22
 115541092.119 8  90031992.76647  21986738.240    21986733.940          48.950
        42.400
 126360792.171 7  98462945.64846  24045660.100    24045658.100          43.300
        36.000
 114899882.968 8  89532355.28747  21864721.420    21864716.000          49.600
        42.600
 117436752.564 7  91509140.25146  22347470.100    22347465.680          46.950
        38.400
 120855261.672 7  94172931.25746  22997991.360    22997989.720          45.450
        40.450
 106046504.935 8  82633616.53347  20179978.620    20179972.600          49.350
        47.050
 113009927.494 8  88059673.01547  21505075.520    21505073.280          48.850
        44.300
 125177777.001 6  97360514.207 5  23384260.380    23384264.480          38.050
        34.750
 121334721.654 6                  22738075.180                          40.000

 116618082.901 7  90702957.196 7  21792876.660    21792878.400          44.100
        42.750
 107863790.420 7                  20192328.740                          46.500

 122946263.747 7  95624897.600 6  23064406.440    23064412.920          45.350
        36.900
 105078931.143 8  81728065.748 7  19664089.720    19664091.780          49.350
        45.850
 110691135.138 8  86093112.840 7  20736179.820    20736182.520          48.000
        45.600
 19  2 28 13  6 16.0000000  0 14G29G12G31G20G26G21G25R07R06R21R12R10
                                R11R22
 115542185.019 8  90032844.37546  21986946.200    21986941.920          48.950
        41.650
 126363852.475 7  98465330.29646  24046242.440    24046240.460          43.200
        36.950
 114900612.109 8  89532923.44347  21864860.160    21864854.740          49.550
        42.400
 117433653.828 7  91506725.64346  22346880.440    22346876.000          47.200
        39.300
 120852102.323 7  94170469.42346  22997390.160    22997388.520          45.400
        41.500
 106045709.383 8  82632996.62047  20179827.220    20179821.220          49.400
        47.250
 113011850.230 8  88061171.24647  21505441.420    21505439.160          48.850
        44.400
 125174546.699 6  97358001.767 5  23383656.920    23383661.040          40.050
        35.850
 121333287.027 6                  22737806.340                          39.450

 116620295.591 7  90704678.175 7  21793290.140    21793291.900          44.050
        42.750
 107862081.283 7                  20192008.780                          46.550

 122950618.486 7  95628284.617 6  23065223.400    23065229.860          45.200
        37.350
 105080860.709 8  81729566.517 7  19664450.820    19664452.880          49.400
        45.700
 110691201.090 8  86093164.134 7  20736192.180    20736194.860          48.000
        45.600
 19  2 28 13  6 17.0000000  0 14G29G12G31G20G26G21G25R07R06R21R12R10
                                R11R22
 115543278.048 8  90033696.08447  21987154.200    21987149.920          48.950
        42.000
 126366913.034 7  98467715.13946  24046824.860    24046822.840          44.100
        37.950
 114901341.892 8  89533492.10047  21864999.040    21864993.620          49.450
        42.800
 117430555.348 7  91504311.25446  22346290.820    22346286.380          47.300
        39.000
 120848943.161 7  94168007.73646  22996789.000    22996787.340          45.400
        41.400
 106044914.430 8  82632377.17447  20179675.940    20179669.940          49.300
        47.000
 113013773.539 8  88062669.92547  21505807.420    21505805.160          48.800
        44.150
 125171316.451 6  97355489.345 6  23383053.480    23383057.580          40.400
        37.200
 121331852.992 6                  22737537.620                          39.450

 116622508.267 7  90706399.142 7  21793703.640    21793705.380          44.150
        42.850
 107860373.054 7                  20191689.000                          46.450

 122954973.391 7  95631671.761 6  23066040.360    23066046.840          44.900
        37.000
 105082791.098 8  81731067.931 7  19664812.060    19664814.120          49.400
        45.650
 110691267.332 7  86093215.658 7  20736204.620    20736207.280          47.900
        45.450
 19  2 28 13  6 18.0000000  0 14G29G12G31G20G26G21G25R07R06R21R12R10
                                R11R22
 115544371.085 8  90034547.79947  21987362.200    21987357.920          48.950
        42.300
 126369973.864 7  98470100.19146  24047407.320    24047405.300          44.400
        36.200
 114902072.247 8  89534061.20446  21865138.020    21865132.600          49.550
        41.900
 117427457.035 7  91501896.99546  22345701.240    22345696.760          47.200
        39.200
 120845784.115 7  94165546.14246  22996187.840    22996186.240          45.350
        40.650
 106044119.982 8  82631758.12447  20179524.780    20179518.760          49.350
        47.000
 113015697.300 8  88064168.95947  21506173.500    21506171.240          48.800
        44.100
 125168086.211 6  97352976.922 6  23382450.060    23382454.140          41.400
        36.750
 121330419.507 6                  22737268.980                          39.350

 116624720.869 7  90708120.048 7  21794117.120    21794118.860          44.200
        42.550
 107858665.608 7                  20191369.360                          46.700

 122959328.410 7  95635059.006 6  23066857.340    23066863.840          44.350
        36.600
 105084722.252 8  81732569.939 7  19665173.460    19665175.520          49.400
        45.650
 110691333.770 7  86093267.332 7  20736217.060    20736219.740          47.950
        45.700
 19  2 28 13  6 19.0000000  0 14G29G12G31G20G26G21G25R07R06R21R12R10
                                R11R22
 115545464.135 8  90035399.52447  21987570.220    21987565.920          48.900
        42.100
 126373034.967 7  98472485.46446  24047989.820    24047987.800          43.550
        38.250
 114902803.167 8  89534630.75747  21865277.120    21865271.680          49.650
        42.600
 117424358.905 7  91499482.88146  22345111.680    22345107.220          47.000
        39.350
 120842625.219 7  94163084.66446  22995586.740    22995585.140          45.250
        41.600
 106043326.051 8  82631139.47847  20179373.680    20179367.680          49.350
        47.100
 113017621.554 8  88065668.37647  21506539.660    21506537.420          48.800
        44.150
 125164856.022 6  97350464.567 6  23381846.660    23381850.720          41.200
        36.850
 121328986.593 6                  22737000.440                          40.050

 116626933.404 7  90709840.906 7  21794530.580    21794532.320          44.350
        42.500
 107856958.976 7                  20191049.880                          46.650

 122963683.549 7  95638446.341 6  23067674.340    23067680.840          44.850
        37.100
 105086654.206 8  81734072.573 7  19665535.020    19665537.060          49.450
        45.700
 110691400.424 8  86093319.173 7  20736229.540    20736232.220          48.000
        45.650
 19  2 28 13  6 20.0000000  0 14G29G12G31G20G26G21G25R07R06R21R12R10
                                R11R22
 115546557.264 8  90036251.31546  21987778.220    21987773.940          48.950
        41.800
 126376096.314 7  98474870.92346  24048572.400    24048570.380          45.550
        37.700
 114903534.707 8  89535200.78247  21865416.340    21865410.900          49.650
        42.850
 117421260.993 7  91497068.93446  22344522.160    22344517.700          47.000
        40.050
 120839466.472 7  94160623.30146  22994985.640    22994984.060          45.200
        41.100
 106042532.677 8  82630521.26747  20179222.700    20179216.720          49.400
        47.150
 113019546.311 8  88067168.18447  21506905.940    21506903.680          48.850
        44.650
 125161625.782 6  97347952.141 6  23381243.220    23381247.260          41.650
        36.850
 121327554.266 6                  22736732.040                          39.750

 116629145.925 7  90711561.756 7  21794944.060    21794945.780          44.350
        42.600
 107855253.176 7                  20190730.560                          46.700

 122968038.864 7  95641833.799 6  23068491.400    23068497.880          44.900
        38.000
 105088586.995 8  81735575.852 7  19665896.700    19665898.760          49.550
        45.800
 110691467.339 8  86093371.223 7  20736242.080    20736244.760          48.050
        45.500
 19  2 28 13  6 21.0000000  0 14G29G12G31G20G26G21G25R07R06R21R12R10
                                R11R22
 115547650.535 8  90037103.21447  21987986.280    21987981.980          48.950
        42.350
 126379158.005 7  98477256.65446  24049155.040    24049153.020          44.450
        36.800
 114904266.923 8  89535771.34047  21865555.680    21865550.240          49.650
        42.800
 117418163.368 7  91494655.20446  22343932.700    22343928.240          46.900
        40.150
 120836307.962 7  94158162.12846  22994384.600    22994383.020          45.200
        41.550
 106041739.934 8  82629903.54747  20179071.860    20179065.860          49.450
        46.950
 113021471.659 8  88068668.45747  21507272.320    21507270.080          48.850
        44.700
 125158395.646 6  97345439.820 5  23380639.820    23380643.840          41.300
        35.800
 121326122.603 6                  22736463.760                          39.900

 116631358.465 7  90713282.621 7  21795357.520    21795359.260          44.400
        42.700
 107853548.291 7                  20190411.400                          46.800

 122972394.371 7  95645221.410 6  23069308.480    23069314.980          44.250
        37.500
 105090520.641 8  81737079.801 7  19666258.560    19666260.620          49.450
        45.800
 110691534.585 7  86093423.526 7  20736254.680    20736257.360          47.950
        45.650
 19  2 28 13  6 22.0000000  0 14G29G12G31G20G26G21G25R07R06R21R12R10
                                R11R22
 115548743.832 8  90037955.13647  21988194.320    21988190.040          48.950
        42.150
 126382219.941 7  98479642.58846  24049737.700    24049735.700          44.100
        36.000
 114904999.706 8  89536342.34047  21865695.120    21865689.680          49.550
        42.050
 117415065.924 7  91492241.61146  22343343.300    22343338.820          47.000
        39.650
 120833149.586 7  94155701.05446  22993783.580    22993782.000          45.250
        40.900
 106040947.703 8  82629286.22447  20178921.100    20178915.100          49.550
        47.250
 113023397.464 8  88070169.08347  21507638.780    21507636.540          48.900
        44.400
 125155165.532 6  97342927.521 6  23380036.360    23380040.420          41.550
        36.000
 121324691.476 6                  22736195.600                          39.600

 116633570.922 7  90715003.421 7  21795770.960    21795772.720          44.300
        42.650
 107851844.173 7                  20190092.380                          46.700

 122976749.984 7  95648609.105 6  23070125.600    23070132.080          44.700
        37.200
 105092455.030 8  81738584.324 7  19666620.540    19666622.620          49.400
        45.750
 110691601.997 8  86093475.955 7  20736267.300    20736270.000          48.000
        45.650
 19  2 28 13  6 23.0000000  0 14G29G12G31G20G26G21G25R07R06R21R12R10
                                R11R22
 115549837.276 8  90038807.16847  21988402.400    21988398.120          48.950
        42.350
 126385282.292 7  98482028.85846  24050320.440    24050318.440          44.250
        36.500
 114905733.180 8  89536913.88047  21865834.680    21865829.260          49.600
        42.600
 117411968.771 7  91489828.24546  22342753.920    22342749.440          47.050
        39.950
 120829991.457 7  94153240.17646  22993182.600    22993181.040          45.100
        41.050
 106040156.111 8  82628669.39947  20178770.460    20178764.480          49.400
        46.900
 113025323.886 8  88071670.19347  21508005.360    21508003.140          48.900
        44.500
 125151935.530 6  97340415.295 6  23379432.980    23379437.000          40.300
        36.750
 121323261.014 6                  22735927.540                          39.400

 116635783.451 7  90716724.277 7  21796184.440    21796186.180          44.500
        42.650
 107850140.995 7                  20189773.560                          46.700

 122981105.861 7  95651997.012 6  23070942.760    23070949.240          44.700
        37.550
 105094390.330 8  81740089.555 7  19666982.720    19666984.800          49.400
        45.750
 110691669.737 8  86093528.644 7  20736280.000    20736282.680          48.000
        45.550
 19  2 28 13  6 24.0000000  0 14G29G12G31G20G26G21G25R07R06R21R12R10
                                R11R22
 115550930.694 8  90039659.18046  21988610.460    21988606.200          48.950
        41.900
 126388344.824 7  98484415.25946  24050903.240    24050901.240          44.350
        36.700
 114906467.185 8  89537485.82847  21865974.380    21865968.940          49.650
        42.550
 117408871.756 7  91487414.98646  22342164.580    22342160.100          47.000
        39.700
 120826833.393 7  94150779.34746  22992581.640    22992580.080          45.100
        41.300
 106039364.987 8  82628052.93947  20178619.900    20178613.940          49.400
        47.050
 113027250.718 8  88073171.61947  21508372.020    21508369.800          48.900
        44.550
 125148705.466 6  97337903.030 6  23378829.560    23378833.580          41.200
        36.800
 121321831.085 6                  22735659.600                          40.100

 116637995.863 7  90718445.041 7  21796597.880    21796599.640          44.600
        42.700
 107848438.538 7                  20189454.860                          46.750

 122985461.784 7  95655384.949 6  23071759.920    23071766.380          45.000
        37.300
 105096326.372 8  81741595.368 7  19667345.020    19667347.100          49.450
        45.700
 110691737.608 8  86093581.430 7  20736292.700    20736295.400          48.050
        45.600
 19  2 28 13  6 25.0000000  0 14G29G12G31G20G26G21G25R07R06R21R12R10
                                R11R22
 115552024.014 8  90040511.11646  21988818.520    21988814.260          48.850
        41.950
 126391407.464 7  98486801.73246  24051486.040    24051484.040          44.300
        36.950
 114907201.640 8  89538058.13247  21866114.140    21866108.700          49.600
        42.650
 117405774.795 7  91485001.77046  22341575.260    22341570.780          47.050
        39.000
 120823675.351 7  94148318.53746  22991980.680    22991979.140          45.100
        41.250
 106038574.259 8  82627436.78747  20178469.420    20178463.460          49.400
        47.200
 113029177.905 8  88074673.32147  21508738.760    21508736.540          48.800
        44.600
 125145475.306 6  97335390.690 6  23378226.100    23378230.160          41.000
        36.900
 121320401.549 6                  22735391.700                          40.700

 116640208.058 7  90720165.635 7  21797011.280    21797013.040          44.600
        42.600
 107846736.781 7                  20189136.280                          46.850

 122989817.725 7  95658772.899 6  23072577.100    23072583.540          44.700
        37.300
 105098263.083 8  81743101.697 7  19667707.460    19667709.540          49.450
        45.600
 110691805.564 8  86093634.287 7  20736305.420    20736308.140          48.050
        45.450
 19  2 28 13  6 26.0000000  0 14G29G12G31G20G26G21G25R07R06R21R12R10
                                R11R22
 115553117.220 8  90041362.96047  21989026.560    21989022.280          48.950
        42.050
 126394470.212 7  98489188.27246  24052068.860    24052066.820          44.300
        37.400
 114907936.512 8  89538630.75947  21866253.980    21866248.560          49.600
        42.450
 117402677.871 7  91482588.58146  22340985.940    22340981.440          47.000
        39.400
 120820517.303 7  94145857.72146  22991379.720    22991378.200          45.000
        41.450
 106037783.899 8  82626820.92247  20178319.020    20178313.060          49.400
        47.000
 113031105.413 8  88076175.27547  21509105.560    21509103.320          48.850
        44.550
 125142244.999 6  97332878.233 6  23377622.660    23377626.740          41.300
        37.350
 121318972.445 6                  22735123.900                          40.000

 116642420.028 7  90721886.052 7  21797424.640    21797426.400          44.600
        42.700
 107845035.659 7                  20188817.840                          46.800

 122994173.624 7  95662160.819 6  23073394.260    23073400.700          44.650
        37.550
 105100200.390 8  81744608.491 7  19668070.000    19668072.060          49.400
        45.550
 110691873.574 8  86093687.183 7  20736318.160    20736320.880          48.000
        45.450
 19  2 28 13  6 27.0000000  0 14G29G12G31G20G26G21G25R07R06R21R12R10
                                R11R22
 115554210.385 8  90042214.77347  21989234.580    21989230.300          48.950
        42.100
 126397533.146 7  98491574.96646  24052651.720    24052649.680          43.750
        37.250
 114908671.901 8  89539203.78647  21866393.920    21866388.500          49.650
        42.750
 117399581.068 7  91480175.48846  22340396.660    22340392.120          47.050
        38.900
 120817359.297 7  94143396.93946  22990778.740    22990777.260          45.050
        40.850
 106036993.996 8  82626205.41447  20178168.700    20178162.740          49.450
        47.250
 113033033.352 8  88077677.56347  21509472.440    21509470.200          48.850
        44.300
 125139014.569 6  97330365.682 5  23377019.200    23377023.300          40.400
        35.650
 121317543.784 6                  22734856.200                          40.200

 116644631.867 7  90723606.370 7  21797838.000    21797839.740          44.600
        42.450
 107843335.294 7                  20188499.540                          46.800

 122998529.579 7  95665548.779 6  23074211.420    23074217.860          45.300
        36.900
 105102138.393 8  81746115.827 7  19668432.660    19668434.740          49.450
        45.600
 110691941.720 8  86093740.186 7  20736330.920    20736333.640          48.000
        45.350
 19  2 28 13  6 28.0000000  0 14G29G12G31G20G26G21G25R07R06R21R12R10
                                R11R22
 115555303.732 8  90043066.72847  21989442.640    21989438.360          49.050
        42.250
 126400596.482 6  98493961.98145  24053234.660    24053232.580          41.500
        35.250
 114909408.024 8  89539777.38647  21866534.020    21866528.580          49.700
        42.450
 117396484.591 7  91477762.63446  22339807.420    22339802.860          46.900
        39.650
 120814201.573 7  94140936.37046  22990177.840    22990176.360          45.100
        41.050
 106036204.766 8  82625590.42747  20178018.500    20178012.560          49.450
        47.300
 113034961.910 8  88079180.33647  21509839.420    21509837.200          48.900
        44.050
 125135784.366 6  97327853.319 5  23376415.760    23376419.880          37.600
        32.050
 121316115.813 6                  22734588.620                          39.350

 116646843.792 7  90725326.749 7  21798251.360    21798253.100          44.550
        42.700
 107841635.887 7                  20188181.420                          46.700

 123002885.826 7  95668936.968 6  23075028.660    23075035.080          45.900
        37.250
 105104077.359 8  81747623.909 7  19668795.520    19668797.600          49.450
        45.600
 110692010.242 7  86093793.479 7  20736343.760    20736346.480          47.950
        45.500
 19  2 28 13  6 29.0000000  0 14G29G12G31G20G26G21G25R07R06R21R12R10
                                R11R22
 115556397.423 8  90043918.95747  21989650.760    21989646.480          48.950
        42.300
 126403660.473 6  98496349.53146  24053817.720    24053815.580          39.400
        37.100
 114910145.030 8  89540351.67647  21866674.260    21866668.820          49.700
        42.600
 117393388.611 7  91475350.18046  22339218.280    22339213.680          46.950
        39.750
 120811044.316 7  94138476.17046  22989577.020    22989575.560          44.950
        41.300
 106035416.363 8  82624976.08747  20177868.480    20177862.540          49.400
        47.250
 113036891.252 8  88080683.71947  21510206.560    21510204.340          48.800
        44.150
 125132554.474 6  97325341.212 5  23375812.420    23375816.520          36.600
        33.500
 121314688.756 6                  22734321.180                          40.100

 116649055.987 7  90727047.347 7  21798664.780    21798666.520          44.650
        42.850
 107839937.602 7                  20187863.480                          46.750

 123007242.519 7  95672325.498 6  23075845.980    23075852.400          45.300
        37.300
 105106017.436 8  81749132.856 7  19669158.580    19669160.660          49.400
        45.500
 110692079.308 7  86093847.199 7  20736356.700    20736359.420          47.900
        45.350
 19  2 28 13  6 30.0000000  0 14G29G12G31G20G26G21G25R07R06R21R12R10
                                R11R22
 115557491.327 8  90044771.34746  21989858.940    21989854.660          48.850
        41.950
 126406724.721 6  98498737.24245  24054400.840    24054398.800          40.300
        31.650
 114910882.784 8  89540926.55046  21866814.660    21866809.240          49.650
        41.750
 117390292.980 7  91472938.00646  22338629.200    22338624.600          47.150
        39.700
 120807887.348 7  94136016.19746  22988976.240    22988974.820          44.750
        40.950
 106034628.660 8  82624362.29447  20177718.580    20177712.640          49.350
        47.250
 113038821.253 8  88082187.62047  21510573.840    21510571.620          48.850
        44.450
 125129324.654 5  97322829.159 5  23375209.120    23375213.160          35.800
        31.500
 121313262.424 6                  22734053.860                          39.900

 116651268.270 7  90728768.012 7  21799078.180    21799079.940          44.550
        42.750
 107838240.311 7                  20187545.760                          46.700

 123011599.497 7  95675714.253 6  23076663.340    23076669.760          45.600
        37.400
 105107958.467 8  81750642.545 7  19669521.820    19669523.900          49.450
        45.650
 110692148.759 8  86093901.214 7  20736369.720    20736372.440          48.000
        45.300
 19  2 28 13  6 31.0000000  0 14G29G12G31G20G26G21G25R07R06R21R12R10
                                R11R22
 115558585.165 8  90045623.68746  21990067.100    21990062.820          48.900
        41.900
 126409789.218 6  98501125.16745  24054984.000    24054981.940          40.400
        34.750
 114911621.027 8  89541501.80247  21866955.160    21866949.720          49.550
        42.800
 117387197.441 7  91470525.90646  22338040.120    22338035.540          46.900
        40.250
 120804730.425 7  94133556.26346  22988375.500    22988374.080          44.850
        41.350
 106033841.385 8  82623748.83547  20177568.760    20177562.840          49.350
        47.250
 113040751.635 8  88083691.81447  21510941.200    21510938.960          48.800
        44.200
 125126094.770 5  97320317.039 5  23374605.780    23374609.780          35.150
        31.900
 121311836.551 6                  22733786.700                          39.700

 116653480.358 7  90730488.525 7  21799491.580    21799493.340          44.550
        42.750
 107836543.735 7                  20187228.180                          46.750

 123015956.494 7  95679103.018 6  23077480.700    23077487.100          45.900
        37.000
 105109900.148 8  81752152.743 7  19669885.180    19669887.240          49.450
        45.400
 110692218.325 8  86093955.321 7  20736382.740    20736385.460          48.000
        45.350
 19  2 28 13  6 32.0000000  0 14G29G12G31G20G26G21G25R07R06R21R12R10
                                R11R22
 115559678.988 8  90046476.01847  21990275.240    21990270.960          48.850
        42.400
 126412853.902 6  98503513.23245  24055567.180    24055565.140          41.700
        34.050
 114912359.804 8  89542077.47247  21867095.740    21867090.300          49.550
        42.750
 117384102.057 7  91468113.92046  22337451.100    22337446.500          47.000
        39.750
 120801573.599 7  94131096.39946  22987774.760    22987773.340          44.850
        41.700
 106033054.603 8  82623135.75747  20177419.040    20177413.120          49.350
        46.950
 113042682.472 8  88085196.36447  21511308.620    21511306.380          48.800
        44.850
 125122864.870 6  97317804.907 5  23374002.380    23374006.400          36.650
        31.300
 121310411.214 6                  22733519.580                          39.250

 116655692.352 7  90732208.961 7  21799904.940    21799906.700          44.450
        43.000
 107834847.931 7                  20186910.700                          46.700

 123020313.587 7  95682491.859 6  23078298.080    23078304.480          45.800
        37.550
 105111842.558 8  81753663.502 7  19670248.660    19670250.740          49.450
        45.450
 110692288.051 8  86094009.554 7  20736395.800    20736398.540          48.050
        45.400
 19  2 28 13  6 33.0000000  0 14G29G12G31G20G26G21G25R07R06R21R12R10
                                R11R22
 115560772.837 8  90047328.36847  21990483.400    21990479.120          48.800
        42.400
 126415918.839 6  98505901.48245  24056150.420    24056148.360          41.350
        33.900
 114913099.135 8  89542653.57647  21867236.440    21867231.000          49.400
        42.250
 117381006.849 7  91465702.06846  22336862.100    22336857.500          46.900
        40.400
 120798416.886 7  94128636.62146  22987174.060    22987172.640          44.850
        41.400
 106032268.319 8  82622523.06847  20177269.400    20177263.480          49.350
        46.950
 113044613.758 8  88086701.26247  21511676.120    21511673.900          48.800
        44.650
 125119634.978 6  97315292.773 5  23373399.020    23373403.060          38.900
        33.350
 121308986.405 6                  22733252.540                          39.550

 116657904.280 7  90733929.347 7  21800318.320    21800320.080          44.150
        42.750
 107833152.910 7                  20186593.400                          46.600

 123024670.746 7  95685880.753 6  23079115.480    23079121.880          45.350
        37.400
 105113785.726 8  81755174.855 7  19670612.300    19670614.380          49.450
        45.400
 110692357.945 8  86094063.914 7  20736408.880    20736411.620          48.000
        45.450
 19  2 28 13  6 34.0000000  0 14G29G12G31G20G26G21G25R07R06R21R12R10
                                R11R22
 115561866.680 8  90048180.71547  21990691.540    21990687.280          48.900
        42.600
 126418983.983 6  98508289.88545  24056733.700    24056731.580          39.450
        35.200
 114913839.012 8  89543230.10246  21867377.240    21867371.800          49.650
        41.800
 117377911.762 7  91463290.31646  22336273.120    22336268.540          46.650
        39.100
 120795260.268 7  94126176.92046  22986573.380    22986571.960          44.900
        40.900
 106031482.520 8  82621910.75747  20177119.880    20177113.960          49.350
        47.100
 113046545.490 8  88088206.51047  21512043.740    21512041.500          48.800
        44.350
 125116405.120 6  97312780.632 5  23372795.620    23372799.700          36.700
        35.850
 121307562.122 6                  22732985.620                          39.400

 116660116.121 7  90735649.666 7  21800731.640    21800733.420          44.350
        42.700
 107831458.645 7                  20186276.240                          46.650

 123029028.004 7  95689269.737 6  23079932.920    23079939.300          45.000
        37.350
 105115729.651 8  81756686.799 7  19670976.080    19670978.160          49.400
        45.450
 110692427.999 7  86094118.403 7  20736422.000    20736424.760          47.900
        45.200
 19  2 28 13  6 35.0000000  0 14G29G12G31G20G26G21G25R07R06R21R12R10
                                R11R22
 115562960.358 8  90049032.93047  21990899.660    21990895.400          48.850
        42.750
 126422049.158 6  98510678.35845  24057317.000    24057314.860          38.950
        35.450
 114914579.258 8  89543806.91947  21867518.100    21867512.660          49.450
        42.600
 117374816.677 7  91460878.56846  22335684.140    22335679.560          46.900
        39.750
 120792103.597 7  94123717.18346  22985972.680    22985971.260          44.800
        41.900
 106030697.039 8  82621298.69447  20176970.400    20176964.480          49.300
        46.950
 113048477.499 8  88089711.97547  21512411.400    21512409.140          48.800
        44.900
 125113174.923 5  97310268.230 5  23372192.200    23372196.280          35.750
        35.950
 121306138.229 6                  22732718.780                          39.650

 116662327.672 7  90737369.761 7  21801144.920    21801146.700          44.350
        42.650
 107829764.992 7                  20185959.160                          46.750

 123033385.153 7  95692658.649 6  23080750.280    23080756.700          44.450
        36.550
 105117674.134 8  81758199.175 7  19671339.980    19671342.040          49.400
        45.550
 110692498.072 7  86094172.904 7  20736435.140    20736437.880          47.950
        45.300
 19  2 28 13  6 36.0000000  0 14G29G12G31G20G26G21G25R07R06R21R12R10
                                R11R22
 115564054.152 8  90049885.23347  21991107.820    21991103.540          48.850
        42.550
 126425114.675 6  98513067.09545  24057900.340    24057898.280          38.750
        34.250
 114915320.165 8  89544384.24947  21867659.100    21867653.660          49.550
        42.900
 117371721.850 7  91458467.01846  22335095.220    22335090.620          46.800
        39.900
 120788947.128 7  94121257.59946  22985372.020    22985370.620          45.000
        41.250
 106029912.160 8  82620687.10247  20176821.040    20176815.120          49.350
        47.050
 113050410.062 8  88091217.86947  21512779.160    21512776.900          48.800
        44.850
 125109944.838 6  97307755.923 6  23371588.780    23371592.880          37.250
        36.250
 121304714.965 6                  22732452.080                          39.650

 116664539.232 7  90739089.861 7  21801558.220    21801560.000          44.250
        42.600
 107828072.235 7                  20185642.280                          46.600

 123037742.528 7  95696047.738 5  23081567.700    23081574.140          44.950
        35.400
 105119619.475 8  81759712.217 7  19671704.020    19671706.080          49.400
        45.500
 110692568.436 8  86094227.633 7  20736448.340    20736451.060          48.100
        45.550
 19  2 28 13  6 37.0000000  0 14G29G12G31G20G26G21G25R07R06R21R12R10
                                R11R22
 115565148.198 8  90050737.73646  21991316.000    21991311.740          48.900
        41.900
 126428180.726 6  98515456.24445  24058483.800    24058481.720          38.100
        34.150
 114916061.871 8  89544962.20247  21867800.240    21867794.820          49.650
        42.400
 117368627.438 7  91456055.78646  22334506.360    22334501.760          47.000
        40.700
 120785791.022 7  94118798.29546  22984771.400    22984770.040          44.800
        41.300
 106029128.030 8  82620076.09047  20176671.820    20176665.920          49.350
        47.150
 113052343.339 8  88092724.31747  21513147.060    21513144.800          48.900
        44.600
 125106714.997 6  97305243.801 6  23370985.440    23370989.540          36.900
        37.100
 121303292.505 6                  22732185.500                          39.200

 116666750.954 7  90740810.087 7  21801971.540    21801973.300          44.350
        42.650
 107826380.518 7                  20185325.600                          46.650

 123042100.252 7  95699437.079 5  23082385.200    23082391.640          44.550
        35.950
 105121565.852 8  81761226.066 7  19672068.280    19672070.320          49.400
        45.700
 110692639.242 8  86094282.703 7  20736461.600    20736464.320          48.050
        45.400
 19  2 28 13  6 38.0000000  0 14G29G12G31G20G26G21G25R07R06R21R12R10
                                R11R22
 115566242.525 8  90051590.45647  21991524.260    21991519.980          48.900
        42.000
 126431247.317 6  98517845.80645  24059067.340    24059065.260          37.950
        35.350
 114916804.402 8  89545540.79247  21867941.540    21867936.120          49.650
        42.300
 117365533.449 7  91453644.88446  22333917.600    22333913.000          46.750
        39.700
 120782635.289 7  94116339.27746  22984170.880    22984169.520          44.700
        41.250
 106028344.670 8  82619465.67947  20176522.740    20176516.840          49.400
        46.900
 113054277.340 8  88094231.32647  21513515.080    21513512.820          48.900
        44.300
 125103485.401 6  97302731.883 6  23370382.100    23370386.220          37.850
        36.850
 121301870.861 6                  22731919.080                          39.050

 116668962.862 7  90742530.450 7  21802384.880    21802386.660          44.400
        42.700
 107824689.851 7                  20185009.100                          46.700

 123046458.358 7  95702826.710 5  23083202.800    23083209.220          44.400
        35.650
 105123513.277 8  81762740.728 7  19672432.700    19672434.760          49.450
        45.550
 110692710.508 8  86094338.132 7  20736474.960    20736477.680          48.050
        45.450
 19  2 28 13  6 39.0000000  0 14G29G12G31G20G26G21G25R07R06R21R12R10
                                R11R22
 115567337.091 8  90052443.36346  21991732.540    21991728.260          48.900
        41.700
 126434314.303 6  98520235.61645  24059651.000    24059648.880          38.500
        32.950
 114917547.706 8  89546119.98547  21868083.000    21868077.560          49.650
        42.000
 117362439.839 7  91451234.27646  22333328.900    22333324.320          46.550
        39.050
 120779479.903 7  94113880.53247  22983570.420    22983569.120          45.100
        42.000
 106027562.025 8  82618855.82547  20176373.820    20176367.920          49.350
        47.050
 113056212.012 8  88095738.86147  21513883.240    21513881.000          48.750
        44.600
 125100256.015 6  97300220.140 6  23369778.800    23369782.920          38.550
        36.950
 121300449.987 6                  22731652.820                          39.300

 116671174.894 7  90744250.913 7  21802798.260    21802800.040          44.600
        42.450
 107823000.188 7                  20184692.800                          46.700

 123050816.775 7  95706216.590 5  23084020.420    23084026.860          44.350
        35.550
 105125461.653 8  81764256.132 7  19672797.320    19672799.380          49.400
        45.450
 110692782.185 8  86094393.879 7  20736488.380    20736491.100          48.050
        45.250
 19  2 28 13  6 40.0000000  0 14G29G12G31G20G26G21G25R07R06R21R12R10
                                R11R22
 115568431.646 8  90053296.26546  21991940.840    21991936.560          49.000
        41.900
 126437381.439 6  98522625.56145  24060234.640    24060232.560          38.950
        34.800
 114918291.554 8  89546699.60547  21868224.540    21868219.100          49.700
        42.400
 117359346.391 7  91448823.79546  22332740.240    22332735.640          46.800
        38.850
 120776324.604 7  94111421.86046  22982969.980    22982968.680          45.050
        41.500
 106026779.876 8  82618246.36147  20176224.960    20176219.080          49.400
        46.850
 113058147.140 8  88097246.75047  21514251.480    21514249.240          48.850
        44.000
 125097026.639 6  97297708.404 6  23369175.520    23369179.620          38.850
        37.500
 121299029.592 6                  22731386.600                          39.200

 116673386.830 7  90745971.305 7  21803211.620    21803213.400          44.750
        42.450
 107821311.299 7                  20184376.640                          46.750

 123055175.272 7  95709606.535 5  23084838.060    23084844.500          45.050
        35.600
 105127410.748 8  81765772.094 7  19673162.080    19673164.120          49.450
        45.450
 110692854.028 8  86094449.754 7  20736501.860    20736504.580          48.050
        45.600
 19  2 28 13  6 41.0000000  0 14G29G12G31G20G26G21G25R07R06R21R12R10
                                R11R22
 115569526.294 8  90054149.23946  21992149.140    21992144.860          49.000
        41.850
 126440448.908 6  98525015.76045  24060818.380    24060816.220          39.550
        34.750
 114919036.016 8  89547279.71047  21868366.220    21868360.780          49.700
        42.100
 117356253.180 7  91446413.49946  22332151.620    22332147.020          46.550
        38.550
 120773169.504 7  94108963.34446  22982369.580    22982368.280          45.050
        41.050
 106025998.294 8  82617637.33847  20176076.240    20176070.360          49.400
        46.850
 113060082.780 8  88098755.04147  21514619.820    21514617.580          48.850
        44.650
 125093797.240 6  97295196.650 6  23368572.220    23368576.320          38.500
        38.250
 121297609.810 6                  22731120.560                          39.050

 116675598.754 7  90747691.693 7  21803624.980    21803626.760          44.650
        42.600
 107819623.268 7                  20184060.620                          46.600

 123059533.967 7  95712996.633 6  23085655.720    23085662.180          44.700
        36.250
 105129360.671 8  81767288.701 7  19673526.980    19673529.020          49.400
        45.650
 110692926.113 8  86094505.821 7  20736515.360    20736518.080          48.100
        45.450
 19  2 28 13  6 42.0000000  0 14G29G12G31G20G26G21G25R07R06R21R12R10
                                R11R22
 115570620.962 8  90055002.22646  21992357.460    21992353.160          49.100
        41.750
 126443516.640 6  98527406.19345  24061402.180    24061400.020          38.400
        35.550
 114919781.070 8  89547860.26947  21868508.000    21868502.560          49.750
        42.650
 117353160.148 7  91444003.34046  22331563.020    22331558.440          46.550
        38.800
 120770014.549 7  94106504.94046  22981769.200    22981767.900          45.300
        41.550
 106025217.236 8  82617028.72147  20175927.600    20175921.720          49.550
        47.050
 113062018.921 8  88100263.72147  21514988.260    21514986.020          48.850
        44.100
 125090567.910 6  97292684.960 6  23367968.920    23367973.080          38.800
        37.650
 121296190.589 6                  22730854.600                          39.550

 116677810.625 7  90749412.035 7  21804038.320    21804040.120          44.650
        42.700
 107817936.035 7                  20183744.760                          46.750

 123063892.789 7  95716386.830 6  23086473.420    23086479.880          44.700
        36.250
 105131311.403 8  81768805.935 7  19673892.040    19673894.080          49.400
        45.450
 110692998.412 8  86094562.053 7  20736528.900    20736531.640          48.050
        45.550
 19  2 28 13  6 43.0000000  0 14G29G12G31G20G26G21G25R07R06R21R12R10
                                R11R22
 115571715.507 8  90055855.11447  21992565.740    21992561.440          49.100
        42.000
 126446584.472 6  98529796.71346  24061985.960    24061983.900          39.800
        37.200
 114920526.534 8  89548441.14847  21868649.860    21868644.440          49.750
        42.200
 117350067.149 7  91441593.21146  22330974.440    22330969.860          46.600
        39.000
 120766859.557 7  94104046.50346  22981168.820    22981167.520          45.200
        41.550
 106024436.545 8  82616420.39347  20175779.040    20175773.160          49.550
        46.800
 113063955.378 8  88101772.65047  21515356.760    21515354.520          48.900
        44.250
 125087338.363 6  97290173.092 6  23367365.580    23367369.760          38.750
        38.250
 121294771.802 6                  22730588.680                          39.050

 116680022.280 7  90751132.211 7  21804451.620    21804453.420          44.650
        42.800
 107816249.481 7                  20183429.040                          46.650

 123068251.569 7  95719776.988 5  23087291.120    23087297.600          44.800
        35.850
 105133262.780 8  81770323.677 7  19674257.200    19674259.240          49.400
        45.550
 110693070.774 8  86094618.335 7  20736542.460    20736545.200          48.050
        45.550
 19  2 28 13  6 44.0000000  0 14G29G12G31G20G26G21G25R07R06R21R12R10
                                R11R22
 115572809.974 8  90056707.93746  21992774.020    21992769.720          49.050
        41.750
 126449652.427 6  98532187.33845  24062569.800    24062567.640          41.150
        35.500
 114921272.446 8  89549022.37647  21868791.800    21868786.380          49.650
        42.600
 117346974.230 7  91439183.14846  22330385.880    22330381.280          46.700
        39.050
 120763704.581 7  94101588.07546  22980568.460    22980567.160          45.250
        41.550
 106023656.259 8  82615812.37647  20175630.560    20175624.680          49.450
        47.000
 113065892.192 8  88103281.85047  21515725.320    21515723.080          48.850
        44.650
 125084108.714 6  97287661.139 6  23366762.300    23366766.460          39.300
        38.950
 121293353.437 6                  22730322.920                          38.800

 116682233.726 7  90752852.222 7  21804864.900    21804866.700          44.600
        42.550
 107814563.597 7                  20183113.440                          46.550

 123072610.330 7  95723167.129 5  23088108.800    23088115.280          45.200
        35.900
 105135214.781 8  81771841.896 7  19674622.500    19674624.540          49.400
        45.700
 110693143.212 8  86094674.673 7  20736556.040    20736558.760          48.000
        45.550
 19  2 28 13  6 45.0000000  0 14G29G12G31G20G26G21G25R07R06R21R12R10
                                R11R22
 115573904.600 8  90057560.88647  21992982.320    21992978.020          49.000
        42.400
 126452720.730 6  98534578.21945  24063153.680    24063151.520          39.950
        35.700
 114922019.053 8  89549604.14447  21868933.880    21868928.440          49.650
        42.450
 117343881.607 7  91436773.31546  22329797.360    22329792.760          46.650
        38.900
 120760549.881 7  94099129.86146  22979968.140    22979966.840          45.200
        41.600
 106022876.616 8  82615204.86247  20175482.200    20175476.320          49.350
        47.250
 113067829.624 8  88104791.53347  21516094.000    21516091.780          48.800
        44.700
 125080879.205 6  97285149.302 6  23366158.960    23366163.160          39.350
        38.650
 121291935.723 6                  22730057.240                          38.800

 116684445.246 7  90754572.292 7  21805278.180    21805279.980          44.550
        42.850
 107812878.656 7                  20182798.020                          46.650

 123076969.358 7  95726557.478 5  23088926.540    23088933.040          44.950
        35.650
 105137167.662 8  81773360.803 7  19674987.960    19674990.000          49.350
        45.650
 110693215.983 8  86094731.271 7  20736569.660    20736572.400          48.000
        45.600
 19  2 28 13  6 46.0000000  0 14G29G12G31G20G26G21G25R07R06R21R12R10
                                R11R22
 115574999.185 8  90058413.80947  21993190.620    21993186.320          48.950
        42.550
 126455789.232 6  98536969.25146  24063737.600    24063735.440          40.350
        37.050
 114922766.159 8  89550186.31047  21869076.060    21869070.620          49.600
        42.950
 117340789.127 7  91434363.59646  22329208.880    22329204.300          46.400
        39.600
 120757395.233 7  94096671.69447  22979367.820    22979366.540          45.100
        42.200
 106022097.439 8  82614597.71547  20175333.920    20175328.040          49.550
        47.000
 113069767.442 8  88106301.52347  21516462.760    21516460.540          48.800
        44.350
 125077649.620 6  97282637.409 6  23365555.640    23365559.860          38.500
        39.000
 121290518.532 6                  22729791.620                          38.900

 116686656.601 7  90756292.232 7  21805691.440    21805693.240          44.700
        42.900
 107811194.438 7                  20182482.740                          46.800

 123081328.455 7  95729947.880 6  23089744.280    23089750.800          44.400
        36.250
 105139121.253 8  81774880.261 7  19675353.540    19675355.600          49.450
        45.650
 110693288.899 8  86094787.983 7  20736583.320    20736586.060          48.000
        45.600
 19  2 28 13  6 47.0000000  0 14G29G12G31G20G26G21G25R07R06R21R12R10
                                R11R22
 115576093.643 8  90059266.63047  21993398.900    21993394.580          49.000
        42.250
 126458857.862 6  98539360.40246  24064321.540    24064319.300          40.300
        36.800
 114923513.688 8  89550768.80047  21869218.300    21869212.880          49.650
        42.150
 117337696.662 7  91431953.88546  22328620.400    22328615.820          46.550
        40.350
 120754240.572 7  94094213.52146  22978767.500    22978766.240          45.100
        41.550
 106021318.622 8  82613990.84247  20175185.720    20175179.840          49.450
        47.050
 113071705.602 8  88107811.77347  21516831.580    21516829.360          48.850
        44.750
 125074419.907 6  97280125.413 6  23364952.300    23364956.520          38.050
        38.100
 121289101.695 6                  22729526.100                          39.050

 116688867.718 7  90758011.985 7  21806104.660    21806106.440          44.550
        42.800
 107809510.881 7                  20182167.560                          46.650

 123085687.475 7  95733338.221 6  23090562.020    23090568.520          44.650
        37.050
 105141075.494 8  81776400.224 7  19675719.240    19675721.300          49.350
        45.700
 110693361.854 8  86094844.724 7  20736596.980    20736599.740          48.000
        45.750
 19  2 28 13  6 48.0000000  0 14G29G12G31G20G26G21G25R07R06R21R12R10
                                R11R22
 115577188.183 8  90060119.51647  21993607.180    21993602.860          49.050
        42.050
 126461926.727 6  98541751.73545  24064905.540    24064903.320          41.300
        35.800
 114924261.842 8  89551351.77347  21869360.680    21869355.240          49.700
        42.600
 117334604.415 7  91429544.34646  22328031.960    22328027.380          46.600
        39.400
 120751086.080 7  94091755.47547  22978167.220    22978165.960          45.250
        42.000
 106020540.370 8  82613384.41047  20175037.620    20175031.740          49.450
        47.150
 113073644.273 8  88109322.42747  21517200.500    21517198.280          48.900
        44.500
 125071190.136 6  97277613.372 6  23364348.940    23364353.180          39.900
        39.750
 121287685.486 6                  22729260.700                          39.200

 116691078.824 7  90759731.732 7  21806517.860    21806519.660          44.650
        43.100
 107807828.165 7                  20181852.560                          46.650

 123090046.652 7  95736728.681 6  23091379.780    23091386.300          44.350
        36.200
 105143030.526 8  81777920.804 7  19676085.100    19676087.160          49.400
        45.900
 110693435.076 8  86094901.675 7  20736610.700    20736613.460          48.050
        45.750
 19  2 28 13  6 49.0000000  0 14G29G12G31G20G26G21G25R07R06R21R12R10
                                R11R22
 115578282.696 8  90060972.38447  21993815.460    21993811.140          49.000
        42.350
 126464995.846 6  98544143.26346  24065489.600    24065487.420          41.850
        36.000
 114925010.506 8  89551935.14647  21869503.140    21869497.720          49.600
        42.550
 117331512.315 7  91427134.92246  22327443.560    22327438.980          46.550
        39.950
 120747931.668 7  94089297.49246  22977566.960    22977565.680          45.300
        41.150
 106019762.585 8  82612778.34447  20174889.600    20174883.720          49.450
        47.150
 113075583.376 8  88110833.41647  21517569.500    21517567.280          48.850
        44.700
 125067960.391 6  97275101.357 6  23363745.600    23363749.820          38.900
        38.500
 121286269.768 6                  22728995.380                          39.000

 116693289.812 7  90761451.390 7  21806931.060    21806932.840          44.400
        43.150
 107806146.215 7                  20181537.700                          46.600

 123094405.885 7  95740119.188 6  23092197.560    23092204.080          44.550
        36.800
 105144986.255 8  81779441.929 7  19676451.100    19676453.160          49.450
        45.800
 110693508.456 8  86094958.748 7  20736624.440    20736627.220          48.000
        45.700
 19  2 28 13  6 50.0000000  0 14G29G12G31G20G26G21G25R07R06R21R12R10
                                R11R22
 115579377.226 8  90061825.26647  21994023.740    21994019.440          49.050
        42.350
 126468065.178 6  98546534.95546  24066073.680    24066071.520          40.650
        37.100
 114925759.742 8  89552518.96846  21869645.720    21869640.300          49.600
        41.950
 117328420.379 7  91424725.62246  22326855.180    22326850.600          46.450
        38.650
 120744777.394 7  94086839.61646  22976966.720    22976965.460          45.250
        41.800
 106018985.300 8  82612172.67147  20174741.700    20174735.820          49.350
        46.950
 113077522.947 8  88112344.77047  21517938.580    21517936.360          48.800
        44.550
 125064730.621 6  97272589.320 6  23363142.260    23363146.480          39.050
        38.900
 121284854.594 6                  22728730.200                          39.600

 116695500.712 7  90763170.981 7  21807344.220    21807346.020          44.500
        42.950
 107804465.072 7                  20181222.980                          46.450

 123098765.221 7  95743509.787 6  23093015.360    23093021.900          45.050
        36.600
 105146942.764 8  81780963.658 7  19676817.240    19676819.280          49.400
        45.750
 110693582.023 8  86095015.968 7  20736638.220    20736641.000          48.000
        45.650
 19  2 28 13  6 51.0000000  0 14G29G12G31G20G26G21G25R07R06R21R12R10
                                R11R22
 115580471.684 8  90062678.09046  21994232.020    21994227.700          49.000
        41.700
 126471134.642 6  98548926.74445  24066657.780    24066655.600          41.050
        35.500
 114926509.439 8  89553103.14646  21869788.380    21869782.960          49.600
        41.950
 117325328.531 7  91422316.38846  22326266.820    22326262.220          46.550
        38.900
 120741623.130 7  94084381.75246  22976366.480    22976365.240          45.400
        41.650
 106018208.429 8  82611567.31847  20174593.860    20174587.980          49.400
        47.150
 113079462.877 8  88113856.40647  21518307.740    21518305.520          48.750
        44.600
 125061500.826 6  97270077.271 6  23362538.940    23362543.120          39.400
        39.000
 121283439.887 6                  22728465.060                          38.950

 116697711.422 7  90764890.422 7  21807757.340    21807759.160          44.600
        43.050
 107802784.631 7                  20180908.400                          46.550

 123103124.556 7  95746900.384 6  23093833.140    23093839.700          44.700
        36.100
 105148899.935 8  81782485.905 7  19677183.500    19677185.540          49.400
        45.650
 110693655.680 7  86095073.257 7  20736652.020    20736654.800          47.950
        45.600
 19  2 28 13  6 52.0000000  0 14G29G12G31G20G26G21G25R07R06R21R12R10
                                R11R22
 115581566.655 8  90063531.31447  21994440.400    21994436.060          49.050
        42.250
 126474204.852 6  98551319.10346  24067242.040    24067239.840          40.550
        36.900
 114927260.189 8  89553688.14646  21869931.240    21869925.820          49.600
        41.950
 117322237.341 7  91419907.67546  22325678.580    22325673.980          46.450
        38.300
 120738469.486 7  94081924.37346  22975766.360    22975765.120          45.400
        40.450
 106017432.571 8  82610962.75547  20174446.220    20174440.340          49.450
        47.100
 113081403.770 8  88115368.78747  21518677.080    21518674.860          48.800
        44.600
 125058271.439 6  97267565.526 6  23361935.680    23361939.840          37.900
        39.300
 121282026.252 6                  22728200.160                          39.550

 116699922.565 7  90766610.200 7  21808170.560    21808172.360          44.650
        43.100
 107801105.502 7                  20180594.060                          46.700

 123107484.500 7  95750291.457 6  23094651.060    23094657.640          45.250
        36.350
 105150858.365 8  81784009.130 7  19677549.980    19677552.040          49.450
        45.700
 110693730.026 7  86095131.082 7  20736665.960    20736668.720          47.950
        45.600
 19  2 28 13  6 53.0000000  0 14G29G12G31G20G26G21G25R07R06R21R12R10
                                R11R22
 115582661.946 8  90064384.78646  21994648.820    21994644.480          49.100
        41.700
 126477275.627 6  98553711.91745  24067826.420    24067824.160          41.250
        35.750
 114928011.798 8  89554273.81147  21870074.260    21870068.860          49.750
        42.200
 117319146.623 7  91417499.32546  22325090.420    22325085.840          46.650
        37.850
 120735316.265 7  94079467.31846  22975166.320    22975165.100          45.700
        40.900
 106016657.500 8  82610358.80447  20174298.740    20174292.860          49.550
        46.850
 113083345.418 8  88116881.75847  21519046.580    21519044.360          48.850
        43.800
 125055042.337 6  97265054.002 6  23361332.460    23361336.620          38.700
        39.800
 121280613.461 6                  22727935.440                          38.850

 116702133.920 7  90768330.139 7  21808583.800    21808585.640          44.600
        42.900
 107799427.476 7                  20180279.920                          46.850

 123111844.831 7  95753682.827 5  23095469.060    23095475.620          45.300
        35.850
 105152817.843 8  81785533.166 7  19677916.680    19677918.740          49.450
        45.900
 110693804.855 8  86095189.280 7  20736679.980    20736682.740          48.150
        45.400
 19  2 28 13  6 54.0000000  0 14G29G12G31G20G26G21G25R07R06R21R12R10
                                R11R22
 115583756.990 8  90065238.06546  21994857.200    21994852.860          49.050
        41.800
 126480346.336 7  98556104.67346  24068410.780    24068408.500          42.300
        36.100
 114928763.715 8  89554859.72047  21870217.360    21870211.940          49.750
        42.250
 117316055.808 7  91415090.88846  22324502.260    22324497.680          46.650
        38.200
 120732162.897 7  94077010.14446  22974566.260    22974565.040          45.700
        41.300
 106015882.687 8  82609755.05547  20174151.280    20174145.420          49.450
        46.950
 113085287.280 8  88118394.89547  21519416.100    21519413.880          48.800
        44.250
 125051812.924 6  97262542.238 6  23360729.160    23360733.360          38.950
        39.550
 121279200.942 6                  22727670.700                          38.750

 116704344.911 7  90770049.794 7  21808996.980    21808998.820          44.700
        43.150
 107797749.966 7                  20179965.880                          46.800

 123116205.021 7  95757074.086 6  23096287.020    23096293.580          44.800
        36.250
 105154777.825 8  81787057.597 7  19678283.440    19678285.540          49.450
        45.800
 110693879.633 8  86095247.443 7  20736694.000    20736696.740          48.250
        45.600
 19  2 28 13  6 55.0000000  0 14G29G12G31G20G26G21G25R07R06R21R12R10
                                R11R22
 115584852.040 8  90066091.34646  21995065.600    21995061.240          49.000
        41.200
 126483417.284 6  98558497.62845  24068995.140    24068992.840          41.350
        34.200
 114929516.173 8  89555446.05147  21870360.540    21870355.120          49.700
        42.150
 117312965.133 7  91412682.56946  22323914.120    22323909.540          46.550
        38.800
 120729009.639 7  94074553.05846  22973966.220    22973964.980          45.450
        41.950
 106015108.360 8  82609151.68247  20174003.940    20173998.060          49.450
        47.150
 113087229.591 8  88119908.38647  21519785.700    21519783.500          48.650
        44.200
 125048583.535 6  97260030.502 6  23360125.880    23360130.100          39.600
        39.400
 121277788.945 6                  22727406.080                          39.250

 116706555.830 7  90771769.397 7  21809410.140    21809412.000          44.700
        43.100
 107796073.230 7                  20179652.000                          46.850

 123120565.280 7  95760465.398 5  23097105.000    23097111.540          45.050
        35.950
 105156738.561 8  81788582.614 7  19678650.380    19678652.460          49.550
        45.850
 110693954.577 8  86095305.733 7  20736708.040    20736710.780          48.150
        45.550
 19  2 28 13  6 56.0000000  0 14G29G12G31G20G26G21G25R07R06R21R12R10
                                R11R22
 115585947.066 8  90066944.61347  21995273.960    21995269.620          49.000
        42.100
 126486488.424 6  98560890.72445  24069579.560    24069577.220          41.250
        35.600
 114930269.159 8  89556032.79247  21870503.840    21870498.400          49.650
        42.000
 117309874.625 7  91410274.38446  22323326.000    22323321.440          46.600
        38.400
 120725856.471 7  94072096.04146  22973366.180    22973364.940          45.450
        39.850
 106014334.506 8  82608548.67747  20173856.680    20173850.820          49.400
        47.050
 113089172.325 8  88121422.20147  21520155.400    21520153.180          48.650
        44.250
 125045354.055 6  97257518.686 6  23359522.580    23359526.800          39.000
        39.200
 121276377.485 6                  22727141.600                          39.800

 116708766.628 7  90773488.905 7  21809823.300    21809825.160          44.700
        43.100
 107794397.247 7                  20179338.260                          46.800

 123124925.606 7  95763856.757 6  23097922.980    23097929.520          45.250
        36.350
 105158700.048 8  81790108.213 7  19679017.440    19679019.520          49.450
        45.850
 110694029.678 8  86095364.145 7  20736722.120    20736724.840          48.100
        45.750
 19  2 28 13  6 57.0000000  0 14G29G12G31G20G26G21G25R07R06R21R12R10
                                R11R22
 115587041.973 8  90067797.78247  21995482.320    21995477.960          48.950
        42.000
 126489559.635 6  98563283.86945  24070164.020    24070161.640          41.750
        35.300
 114931022.560 8  89556619.85646  21870647.200    21870641.780          49.600
        41.700
 117306784.139 7  91407866.21346  22322737.900    22322733.340          46.600
        39.050
 120722703.257 7  94069638.99247  22972766.140    22972764.920          45.300
        42.100
 106013561.012 8  82607945.95247  20173709.480    20173703.620          49.350
        46.750
 113091115.377 8  88122936.26147  21520525.140    21520522.940          48.600
        44.950
 125042124.470 6  97255006.795 6  23358919.260    23358923.480          38.400
        38.800
 121274966.449 6                  22726877.160                          38.950

 116710977.188 7  90775208.230 7  21810236.400    21810238.260          44.650
        43.300
 107792721.908 7                  20179024.620                          46.700

 123129285.902 7  95767248.102 6  23098740.960    23098747.500          45.300
        36.350
 105160662.125 8  81791634.269 7  19679384.620    19679386.700          49.450
        45.850
 110694104.828 8  86095422.593 7  20736736.200    20736738.920          48.100
        45.650
 19  2 28 13  6 58.0000000  0 14G29G12G31G20G26G21G25R07R06R21R12R10
                                R11R22
 115588136.792 8  90068650.88746  21995690.660    21995686.300          49.000
        41.900
 126492630.990 6  98565677.12945  24070748.500    24070746.060          40.000
        34.600
 114931776.427 8  89557207.28847  21870790.660    21870785.220          49.600
        42.000
 117303693.705 7  91405458.09346  22322149.820    22322145.260          46.400
        38.800
 120719550.105 7  94067181.99246  22972166.140    22972164.900          45.300
        41.800
 106012787.934 8  82607343.55347  20173562.380    20173556.520          49.350
        47.100
 113093058.808 8  88124450.62347  21520894.960    21520892.760          48.650
        44.400
 125038894.773 6  97252494.824 6  23358315.900    23358320.140          37.900
        37.700
 121273555.865 6                  22726612.800                          39.050

 116713187.582 7  90776927.423 7  21810649.480    21810651.340          44.700
        43.150
 107791047.239 7                  20178711.120                          46.700

 123133646.172 7  95770639.423 5  23099558.940    23099565.480          45.300
        35.500
 105162624.846 8  81793160.827 7  19679751.920    19679754.020          49.350
        45.900
 110694180.076 8  86095481.121 7  20736750.300    20736753.020          48.100
        45.650
 19  2 28 13  6 59.0000000  0 14G29G12G31G20G26G21G25R07R06R21R12R10
                                R11R22
 115589231.684 8  90069504.04846  21995899.020    21995894.640          49.000
        41.900
 126495702.674 6  98568070.66746  24071333.040    24071330.560          39.850
        36.900
 114932530.900 8  89557795.18546  21870934.240    21870928.800          49.550
        41.950
 117300603.505 7  91403050.14546  22321561.780    22321557.220          46.450
        39.250
 120716397.102 7  94064725.10946  22971566.140    22971564.900          45.300
        41.100
 106012015.407 8  82606741.58247  20173415.380    20173409.500          49.350
        47.150
 113095002.735 8  88125965.37547  21521264.880    21521262.700          48.750
        44.450
 125035665.109 6  97249982.877 6  23357712.540    23357716.800          38.350
        37.800
 121272145.851 6                  22726348.580                          38.900

 116715397.926 7  90778646.581 7  21811062.540    21811064.420          44.700
        43.000
 107789373.419 7                  20178397.760                          46.700

 123138006.620 7  95774030.883 5  23100376.940    23100383.480          45.300
        35.750
 105164588.404 8  81794688.037 7  19680119.360    19680121.460          49.400
        45.800
 110694255.537 8  86095539.813 7  20736764.420    20736767.160          48.100
        45.650
 19  2 28 13  7  0.0000000  0 14G29G12G31G20G26G21G25R07R06R21R12R10
                                R11R22
 115590326.825 8  90070357.40046  21996107.420    21996103.040          48.950
        41.900
 126498774.804 6  98570464.52545  24071917.640    24071915.160          40.550
        34.900
 114933286.175 8  89558383.71147  21871077.960    21871072.520          49.550
        42.400
 117297513.723 7  91400642.52446  22320973.800    22320969.260          46.550
        40.150
 120713244.462 7  94062268.50646  22970966.220    22970964.980          45.300
        41.750
 106011243.631 8  82606140.20247  20173268.520    20173262.640          49.400
        47.100
 113096947.368 8  88127480.67647  21521634.940    21521632.760          48.700
        44.600
 125032435.626 6  97247471.061 6  23357109.260    23357113.480          38.100
        37.850
 121270736.629 6                  22726084.420                          38.700

 116717608.408 7  90780365.841 7  21811475.620    21811477.500          44.700
        43.000
 107787700.626 7                  20178084.600                          46.850

 123142367.401 7  95777422.604 6  23101195.020    23101201.560          45.400
        36.050
 105166552.974 8  81796216.036 7  19680487.020    19680489.120          49.450
        45.850
 110694331.426 8  86095598.836 7  20736778.640    20736781.380          48.100
        45.600
 19  2 28 13  7  1.0000000  0 14G29G12G31G20G26G21G25R07R06R21R12R10
                                R11R22
 115591421.951 8  90071210.74546  21996315.820    21996311.440          49.050
        41.800
 126501847.145 6  98572858.56145  24072502.280    24072499.780          39.600
        35.000
 114934041.962 8  89558972.63646  21871221.780    21871216.340          49.550
        41.750
 117294424.064 7  91398235.00046  22320385.860    22320381.320          46.600
        39.050
 120710091.905 7  94059811.97147  22970366.300    22970365.060          45.100
        42.350
 106010472.313 8  82605539.17747  20173121.740    20173115.880          49.400
        47.000
 113098892.428 8  88128996.30947  21522005.060    21522002.880          48.600
        44.950
 125029206.159 6  97244959.260 6  23356505.960    23356510.200          37.950
        37.700
 121269327.939 6                  22725820.440                          38.900

 116719818.741 7  90782084.987 7  21811888.680    21811890.560          44.800
        43.000
 107786028.588 7                  20177771.580                          46.800

 123146728.241 7  95780814.366 6  23102013.100    23102019.640          45.100
        36.000
 105168518.263 8  81797744.594 7  19680854.800    19680856.900          49.400
        45.850
 110694407.472 8  86095657.983 7  20736792.900    20736795.620          48.100
        45.600
 19  2 28 13  7  2.0000000  0 14G29G12G31G20G26G21G25R07R06R21R12R10
                                R11R22
 115592517.098 8  90072064.10647  21996524.220    21996519.840          49.100
        42.200
 126504919.769 6  98575252.79945  24073086.980    24073084.440          39.750
        34.800
 114934798.319 8  89559562.00347  21871365.720    21871360.260          49.550
        42.600
 117291334.600 7  91395827.62546  22319797.960    22319793.400          46.650
        39.300
 120706939.481 7  94057355.53646  22969766.400    22969765.180          45.300
        41.250
 106009701.517 8  82604938.55747  20172975.060    20172969.200          49.450
        47.000
 113100837.955 8  88130512.30447  21522375.280    21522373.120          48.600
        44.750
 125025976.636 6  97242447.405 6  23355902.680    23355906.880          36.300
        36.600
 121267919.752 6                  22725556.500                          39.300

 116722029.044 7  90783804.114 7  21812301.720    21812303.620          44.750
        42.900
 107784357.348 7                  20177458.740                          46.900

 123151089.199 7  95784206.224 6  23102831.200    23102837.760          45.250
        36.000
 105170484.321 8  81799273.750 7  19681222.720    19681224.820          49.400
        45.900
 110694483.732 8  86095717.298 7  20736807.180    20736809.900          48.100
        45.650
 19  2 28 13  7  3.0000000  0 14G29G12G31G20G26G21G25R07R06R21R12R10
                                R11R22
 115593612.165 8  90072917.40447  21996732.620    21996728.220          48.950
        42.350
 126507992.510 6  98577647.13645  24073671.720    24073669.220          38.350
        35.600
 114935555.142 8  89560151.73547  21871509.740    21871504.280          49.600
        42.050
 117288245.196 7  91393420.30446  22319210.060    22319205.520          46.750
        39.550
 120703787.071 7  94054899.11346  22969166.520    22969165.280          45.550
        41.250
 106008931.129 8  82604338.25747  20172828.460    20172822.600          49.450
        47.300
 113102783.855 8  88132028.59247  21522745.580    21522743.400          48.700
        44.450
 125022747.047 6  97239935.508 5  23355299.380    23355303.560          36.050
        35.850
 121266512.041 6                  22725292.700                          38.950

 116724239.179 7  90785523.107 7  21812714.740    21812716.640          44.900
        43.050
 107782686.814 7                  20177146.000                          46.950

 123155450.159 7  95787598.074 5  23103649.300    23103655.880          45.000
        35.950
 105172451.013 8  81800803.399 7  19681590.760    19681592.860          49.400
        45.900
 110694560.085 8  86095776.686 7  20736821.500    20736824.200          48.150
        45.600
 19  2 28 13  7  4.0000000  0 14G29G12G31G20G26G21G25R07R06R21R12R10
                                R11R22
 115594707.281 8  90073770.74146  21996941.020    21996936.620          49.050
        41.600
 126511065.491 6  98580041.66545  24074256.500    24074253.920          39.950
        32.950
 114936312.552 8  89560741.92947  21871653.860    21871648.420          49.650
        42.100
 117285155.987 7  91391013.13046  22318622.200    22318617.680          46.750
        40.200
 120700634.812 7  94052442.80746  22968566.660    22968565.420          45.350
        40.550
 106008161.277 8  82603738.37247  20172681.960    20172676.100          49.450
        46.900
 113104730.247 8  88133545.25947  21523115.980    21523113.800          48.700
        44.500
 125019517.460 6  97237423.611 6  23354696.060    23354700.240          37.200
        36.300
 121265104.863 6                  22725028.980                          39.550

 116726449.225 7  90787242.030 7  21813127.740    21813129.660          45.000
        43.100
 107781017.097 7                  20176833.420                          47.050

 123159811.225 7  95790990.006 5  23104467.420    23104474.000          45.350
        35.700
 105174418.495 8  81802333.661 7  19681958.940    19681961.060          49.450
        45.850
 110694636.659 8  86095836.244 7  20736835.840    20736838.560          48.300
        45.600
 19  2 28 13  7  5.0000000  0 14G29G12G31G20G26G21G25R07R06R21R12R10
                                R11R22
 115595802.583 8  90074624.22047  21997149.460    21997145.040          49.000
        42.250
 126514138.817 6  98582436.45745  24074841.340    24074838.780          40.200
        34.400
 114937070.702 8  89561332.69747  21871798.140    21871792.680          49.500
        42.450
 117282067.143 7  91388606.23646  22318034.420    22318029.880          46.700
        39.450
 120697482.847 7  94049986.73246  22967966.860    22967965.600          45.300
        41.550
 106007392.111 8  82603139.02047  20172535.580    20172529.740          49.400
        46.850
 113106677.269 8  88135062.41747  21523486.480    21523484.300          48.700
        44.450
 125016288.055 6  97234911.856 6  23354092.780    23354096.940          36.700
        36.350
 121263698.419 6                  22724765.400                          38.350

 116728659.358 7  90788961.020 7  21813540.760    21813542.680          44.850
        43.050
 107779348.366 7                  20176521.020                          47.050

 123164172.601 7  95794382.181 5  23105285.620    23105292.180          45.000
        35.650
 105176386.928 8  81803864.665 7  19682327.320    19682329.420          49.500
        45.950
 110694713.594 8  86095896.084 7  20736850.240    20736852.960          48.300
        45.650
 19  2 28 13  7  6.0000000  0 14G29G12G31G20G26G21G25R07R06R21R12R10
                                R11R22
 115596898.234 8  90075477.97147  21997357.960    21997353.560          49.000
        42.250
 126517212.748 6  98584831.73145  24075426.300    24075423.760          40.700
        35.800
 114937829.728 8  89561924.14247  21871942.580    21871937.120          49.550
        42.600
 117278978.795 7  91386199.73446  22317446.740    22317442.180          47.050
        39.450
 120694331.337 7  94047531.01446  22967367.140    22967365.880          45.300
        41.300
 106006623.761 8  82602540.30447  20172389.380    20172383.540          49.450
        47.200
 113108625.077 8  88136580.18747  21523857.140    21523854.960          48.700
        44.350
 125013058.944 5  97232400.327 6  23353489.560    23353493.700          35.900
        37.100
 121262292.826 6                  22724501.980                          38.200

 116730869.746 7  90790680.209 7  21813953.840    21813955.740          44.850
        43.100
 107777680.762 7                  20176208.840                          47.000

 123168534.401 7  95797774.688 5  23106103.880    23106110.440          44.800
        35.250
 105178356.436 8  81805396.504 7  19682695.880    19682698.000          49.550
        45.950
 110694791.044 8  86095956.321 7  20736864.760    20736867.480          48.100
        45.800
 19  2 28 13  7  7.0000000  0 14G29G12G31G20G26G21G25R07R06R21R12R10
                                R11R22
 115597994.030 8  90076331.83347  21997566.460    21997562.080          49.050
        42.450
 126520287.038 6  98587227.29645  24076011.320    24076008.800          41.500
        32.700
 114938589.449 8  89562516.13047  21872087.160    21872081.700          49.650
        42.600
 117275890.737 7  91383793.46046  22316859.100    22316854.540          47.200
        40.050
 120691180.076 7  94045075.48446  22966767.480    22966766.200          45.300
        41.500
 106005856.053 8  82601942.09047  20172243.280    20172237.440          49.400
        46.950
 113110573.478 8  88138098.41847  21524227.900    21524225.740          48.700
        44.950
 125009829.972 6  97229888.913 6  23352886.360    23352890.500          37.150
        37.850
 121260887.943 6                  22724238.720                          39.350

 116733080.200 7  90792399.448 7  21814366.920    21814368.820          44.850
        42.900
 107776014.111 7                  20175896.840                          47.000

 123172896.470 7  95801167.414 5  23106922.200    23106928.760          44.150
        35.750
 105180326.817 8  81806929.019 7  19683064.600    19683066.720          49.500
        45.950
 110694868.809 8  86096016.805 7  20736879.320    20736882.040          48.250
        45.750
 19  2 28 13  7  8.0000000  0 14G29G12G31G20G26G21G25R07R06R21R12R10
                                R11R22
 115599089.828 8  90077185.70246  21997775.000    21997770.620          49.100
        41.950
 126523361.560 6  98589623.04246  24076596.400    24076593.900          40.750
        36.900
 114939349.719 8  89563108.54847  21872231.820    21872226.380          49.550
        42.150
 117272802.857 7  91381387.32446  22316271.500    22316266.940          47.200
        39.300
 120688028.915 7  94042620.03046  22966167.840    22966166.560          45.300
        41.050
 106005088.850 8  82601344.26947  20172097.300    20172091.440          49.450
        46.800
 113112522.337 8  88139617.00747  21524598.760    21524596.600          48.750
        44.650
 125006600.934 6  97227377.443 6  23352283.040    23352287.320          36.250
        38.250
 121259483.602 6                  22723975.520                          39.600

 116735290.546 7  90794118.602 7  21814779.980    21814781.880          44.750
        42.950
 107774348.235 7                  20175584.980                          46.950

 123177258.581 7  95804560.174 6  23107740.500    23107747.080          44.300
        36.100
 105182297.960 8  81808462.132 7  19683433.480    19683435.600          49.450
        45.850
 110694946.750 8  86096077.428 7  20736893.920    20736896.640          48.100
        45.750
 19  2 28 13  7  9.0000000  0 14G29G12G31G20G26G21G25R07R06R21R12R10
                                R11R22
 115600185.427 8  90078039.41747  21997983.480    21997979.100          49.050
        42.300
 126526436.055 6  98592018.75045  24077181.460    24077178.960          41.050
        35.300
 114940110.317 8  89563701.22247  21872376.560    21872371.100          49.450
        42.100
 117269714.901 7  91378981.12546  22315683.900    22315679.320          47.000
        39.600
 120684877.654 7  94040164.50446  22965568.160    22965566.880          45.350
        41.700
 106004321.909 8  82600746.65447  20171951.360    20171945.500          49.450
        47.150
 113114471.414 8  88141135.76847  21524969.660    21524967.500          48.700
        44.450
 125003371.660 6  97224865.792 6  23351679.800    23351684.060          36.050
        38.200
 121258079.583 6                  22723712.360                          39.000

 116737500.560 7  90795837.500 7  21815192.980    21815194.880          44.900
        42.950
 107772682.931 7                  20175273.240                          46.850

 123181620.588 7  95807952.848 6  23108558.780    23108565.380          44.350
        36.200
 105184269.651 8  81809995.669 7  19683802.440    19683804.580          49.450
        45.800
 110695024.643 8  86096138.009 7  20736908.520    20736911.220          48.100
        45.850
 19  2 28 13  7 10.0000000  0 14G29G12G31G20G26G21G25R07R06R21R12R10
                                R11R22
 115601281.004 8  90078893.11447  21998191.960    21998187.600          49.100
        42.100
 126529510.831 6  98594414.67045  24077766.600    24077764.120          40.850
        33.800
 114940871.443 8  89564294.30746  21872521.400    21872515.940          49.350
        41.900
 117266627.108 7  91376575.05646  22315096.300    22315091.740          46.900
        39.850
 120681726.496 7  94037709.05646  22964968.520    22964967.220          45.150
        40.400
 106003555.451 8  82600149.41547  20171805.500    20171799.660          49.350
        47.200
 113116420.948 8  88142654.88847  21525340.660    21525338.480          48.650
        44.550
 125000142.373 5  97222354.130 6  23351076.500    23351080.780          35.750
        38.200
 121256676.082 6                  22723449.300                          38.750

 116739710.432 7  90797556.290 7  21815605.900    21815607.860          44.750
        42.750
 107771018.387 7                  20174961.640                          46.850

 123185982.679 7  95811345.581 6  23109377.120    23109383.680          44.750
        36.400
 105186242.041 8  81811529.748 7  19684171.540    19684173.680          49.450
        45.700
 110695102.691 8  86096198.713 7  20736923.140    20736925.860          48.050
        45.700
 19  2 28 13  7 11.0000000  0 14G29G12G31G20G26G21G25R07R06R21R12R10
                                R11R22
 115602376.259 8  90079746.55747  21998400.380    21998396.020          49.050
        42.000
 126532585.458 6  98596810.48145  24078351.700    24078349.220          40.100
        35.650
 114941632.790 8  89564887.56547  21872666.280    21872660.820          49.400
        42.550
 117263539.133 7  91374168.83846  22314508.680    22314504.120          47.000
        39.550
 120678575.103 7  94035253.42846  22964368.820    22964367.540          45.300
        41.550
 106002789.165 8  82599552.30847  20171659.700    20171653.840          49.350
        47.050
 113118370.585 8  88144174.08347  21525711.660    21525709.480          48.750
        44.800
 124996912.762 5  97219842.219 6  23350473.180    23350477.480          35.800
        37.800
 121255272.797 6                  22723186.300                          39.100

 116741919.922 7  90799274.782 7  21816018.800    21816020.740          44.900
        43.100
 107769354.285 7                  20174650.120                          46.900

 123190344.497 7  95814738.100 5  23110195.360    23110201.940          44.600
        35.950
 105188214.838 8  81813064.146 7  19684540.720    19684542.860          49.550
        45.700
 110695180.592 8  86096259.301 7  20736937.740    20736940.440          48.150
        45.750
 19  2 28 13  7 12.0000000  0 14G29G12G31G20G26G21G25R07R06R21R12R10
                                R11R22
 115603471.563 8  90080600.04146  21998608.820    21998604.460          49.050
        41.650
 126535660.306 6  98599206.46246  24078936.820    24078934.380          40.350
        36.250
 114942394.725 8  89565481.27947  21872811.260    21872805.820          49.400
        42.050
 117260451.358 7  91371762.78246  22313921.100    22313916.520          47.050
        39.250
 120675423.866 7  94032797.91446  22963769.140    22963767.880          44.850
        41.750
 106002023.409 8  82598955.61147  20171513.980    20171508.120          49.350
        46.950
 113120320.715 8  88145693.66547  21526082.760    21526080.580          48.750
        44.500
 124993683.140 6  97217330.291 6  23349869.880    23349874.160          36.400
        37.650
 121253870.080 6                  22722923.480                          39.250

 116744129.372 7  90800993.241 7  21816431.700    21816433.640          44.900
        42.950
 107767691.015 7                  20174338.760                          47.000

 123194706.470 7  95818130.743 5  23111013.640    23111020.240          44.600
        35.850
 105190188.399 8  81814599.138 7  19684910.060    19684912.200          49.450
        45.800
 110695258.710 8  86096320.061 7  20736952.360    20736955.080          48.250
        45.700
 19  2 28 13  7 13.0000000  0 14G29G12G31G20G26G21G25R07R06R21R12R10
                                R11R22
 115604567.170 8  90081453.75947  21998817.300    21998812.940          49.100
        42.100
 126538735.715 6  98601602.89145  24079522.080    24079519.660          41.100
        33.350
 114943157.507 8  89566075.65447  21872956.420    21872950.980          49.400
        42.250
 117257364.044 7  91369357.08246  22313333.600    22313329.020          47.100
        39.900
 120672273.036 7  94030342.71846  22963169.560    22963168.320          45.000
        41.550
 106001258.444 8  82598359.53747  20171368.400    20171362.560          49.300
        47.100
 113122271.613 8  88147213.84847  21526454.020    21526451.820          48.600
        44.800
 124990453.810 6  97214818.593 6  23349266.600    23349270.900          37.400
        38.650
 121252468.190 6                  22722660.740                          39.200

 116746338.996 7  90802711.835 7  21816844.620    21816846.560          44.900
        43.000
 107766028.809 7                  20174027.580                          46.900

 123199068.816 7  95821523.673 6  23111832.000    23111838.600          44.450
        36.350
 105192163.012 8  81816134.948 7  19685279.580    19685281.720          49.550
        45.750
 110695337.318 8  86096381.198 7  20736967.100    20736969.800          48.250
        45.700
 19  2 28 13  7 14.0000000  0 14G29G12G31G20G26G21G25R07R06R21R12R10
                                R11R22
 115605663.163 8  90082307.77946  21999025.880    21999021.500          49.050
        41.950
 126541811.719 6  98603999.76946  24080107.440    24080105.080          40.650
        36.200
 114943921.211 8  89566670.74447  21873101.740    21873096.320          49.400
        42.500
 117254277.280 7  91366951.81246  22312746.200    22312741.640          46.950
        39.650
 120669122.698 7  94027887.90646  22962570.060    22962568.820          45.000
        41.650
 106000494.359 8  82597764.14847  20171223.000    20171217.160          49.250
        46.950
 113124223.328 8  88148734.66447  21526825.400    21526823.220          48.650
        44.700
 124987224.795 6  97212307.142 6  23348663.380    23348667.700          36.850
        38.350
 121251067.261 6                  22722398.160                          38.950

 116748548.892 7  90804430.641 7  21817257.600    21817259.540          44.850
        42.850
 107764367.786 7                  20173716.660                          46.850

 123203431.655 7  95824916.988 6  23112650.460    23112657.080          44.400
        36.400
 105194138.783 8  81817671.658 7  19685649.320    19685651.440          49.450
        45.900
 110695416.495 8  86096442.784 7  20736981.940    20736984.640          48.150
        45.850
 19  2 28 13  7 15.0000000  0 14G29G12G31G20G26G21G25R07R06R21R12R10
                                R11R22
 115606759.368 8  90083161.96346  21999234.480    21999230.100          49.050
        41.850
 126544888.145 6  98606396.98845  24080692.880    24080690.560          41.750
        32.750
 114944685.650 8  89567266.40947  21873247.220    21873241.780          49.400
        42.300
 117251190.861 7  91364546.81246  22312158.880    22312154.320          47.050
        39.550
 120665972.664 7  94025433.33746  22961970.620    22961969.400          45.050
        41.500
 105999730.955 8  82597169.28847  20171077.720    20171071.900          49.300
        46.950
 113126175.689 8  88150255.98547  21527196.920    21527194.740          48.650
        44.500
 124983995.984 6  97209795.847 6  23348060.160    23348064.540          37.050
        38.500
 121249667.042 6                  22722135.780                          39.400

 116750758.899 7  90806149.533 7  21817670.600    21817672.520          44.750
        42.900
 107762707.725 7                  20173405.880                          46.900

 123207794.747 7  95828310.502 6  23113468.940    23113475.580          44.400
        36.600
 105196115.507 8  81819209.111 7  19686019.240    19686021.360          49.450
        45.800
 110695496.038 8  86096504.649 7  20736996.840    20736999.540          48.250
        45.850
 19  2 28 13  7 16.0000000  0 14G29G12G31G20G26G21G25R07R06R21R12R10
                                R11R22
 115607855.592 8  90084016.15847  21999443.100    21999438.720          49.100
        42.050
 126547964.819 6  98608794.39246  24081278.360    24081276.020          40.900
        38.000
 114945450.657 8  89567862.51847  21873392.780    21873387.360          49.400
        42.400
 117248104.637 7  91362141.96646  22311571.600    22311567.020          47.050
        40.550
 120662822.759 7  94022978.86146  22961371.200    22961369.980          44.850
        41.300
 105998968.076 8  82596574.83747  20170932.560    20170926.720          49.300
        47.050
 113128128.521 8  88151777.67247  21527568.540    21527566.360          48.650
        44.400
 124980767.179 6  97207284.554 6  23347457.020    23347461.360          36.700
        38.200
 121248267.359 6                  22721873.480                          39.100

 116752968.838 7  90807868.373 7  21818083.560    21818085.500          44.800
        42.900
 107761048.467 7                  20173095.280                          46.800

 123212157.956 7  95831704.103 6  23114287.460    23114294.120          44.750
        36.450
 105198092.982 8  81820747.145 7  19686389.300    19686391.420          49.450
        45.700
 110695575.775 8  86096566.669 7  20737011.780    20737014.480          48.200
        45.750
 19  2 28 13  7 17.0000000  0 14G29G12G31G20G26G21G25R07R06R21R12R10
                                R11R22
 115608951.695 8  90084870.25847  21999651.680    21999647.300          49.050
        42.300
 126551041.555 6  98611191.83946  24081863.860    24081861.500          41.250
        36.050
 114946216.090 8  89568458.95547  21873538.440    21873533.020          49.400
        42.350
 117245018.439 7  91359737.13446  22310984.320    22310979.740          46.950
        40.250
 120659672.841 7  94020524.38646  22960771.780    22960770.580          44.950
        41.900
 105998205.562 8  82595980.66847  20170787.460    20170781.620          49.300
        47.050
 113130081.665 8  88153299.59847  21527940.220    21527938.040          48.600
        44.650
 124977538.223 6  97204773.144 6  23346853.840    23346858.160          36.300
        38.350
 121246868.121 6                  22721611.220                          39.650

 116755178.550 7  90809587.035 7  21818496.500    21818498.440          44.700
        42.900
 107759389.866 7                  20172784.780                          46.800

 123216521.113 7  95835097.663 6  23115105.960    23115112.640          44.800
        36.400
 105200071.058 8  81822285.646 7  19686759.460    19686761.600          49.450
        45.700
 110695655.560 8  86096628.718 7  20737026.720    20737029.420          48.200
        45.800
 19  2 28 13  7 18.0000000  0 14G29G12G31G20G26G21G25R07R06R21R12R10
                                R11R22
 115610047.751 8  90085724.32747  21999860.240    21999855.880          49.100
        42.200
 126554118.499 6  98613589.44345  24082449.380    24082447.040          41.000
        34.600
 114946982.016 8  89569055.77947  21873684.200    21873678.760          49.400
        42.550
 117241932.348 7  91357332.38946  22310397.060    22310392.480          47.050
        39.050
 120656522.983 7  94018069.95346  22960172.380    22960171.180          44.950
        41.400
 105997443.488 8  82595386.84247  20170642.440    20170636.600          49.350
        46.950
 113132035.219 8  88154821.84447  21528311.960    21528309.780          48.600
        44.500
 124974309.174 6  97202261.661 6  23346250.540    23346254.960          36.200
        38.350
 121245469.332 6                  22721349.100                          38.900

 116757388.112 7  90811305.580 7  21818909.400    21818911.340          44.750
        42.800
 107757731.990 7                  20172474.420                          46.800

 123220884.303 7  95838491.252 6  23115924.500    23115931.180          44.250
        36.750
 105202049.843 8  81823824.699 7  19687129.760    19687131.900          49.450
        45.750
 110695735.450 8  86096690.854 7  20737041.700    20737044.400          48.150
        45.800
 19  2 28 13  7 19.0000000  0 14G29G12G31G20G26G21G25R07R06R21R12R10
                                R11R22
 115611143.847 8  90086578.43046  22000068.840    22000064.440          49.100
        41.850
 126557195.638 6  98615987.21446  24083034.940    24083032.620          41.150
        36.600
 114947748.511 8  89569653.04746  21873830.060    21873824.620          49.450
        41.900
 117238846.455 7  91354927.80246  22309809.860    22309805.260          47.050
        40.200
 120653373.272 7  94015615.63346  22959573.000    22959571.780          44.950
        41.000
 105996681.938 8  82594793.42747  20170497.520    20170491.700          49.300
        47.100
 113133989.249 8  88156344.46747  21528683.820    21528681.620          48.600
        44.200
 124971080.128 6  97199750.187 6  23345647.320    23345651.740          36.100
        38.750
 121244071.114 6                  22721087.080                          39.100

 116759597.605 7  90813024.076 7  21819322.280    21819324.240          44.750
        42.900
 107756074.944 7                  20172164.220                          46.750

 123225247.614 7  95841884.932 5  23116743.020    23116749.720          44.900
        35.950
 105204029.412 8  81825364.366 7  19687500.220    19687502.340          49.450
        45.650
 110695815.558 8  86096753.159 7  20737056.700    20737059.400          48.200
        45.800
 19  2 28 13  7 20.0000000  0 14G29G12G31G20G26G21G25R07R06R21R12R10
                                R11R22
 115612240.150 8  90087432.69047  22000277.460    22000273.060          49.250
        42.400
 126560273.289 6  98618385.37145  24083620.600    24083618.260          41.800
        35.200
 114948515.759 8  89570250.90147  21873976.060    21873970.620          49.600
        42.450
 117235760.934 7  91352523.50746  22309222.700    22309218.100          46.950
        40.050
 120650223.859 7  94013161.54746  22958973.700    22958972.480          45.150
        41.550
 105995921.080 8  82594200.55047  20170352.720    20170346.900          49.350
        47.050
 113135943.938 8  88157867.60147  21529055.780    21529053.600          48.650
        44.400
 124967851.296 6  97197238.879 6  23345044.100    23345048.560          36.700
        38.550
 121242673.629 6                  22720825.180                          39.450

 116761807.188 7  90814742.641 7  21819735.220    21819737.140          44.700
        42.850
 107754418.880 7                  20171854.180                          46.700

 123229611.189 7  95845278.817 6  23117561.620    23117568.300          45.050
        36.000
 105206009.941 8  81826904.778 7  19687870.840    19687872.980          49.400
        45.700
 110695896.035 8  86096815.752 7  20737071.780    20737074.480          48.200
        45.850
 19  2 28 13  7 21.0000000  0 14G29G12G31G20G26G21G25R07R06R21R12R10
                                R11R22
 115613336.515 8  90088286.99947  22000486.100    22000481.680          49.200
        42.400
 126563351.145 6  98620783.69645  24084206.300    24084203.980          41.350
        35.250
 114949283.614 8  89570849.22846  21874122.180    21874116.740          49.450
        41.850
 117232675.622 7  91350119.37146  22308635.560    22308630.980          47.000
        39.600
 120647074.618 7  94010707.59146  22958374.400    22958373.180          45.250
        41.000
 105995160.779 8  82593608.10847  20170208.040    20170202.220          49.350
        47.250
 113137899.129 8  88159391.12747  21529427.840    21529425.660          48.800
        44.750
 124964622.557 5  97194727.636 6  23344440.940    23344445.420          35.950
        38.750
 121241276.729 6                  22720563.400                          39.550

 116764016.726 7  90816461.171 7  21820148.140    21820150.040          44.700
        42.850
 107752763.675 7                  20171544.340                          46.800

 123233974.918 7  95848672.824 6  23118380.240    23118386.920          44.750
        36.350
 105207991.213 8  81828445.767 7  19688241.600    19688243.740          49.350
        45.850
 110695976.752 8  86096878.532 7  20737086.900    20737089.600          48.100
        45.800
 19  2 28 13  7 22.0000000  0 14G29G12G31G20G26G21G25R07R06R21R12R10
                                R11R22
 115614432.858 8  90089141.29147  22000694.720    22000690.300          49.200
        42.000
 126566429.203 7  98623182.17946  24084792.040    24084789.720          42.000
        37.000
 114950051.979 8  89571447.95847  21874268.400    21874262.960          49.550
        42.250
 117229590.445 7  91347715.34046  22308048.480    22308043.900          47.050
        40.200
 120643925.452 7  94008253.69746  22957775.120    22957773.900          45.100
        41.350
 105994400.935 8  82593016.02247  20170063.460    20170057.640          49.350
        47.350
 113139854.728 8  88160914.96847  21529799.960    21529797.800          48.800
        44.550
 124961393.733 6  97192216.324 6  23343837.780    23343842.240          37.450
        38.700
 121239880.360 6                  22720301.720                          38.850

 116766226.147 7  90818179.607 7  21820561.020    21820562.920          44.600
        42.900
 107751109.203 7                  20171234.640                          46.750

 123238338.687 7  95852066.863 6  23119198.880    23119205.560          44.950
        36.550
 105209973.201 8  81829987.311 7  19688612.500    19688614.640          49.350
        45.800
 110696057.616 8  86096941.426 7  20737102.040    20737104.740          48.150
        45.750
 19  2 28 13  7 23.0000000  0 14G29G12G31G20G26G21G25R07R06R21R12R10
                                R11R22
 115615529.289 8  90089995.65246  22000903.380    22000898.960          49.350
        41.950
 126569507.574 6  98625580.92445  24085377.860    24085375.500          41.800
        35.000
 114950820.975 8  89572047.17547  21874414.740    21874409.300          49.600
        42.450
 117226505.519 7  91345311.50546  22307461.440    22307456.880          47.100
        40.000
 120640776.492 7  94005799.95846  22957175.880    22957174.700          45.200
        41.500
 105993641.680 8  82592424.39447  20169918.960    20169913.140          49.400
        46.850
 113141810.886 8  88162439.24547  21530172.220    21530170.060          48.800
        44.050
 124958164.967 6  97189705.060 6  23343234.600    23343239.060          37.000
        39.050
 121238484.564 6                  22720040.140                          38.500

 116768435.570 7  90819898.047 7  21820973.920    21820975.800          44.650
        42.850
 107749455.605 7                  20170925.080                          46.800

 123242702.656 7  95855461.059 6  23120017.580    23120024.240          45.250
        36.200
 105211956.060 8  81831529.534 7  19688983.560    19688985.700          49.350
        45.700
 110696138.754 8  86097004.533 7  20737117.260    20737119.960          48.150
        45.850
 19  2 28 13  7 24.0000000  0 14G29G12G31G20G26G21G25R07R06R21R12R10
                                R11R22
 115616625.758 8  90090850.04547  22001112.040    22001107.600          49.250
        42.200
 126572586.197 7  98627979.84545  24085963.720    24085961.380          42.650
        35.300
 114951590.554 8  89572646.84547  21874561.180    21874555.740          49.600
        42.200
 117223420.787 7  91342907.81646  22306874.440    22306869.860          47.050
        39.350
 120637627.654 7  94003346.31446  22956576.680    22956575.480          45.300
        41.900
 105992882.945 8  82591833.17447  20169774.580    20169768.760          49.450
        47.000
 113143767.509 8  88163963.88447  21530544.560    21530542.380          48.800
        44.100
 124954936.138 6  97187193.746 6  23342631.400    23342635.900          37.000
        39.000
 121237089.393 6                  22719778.660                          39.050

 116770644.923 7  90821616.431 7  21821386.780    21821388.660          44.600
        42.950
 107747802.838 7                  20170615.680                          46.800

 123247066.730 7  95858855.332 5  23120836.260    23120842.940          45.100
        35.600
 105213939.726 8  81833072.383 7  19689354.780    19689356.920          49.300
        45.800
 110696220.109 8  86097067.809 7  20737132.500    20737135.200          48.200
        45.800
 19  2 28 13  7 25.0000000  0 14G29G12G31G20G26G21G25R07R06R21R12R10
                                R11R22
 115617722.279 8  90091704.47746  22001320.700    22001316.280          49.350
        41.900
 126575665.072 7  98630378.97745  24086549.620    24086547.260          42.050
        35.500
 114952360.716 8  89573246.96746  21874707.720    21874702.300          49.600
        41.850
 117220336.252 7  91340504.28646  22306287.480    22306282.900          47.150
        39.000
 120634479.000 7  94000892.82146  22955977.500    22955976.320          45.300
        40.800
 105992124.745 8  82591242.36947  20169630.300    20169624.480          49.450
        47.150
 113145724.618 8  88165488.90247  21530916.980    21530914.800          48.750
        44.300
 124951707.343 5  97184682.467 6  23342028.220    23342032.720          35.250
        38.650
 121235694.785 6                  22719517.320                          39.450

 116772854.196 7  90823334.752 7  21821799.640    21821801.520          44.650
        42.950
 107746150.896 7                  20170306.460                          46.850

 123251430.915 7  95862249.696 6  23121654.980    23121661.660          45.200
        36.550
 105215924.137 8  81834615.812 7  19689726.140    19689728.280          49.350
        45.950
 110696301.675 8  86097131.251 7  20737147.780    20737150.480          48.200
        45.800
 19  2 28 13  7 26.0000000  0 14G29G12G31G20G26G21G25R07R06R21R12R10
                                R11R22
 115618818.674 8  90092558.81047  22001529.360    22001524.920          49.350
        42.500
 126578744.053 7  98632778.19045  24087135.540    24087133.220          43.200
        35.450
 114953131.307 8  89573847.42947  21874854.360    21874848.920          49.600
        42.250
 117217251.769 7  91338100.79746  22305700.520    22305695.940          47.050
        39.550
 120631330.309 7  93998439.30046  22955378.320    22955377.140          45.100
        41.700
 105991366.917 8  82590651.85547  20169486.100    20169480.280          49.450
        46.950
 113147682.066 8  88167014.18747  21531289.460    21531287.300          48.800
        44.400
 124948478.422 6  97182171.105 6  23341425.040    23341429.540          38.300
        40.300
 121234300.563 6                  22719256.060                          39.050

 116775063.253 7  90825052.905 7  21822212.440    21822214.320          44.600
        42.900
 107744499.625 7                  20169997.320                          47.000

 123255795.068 7  95865644.047 6  23122473.680    23122480.360          44.750
        36.000
 105217909.147 8  81836159.709 7  19690097.620    19690099.740          49.450
        45.850
 110696383.283 8  86097194.725 7  20737163.080    20737165.760          48.200
        45.900
 19  2 28 13  7 27.0000000  0 14G29G12G31G20G26G21G25R07R06R21R12R10
                                R11R22
 115619914.976 8  90093413.06846  22001737.980    22001733.540          49.300
        41.650
 126581823.133 7  98635177.48046  24087721.500    24087719.160          43.050
        37.000
 114953902.336 8  89574448.23147  21875001.080    21874995.640          49.600
        42.800
 117214167.334 7  91335697.34346  22305113.580    22305109.000          47.200
        39.850
 120628181.636 7  93995985.79146  22954779.140    22954777.960          45.350
        41.550
 105990609.485 8  82590061.64947  20169341.960    20169336.140          49.450
        46.950
 113149639.864 8  88168539.74347  21531662.020    21531659.840          48.750
        44.350
 124945249.376 6  97179659.631 6  23340821.820    23340826.320          37.550
        39.750
 121232906.867 6                  22718994.880                          39.350

 116777272.109 7  90826770.904 7  21822625.240    21822627.100          44.600
        42.550
 107742849.013 7                  20169688.320                          46.950

 123260159.207 7  95869038.380 5  23123292.380    23123299.060          44.750
        35.600
 105219894.800 8  81837704.106 7  19690469.200    19690471.340          49.450
        45.750
 110696464.956 8  86097258.248 7  20737178.380    20737181.060          48.250
        45.750
 19  2 28 13  7 28.0000000  0 14G29G12G31G20G26G21G25R07R06R21R12R10
                                R11R22
 115621011.101 8  90094267.18347  22001946.580    22001942.120          49.300
        42.250
 126584902.318 7  98637576.84146  24088307.440    24088305.100          42.900
        37.950
 114954673.736 8  89575049.31847  21875147.880    21875142.440          49.600
        42.300
 117211082.886 7  91333293.87946  22304526.620    22304522.040          47.100
        39.300
 120625032.890 7  93993532.22246  22954179.960    22954178.780          45.200
        41.350
 105989852.360 8  82589471.68047  20169197.880    20169192.080          49.400
        46.900
 113151597.932 8  88170065.50647  21532034.620    21532032.440          48.700
        44.150
 124942020.188 6  97177148.040 6  23340218.580    23340223.080          38.900
        40.650
 121231513.449 6                  22718733.760                          38.800

 116779480.699 7  90828488.693 7  21823037.940    21823039.820          44.700
        42.750
 107741199.004 7                  20169379.440                          46.900

 123264523.227 7  95872432.618 5  23124111.060    23124117.740          44.950
        35.900
 105221881.058 8  81839248.971 7  19690840.920    19690843.040          49.550
        45.750
 110696546.607 8  86097321.752 7  20737193.680    20737196.360          48.200
        45.700
 19  2 28 13  7 29.0000000  0 14G29G12G31G20G26G21G25R07R06R21R12R10
                                R11R22
 115622107.346 8  90095121.39547  22002155.180    22002150.740          49.300
        42.400
 126587981.793 7  98639976.41945  24088893.440    24088891.120          42.600
        33.500
 114955445.792 8  89575650.91947  21875294.800    21875289.360          49.650
        42.550
 117207998.740 7  91330890.64646  22303939.720    22303935.120          47.250
        39.300
 120621884.377 7  93991078.83646  22953580.820    22953579.640          45.350
        41.200
 105989095.851 8  82588882.19247  20169053.920    20169048.120          49.450
        47.000
 113153556.568 8  88171591.71447  21532407.360    21532405.160          48.750
        44.650
 124938791.042 6  97174636.479 6  23339615.400    23339619.840          36.700
        40.000
 121230120.719 6                  22718472.760                          39.450

 116781689.293 7  90830206.486 7  21823450.680    21823452.540          44.650
        42.250
 107739549.907 7                  20169070.720                          46.950

 123268887.447 7  95875827.005 5  23124929.800    23124936.460          45.050
        35.650
 105223868.194 8  81840794.521 7  19691212.780    19691214.900          49.550
        45.800
 110696628.565 8  86097385.493 7  20737209.040    20737211.720          48.100
        45.750
 19  2 28 13  7 30.0000000  0 14G29G12G31G20G26G21G25R07R06R21R12R10
                                R11R22
 115623203.927 8  90095975.87246  22002363.860    22002359.400          49.350
        41.850
 126591061.832 6  98642376.44445  24089479.540    24089477.260          41.300
        34.750
 114956218.713 8  89576253.19347  21875441.900    21875436.440          49.600
        42.350
 117204915.056 7  91328487.77446  22303352.940    22303348.340          47.150
        39.800
 120618736.301 7  93988625.78546  22952981.760    22952980.580          45.200
        41.200
 105988340.161 8  82588293.34247  20168910.120    20168904.320          49.350
        47.000
 113155515.981 8  88173118.53047  21532780.220    21532778.020          48.700
        44.050
 124935562.269 6  97172125.212 6  23339012.220    23339016.700          37.350
        39.250
 121228728.859 6                  22718211.920                          39.250

 116783898.127 7  90831924.464 7  21823863.440    21823865.300          44.650
        42.850
 107737901.910 7                  20168762.220                          46.750

 123273252.098 7  95879221.732 5  23125748.580    23125755.260          45.400
        35.050
 105225856.383 8  81842340.891 7  19691584.840    19691586.960          49.400
        45.750
 110696711.033 8  86097449.635 7  20737224.480    20737227.160          48.050
        45.700
 19  2 28 13  7 31.0000000  0 14G29G12G31G20G26G21G25R07R06R21R12R10
                                R11R22
 115624300.947 8  90096830.69346  22002572.620    22002568.160          49.350
        41.950
 126594142.573 6  98644777.04345  24090065.800    24090063.500          41.800
        34.000
 114956992.633 8  89576856.24747  21875589.160    21875583.700          49.650
        42.400
 117201831.979 7  91326085.37246  22302766.240    22302761.640          47.000
        39.700
 120615588.776 7  93986173.17346  22952382.800    22952381.640          45.150
        41.200
 105987585.404 8  82587705.22247  20168766.480    20168760.680          49.400
        47.250
 113157476.278 8  88174646.03247  21533153.240    21533151.060          48.750
        44.050
 124932333.867 6  97169614.238 6  23338409.140    23338413.600          37.900
        39.100
 121227337.932 6                  22717951.260                          39.450

 116786107.315 7  90833642.721 7  21824276.280    21824278.140          44.500
        42.550
 107736255.142 7                  20168453.960                          46.900

 123277617.280 7  95882616.857 5  23126567.480    23126574.140          45.650
        35.150
 105227845.727 8  81843888.158 7  19691957.120    19691959.240          49.350
        45.800
 110696794.133 8  86097514.268 7  20737240.060    20737242.740          48.150
        45.600
 19  2 28 13  7 32.0000000  0 14G29G12G31G20G26G21G25R07R06R21R12R10
                                R11R22
 115625398.104 8  90097685.61946  22002781.400    22002776.960          49.350
        41.850
 126597223.608 7  98647177.85045  24090652.120    24090649.800          42.750
        35.700
 114957767.217 8  89577459.81947  21875736.560    21875731.100          49.650
        42.050
 117198749.202 7  91323683.19846  22302179.600    22302175.000          46.950
        40.000
 120612441.512 7  93983720.76546  22951783.880    22951782.740          45.000
        41.650
 105986831.282 8  82587117.59347  20168622.980    20168617.180          49.350
        47.100
 113159437.158 8  88176173.99047  21533526.380    21533524.200          48.900
        44.350
 124929105.576 6  97167103.346 6  23337806.060    23337810.540          39.050
        39.100
 121225947.705 6                  22717690.740                          39.600

 116788316.532 7  90835361.001 7  21824689.100    21824690.960          44.550
        42.600
 107734609.289 7                  20168145.860                          46.900

 123281982.688 7  95886012.151 5  23127386.420    23127393.060          45.650
        34.950
 105229835.955 8  81845436.111 7  19692329.560    19692331.680          49.400
        45.650
 110696877.543 8  86097579.145 7  20737255.700    20737258.360          48.150
        45.650
 19  2 28 13  7 33.0000000  0 14G29G12G31G20G26G21G25R07R06R21R12R10
                                R11R22
 115626495.319 8  90098540.59346  22002990.220    22002985.760          49.400
        41.900
 126600304.951 7  98649578.86445  24091238.480    24091236.180          42.400
        35.000
 114958542.396 8  89578063.85247  21875884.080    21875878.620          49.650
        42.250
 117195666.632 7  91321281.19646  22301593.020    22301588.420          47.050
        39.600
 120609294.382 7  93981268.45446  22951185.000    22951183.860          45.150
        40.900
 105986077.689 8  82586530.37847  20168479.580    20168473.780          49.400
        47.100
 113161398.534 8  88177702.33747  21533899.620    21533897.420          48.850
        44.000
 124925877.356 6  97164592.511 6  23337203.000    23337207.480          38.350
        39.100
 121224558.049 6                  22717430.320                          39.600

 116790525.679 7  90837079.226 7  21825101.940    21825103.780          44.600
        42.550
 107732964.273 7                  20167837.900                          46.850

 123286348.219 7  95889407.539 5  23128205.380    23128212.020          45.650
        35.650
 105231826.989 8  81846984.691 7  19692702.160    19692704.280          49.400
        45.650
 110696961.172 8  86097644.189 7  20737271.360    20737274.020          48.050
        45.600
