     2.11           OBSERVATION DATA    M (MIXED)           RINEX VERSION / TYPE
teqc  2012Jun6                          20190301 21:13:39UTCPGM / RUN BY / DATE
MSXP|IAx86-PII|bcc32 5.0|MSWin95->XP|486/DX+                COMMENT
BIT 2 OF LLI FLAGS DATA COLLECTED UNDER A/S CONDITION       COMMENT
-Unknown-                                                   MARKER NAME
-Unknown-           -Unknown-                               OBSERVER / AGENCY
1533847             LEICA               4.51/6.112          REC # / TYPE / VERS
                    LEIAS10         NONE                    ANT # / TYPE
  2346250.5913 -5239529.4363 -2773557.8101                  APPROX POSITION XYZ
        0.5990        0.0000        0.0000                  ANTENNA: DELTA H/E/N
     1     1                                                WAVELENGTH FACT L1/2
     6    L1    L2    C1    P2    S1    S2                  # / TYPES OF OBSERV
     2.0000                                                 INTERVAL
P08X                                                        COMMENT
Project creator:                                            COMMENT
 SNR is mapped to RINEX snr flag value [0-9]                COMMENT
  L1 & L2: min(max(int(snr_dBHz/6), 0), 9)                  COMMENT
  2019     2    28    14    32   48.0000000     GPS         TIME OF FIRST OBS
    16                                                      LEAP SECONDS
                                                            END OF HEADER
 19  2 28 14 32 48.0000000  0 20G29G20G27G25G15G21G31G16G10G26R22R13
                                R07R21R23R06R12R08R11E01
 122349460.802 7  95337233.73846  23282330.300    23282326.140          47.150
        39.100
 106395109.324 8  82905257.38347  20246315.860    20246309.860          48.750
        46.000
 129310767.356 6 100761642.47044  24607020.960    24607018.180          38.550
        27.550


 132949029.721 7 103596636.11845  25299359.260    25299357.740          44.250
        33.600
 108381873.789 8  84453382.50747  20624385.260    20624378.960          49.750
        43.550
 124568336.329 7  97066216.51346  23704569.540    23704564.980          46.900
        39.200
 118581125.548 7  92400854.49246  22565237.900    22565231.880          46.100
        38.150
 112669688.039 8  87794554.25247  21440327.060    21440324.700          49.000
        45.100
 108707458.668 8  84707101.39647  20686340.700    20686338.440          49.750
        46.750
 112618594.637 7  87592258.149 6  21097258.900    21097261.600          45.100
        41.250
 116798717.620 6  90843461.192 5  21872649.220    21872651.860          37.600
        34.650
 112391061.048 7  87415279.642 7  20995593.680    20995595.640          46.450
        44.700
 126898705.654 6  98699014.509 6  23714058.760    23714063.220          40.650
        40.700
 118743499.804 6  92356062.143 5  22197843.260    22197848.560          41.900
        34.350
 123344933.634 6                  23114787.760                          39.700

 110733360.945 7                  20729518.040                          46.600

 117664567.356 7  91516905.640 6  21973027.560    21973029.960          42.650
        38.850
 122702748.465 6  95435482.200 6  22962146.580    22962151.340          40.550
        39.750
 128056712.770 8                  24368381.820                          51.150

 19  2 28 14 32 50.0000000  0 20G29G20G27G25G15G21G31G16G10G26R22R13
                                R07R21R23R06R12R08R11E01
 122352755.231 7  95339800.82046  23282957.200    23282953.080          47.950
        37.150
 106393555.439 8  82904046.56347  20246020.180    20246014.140          49.050
        45.250
 129305844.289 6 100757806.35844  24606084.220    24606081.740          39.100
        29.900


 132947797.938 7 103595676.27945  25299124.860    25299123.340          44.250
        32.050
 108384805.549 8  84455666.99446  20624943.160    20624936.840          49.050
        41.300
 124573345.595 7  97070119.82545  23705522.780    23705518.160          45.900
        35.350
 118575091.293 7  92396152.48346  22564089.620    22564083.680          45.850
        37.250
 112664048.372 8  87790159.71147  21439253.860    21439251.500          49.350
        44.800
 108705257.326 8  84705386.06247  20685921.800    20685919.540          50.000
        45.300
 112619545.336 7  87592997.575 6  21097436.960    21097439.720          44.850
        41.700
 116795580.806 6  90841021.442 5  21872061.760    21872064.500          38.500
        34.200
 112389070.851 7  87413731.709 7  20995221.900    20995223.860          46.750
        45.700
 126902207.556 6  98701738.216 6  23714713.100    23714717.760          40.400
        41.600
 118741073.786 7  92354175.240 5  22197389.720    22197395.080          42.650
        33.100
 123349516.457 6                  23115646.460                          38.350

 110738606.196 7                  20730499.940                          46.950

 117657130.893 6  91511121.750 6  21971638.880    21971641.260          40.250
        38.600
                                  22963704.520                          41.300

 128057302.453 8                  24368494.060                          51.400

 19  2 28 14 32 52.0000000  0 20G29G20G27G25G15G21G31G16G10G26R22R13
                                R07R21R23R06R12R08R11E01
 122356049.487 7  95342367.79546  23283584.060    23283579.980          46.700
        39.750
 106392003.109 7  82902836.95047  20245724.780    20245718.740          47.700
        47.000
 129300919.989 6 100753969.31845  24605147.140    24605145.160          38.000
        35.350


 132946566.431 7 103594716.67446  25298890.500    25298888.960          44.250
        36.850
 108387737.510 8  84457951.62847  20625501.080    20625494.760          48.050
        43.600
 124578354.432 6  97074022.82146  23706475.960    23706471.320          39.750
        37.750
 118569057.414 7  92391450.76346  22562941.400    22562935.480          45.450
        39.850
 112658409.459 7  87785765.75247  21438180.820    21438178.440          47.950
        45.700
 108703057.523 8  84703671.93947  20685503.180    20685500.920          49.100
        47.600
 112620495.106 7  87593736.277 7  21097614.860    21097617.640          46.050
        42.000
 116792446.251 6  90838583.504 5  21871474.760    21871477.580          37.950
        34.550
 112387083.015 7  87412185.621 7  20994850.560    20994852.520          47.000
        45.300
 126905708.299 6  98704461.029 6  23715367.220    23715372.020          39.650
        40.700
 118738646.826 7  92352287.630 5  22196936.040    22196941.440          43.050
        31.550
 123354100.966 5                  23116505.340                          35.250

 110743852.938 7                  20731482.160                          47.600

 117649694.358 7  91505337.753 6  21970250.160    21970252.540          42.350
        37.600
                                  22965262.360    22965267.000          44.200
        41.950
 128057893.093 8                  24368606.460                          50.800

 19  2 28 14 32 54.0000000  0 20G29G20G27G25G15G21G31G16G10G26R22R13
                                R07R21R23R06R12R08R11E01
 122359344.376 7  95344935.25146  23284211.060    23284206.980          46.850
        38.000
 106390453.241 8  82901629.26347  20245429.840    20245423.820          48.250
        46.850
 129295995.039 6 100750131.63245  24604209.880    24604208.120          36.400
        32.350


 132945336.248 7 103593758.12646  25298656.380    25298654.920          43.350
        36.900
 108390670.542 8  84460237.10647  20626059.220    20626052.880          49.000
        44.950
 124583363.045 7  97077925.65945  23707429.100    23707424.380          42.700
        33.400
 118563024.764 7  92386750.00046  22561793.440    22561787.520          46.050
        38.300
 112652772.164 8  87781373.05547  21437108.080    21437105.700          48.400
        45.800
 108700860.127 8  84701959.69147  20685085.040    20685082.780          49.400
        46.850
 112621444.698 7  87594474.842 7  21097792.760    21097795.540          47.850
        44.400
 116789314.774 6  90836147.897 5  21870888.380    21870891.180          36.950
        35.750
 112385098.179 7  87410641.864 7  20994479.760    20994481.720          47.350
        44.450
 126909208.683 6  98707183.529 6  23716021.380    23716026.060          40.250
        39.150
 118736219.984 6  92350400.101 5  22196482.340    22196487.840          41.700
        32.750
 123358687.953 5                  23117364.560                          31.050

 110749102.096 7                  20732464.820                          46.100

 117642258.602 7  91499554.358 6  21968861.600    21968863.960          42.800
        40.000
 122727723.033 7                  22966820.180    22966824.700          44.550
        33.750
 128058485.611 8                  24368719.240                          51.050

 19  2 28 14 32 56.0000000  0 20G29G20G27G25G15G21G31G16G10G26R22R13
                                R07R21R23R06R12R08R11E01
 122362640.416 7  95347503.57146  23284838.280    23284834.200          47.450
        37.600
 106388906.272 8  82900423.83447  20245135.460    20245129.440          48.500
        46.800
 129291070.148 6 100746294.10944  24603272.620    24603270.920          36.850
        28.050


 132944107.686 7 103592800.82046  25298422.560    25298421.120          44.200
        36.350
 108393605.143 8  84462523.81647  20626617.660    20626611.320          49.250
        44.400
 124588372.300 7  97081829.01145  23708382.380    23708377.640          43.650
        33.450
 118556993.831 7  92382050.56946  22560645.800    22560639.800          46.250
        37.700
 112647136.940 8  87776981.97147  21436035.740    21436033.360          48.550
        44.950
 108698665.604 8  84700249.67247  20684667.440    20684665.160          49.400
        46.600
 112622394.783 7  87595213.787 7  21097970.740    21097973.540          47.750
        44.600
 116786186.888 6  90833715.097 5  21870302.640    21870305.440          37.100
        35.150
 112383116.933 7  87409100.907 7  20994109.680    20994111.580          46.800
        44.850
 126912709.423 6  98709906.354 6  23716675.520    23716680.320          41.050
        40.600
 118733793.541 7  92348512.840 5  22196028.720    22196034.340          42.400
        34.000
 123363278.220 5                  23118224.580                          33.750

 110754354.145 7                  20733448.040                          45.800

 117634824.198 7  91493772.025 6  21967473.280    21967475.640          42.050
        39.950
 122736048.088 7  95461389.912 6  22968378.160    22968382.660          44.050
        38.100
 128059080.442 8                  24368832.420                          51.150

 19  2 28 14 32 58.0000000  0 20G29G20G27G25G15G21G31G16G10G26R22R13
                                R07R21R23R06R12R08R11E01
 122365937.640 7  95350072.82046  23285465.720    23285461.620          47.450
        37.950
 106387362.256 8  82899220.69847  20244841.640    20244835.620          48.650
        46.450
 129286145.189 6 100742456.50144  24602335.420    24602334.220          38.100
        26.850


 132942880.932 7 103591844.92846  25298189.120    25298187.700          43.350
        36.600
 108396541.373 8  84464811.78547  20627176.400    20627170.080          49.100
        44.650
 124593382.304 7  97085732.90245  23709335.780    23709330.940          44.800
        32.050
 118550964.702 7  92377352.54946  22559498.520    22559492.540          46.750
        38.300
 112641503.907 8  87772592.60147  21434963.820    21434961.420          48.350
        45.150
 108696474.038 8  84698541.95947  20684250.400    20684248.120          49.550
        46.750
 112623345.384 7  87595953.139 7  21098148.800    21098151.640          47.650
        44.550
 116783062.583 5  90831285.086 5  21869717.640    21869720.340          35.950
        34.500
 112381139.409 7  87407562.820 7  20993740.240    20993742.140          46.750
        44.400
 126916210.394 6  98712629.317 6  23717329.740    23717334.640          41.850
        40.850
 118731367.750 6  92346626.097 5  22195575.280    22195580.900          40.900
        32.850
 123367871.547 5                  23119085.520                          31.900

 110759609.153 7                  20734431.780                          45.650

 117627391.248 7  91487990.840 6  21966085.260    21966087.580          42.250
        40.300
 122744373.728 7                  22969936.180    22969939.220          44.800
        37.900
 128059677.666 8                  24368946.100                          51.150

 19  2 28 14 33  0.0000000  0 20G29G20G27G25G15G21G31G16G10G26R22R13
                                R07R21R23R06R12R08R11E01
 122369235.328 7  95352642.42446  23286093.240    23286089.140          47.800
        38.900
 106385820.460 8  82898019.30347  20244548.240    20244542.220          48.600
        46.850
 129281219.568 6 100738618.36945  24601398.020    24601396.940          38.050
        32.100
 128515711.247 6 100142115.41245  24455726.900    24455727.220          38.300
        33.850
 132941655.201 7 103590889.77446  25297955.880    25297954.500          46.050
        36.750
 108399478.481 8  84467100.43747  20627735.300    20627729.000          49.650
        44.100
 124598392.260 7  97089636.70745  23710289.180    23710284.240          45.250
        35.700
 118544936.562 7  92372655.29646  22558351.400    22558345.420          46.750
        39.850
 112635872.254 8  87768204.30447  21433892.140    21433889.760          48.750
        45.600
 108694284.665 8  84696835.94147  20683833.780    20683831.480          49.800
        46.850
 112624295.765 7  87596692.316 7  21098326.820    21098329.680          47.900
        45.550
 116779941.191 6  90828857.342 5  21869133.080    21869135.800          37.050
        34.000
 112379164.886 7  87406027.066 7  20993371.400    20993373.260          46.800
        45.000
 126919710.917 6  98715351.925 6  23717983.920    23717988.760          38.100
        37.000
 118728941.743 6  92344739.209 5  22195121.780    22195127.380          39.900
        31.250
 123372467.300 5                  23119947.500                          34.750

 110764866.319 7                  20735415.940                          45.500

 117619959.024 6  91482210.258 6  21964697.340    21964699.700          41.800
        39.650
 122752699.275 7                  22971494.200    22971499.040          45.700
        38.600
 128060276.512 8                  24369060.060                          51.450

 19  2 28 14 33  2.0000000  0 19G29G20G27G25G15G21G31G16G10G26R22R13
                                R07R21R23R12R08R11E01
 122372532.174 7  95355211.38946  23286720.620    23286716.540          47.550
        38.950
 106384279.586 8  82896818.62247  20244255.020    20244249.000          48.600
        46.300
 129276291.969 5 100734778.66745  24600460.300    24600459.040          34.150
        30.350
 128523123.033 6 100147890.78945  24457137.220    24457137.860          37.000
        30.950
 132940429.167 7 103589934.38246  25297722.580    25297721.120          44.550
        36.350
 108402415.163 8  84469388.75647  20628294.140    20628287.820          49.250
        44.400
 124603400.816 7  97093539.47445  23711242.320    23711237.300          43.900
        34.250
 118538908.269 7  92367957.92945  22557204.260    22557198.300          43.000
        35.800
 112630240.724 8  87763816.09347  21432820.500    21432818.100          48.750
        44.950
 108692096.176 8  84695130.62347  20683417.320    20683415.020          49.750
        47.550
 112625244.452 7  87597430.186 7  21098504.540    21098507.400          46.650
        43.550
 116776821.483 6  90826430.907 5  21868548.860    21868551.560          37.000
        35.950
 112377191.878 7  87404492.514 7  20993002.840    20993004.660          45.300
        44.900
 126923209.675 6  98718073.196 6  23718637.700    23718642.580          37.900
        40.500
 118726514.232 6  92342851.162 5  22194668.000    22194673.560          40.300
        33.000
 110770124.281 7                  20736400.260                          46.100

 117612526.028 6  91476429.046 6  21963309.260    21963311.640          41.050
        38.950
 122761023.242 7  95480807.981 6  22973051.920    22973056.880          44.700
        38.400
 128060875.733 8                  24369174.100                          51.350

 19  2 28 14 33  4.0000000  0 20G29G20G27G25G15G21G31G16G10G26R22R13
                                R07R21R23R06R12R08R11E01
 122375829.940 7  95357781.06146  23287348.160    23287344.100          46.400
        37.400
 106382741.443 8  82895620.06747  20243962.320    20243956.320          48.300
        46.800
 129271364.206 5                  24599522.420                          31.700

 128530535.563 6 100153666.83545  24458547.600    24458546.680          37.900
        33.050
 132939204.554 6 103588980.12245  25297489.500    25297488.260          40.800
        33.050
 108405353.211 8  84471678.15747  20628853.220    20628846.920          49.400
        44.600
 124608409.808 7  97097442.58646  23712195.540    23712190.500          45.000
        36.200
 118532881.397 6  92363261.68445  22556057.340    22556051.320          41.600
        31.100
 112624611.123 8  87759429.39347  21431749.240    21431746.840          48.650
        45.750
 108689910.405 8  84693427.42547  20683001.400    20682999.100          49.650
        46.750
 112626193.424 7  87598168.296 7  21098682.320    21098685.200          47.250
        44.700
 116773705.030 6  90824006.995 5  21867965.240    21867967.980          36.450
        35.000
 112375222.140 7  87402960.486 7  20992634.860    20992636.680          46.700
        44.550
 126926708.625 5  98720794.581 5  23719291.540    23719296.540          31.350
        35.400
 118724087.072 6  92340963.385 5  22194214.260    22194219.840          39.650
        32.350
                                  23121670.200                          37.800

 110775384.895 7                  20737385.060                          46.300

 117605094.240 6  91470648.764 6  21961921.400    21961923.800          39.250
        38.750
 122769347.541 7  95487282.408 6  22974609.720    22974614.560          45.400
        40.750
 128061477.067 8                  24369288.540                          51.650

 19  2 28 14 33  6.0000000  0 20G29G20G27G25G15G21G31G16G10G26R22R13
                                R07R21R23R06R12R08R11E01
 122379129.261 6  95360351.95445  23287976.000    23287972.040          39.700
        33.850
 106381206.494 8  82894424.00947  20243670.240    20243664.220          48.600
        47.050
 129266436.413 7                  24598584.560                          43.900

 128537949.186 6 100159443.70845  24459958.160    24459957.980          37.700
        34.300
 132937982.375 6 103588027.81744  25297256.860    25297255.800          36.000
        29.650
 108408293.138 8  84473969.00547  20629412.680    20629406.360          50.050
        44.100
 124613419.715 7  97101346.39545  23713148.960    23713143.880          45.050
        34.300
 118526856.557 7  92358567.01446  22554910.820    22554904.960          45.750
        37.000
 112618983.891 8  87755044.55447  21430678.400    21430676.020          48.700
        46.050
 108687727.836 8  84691726.71447  20682586.060    20682583.760          50.050
        46.950
 112627143.096 8  87598906.928 7  21098860.200    21098863.100          48.800
        44.500
 116770592.326 6  90821585.993 6  21867382.300    21867385.040          40.050
        38.550
 112373256.536 7  87401431.684 7  20992267.680    20992269.480          44.050
        42.250
 126930207.985 4  98723516.297 5  23719945.420    23719950.440          29.200
        33.650
 118721660.436 7  92339076.005 6  22193760.620    22193766.240          45.350
        37.700
                                  23122533.060                          37.800

 110780648.725 7                  20738370.460                          45.850

 117597664.133 6  91464869.782 6  21960533.860    21960536.260          40.650
        40.750
 122777672.673 7  95493757.492 6  22976167.680    22976172.360          45.650
        40.100
 128062081.007 8                  24369403.480                          51.750

 19  2 28 14 33  8.0000000  0 19G29G20G27G25G15G21G31G16G10G26R22R13
                                R07R23R06R12R08R11E01
 122382430.004 6  95362923.86644  23288604.120    23288600.080          41.950
        28.800
 106379675.198 8  82893230.81247  20243378.840    20243372.820          48.650
        45.950
 129261509.533 7 100723241.90346  24597646.960    24597645.660          43.100
        38.600
 128545364.669 6 100165221.94745  24461369.300    24461370.300          37.800
        32.300
 132936761.535 5 103587076.61644  25297024.480    25297023.300          35.750
        26.750
 108411235.369 8  84476261.64247  20629972.560    20629966.240          49.950
        44.400
 124618430.946 7  97105251.25045  23714102.600    23714097.520          44.800
        35.050
 118520834.216 7  92353874.27446  22553764.800    22553758.940          47.000
        39.050
 112613359.516 8  87750661.92647  21429608.120    21429605.740          48.700
        45.250
 108685548.877 8  84690028.82847  20682171.420    20682169.120          49.750
        46.450
 112628094.070 8  87599646.568 7  21099038.360    21099041.240          48.650
        45.800
 116767484.150 6  90819168.523 6  21866800.240    21866802.960          41.000
        38.700
 112371295.320 6  87399906.328 6  20991901.300    20991903.080          36.800
        37.650
 118719235.223 7  92337189.683 6  22193307.300    22193312.800          45.400
        36.250
 123390869.031 5                  23123396.500                          32.700

 110785916.193 7                  20739356.560                          45.750

 117590236.222 7  91459092.499 7  21959146.720    21959149.140          42.350
        42.250
 122785998.978 7  95500233.514 6  22977725.860    22977730.440          43.250
        40.050
 128062688.042 8                  24369519.020                          51.600

 19  2 28 14 33 10.0000000  0 19G29G20G27G25G15G21G31G16G10G26R22R13
                                R07R23R06R12R08R11E01
 122385732.279 6                  23289232.440                          38.500

 106378146.702 8  82892039.77847  20243087.980    20243081.960          48.550
        45.950
 129256582.459 7 100719402.64146  24596709.340    24596707.740          43.150
        38.200
 128552780.964 5 100171000.87445  24462780.560    24462781.660          35.700
        33.800
                                  25296793.940    25296803.960          37.500
        29.700
 108414179.048 8  84478555.41847  20630532.720    20630526.400          49.550
        43.650
 124623442.654 7  97109156.48445  23715056.300    23715051.180          44.050
        32.100
 118514813.485 7  92349182.79946  22552619.080    22552613.180          47.050
        39.000
 112607737.127 8  87746280.85447  21428538.220    21428535.820          49.200
        45.000
 108683372.675 8  84688333.09247  20681757.300    20681755.000          49.800
        46.800
 112629045.295 7  87600386.385 7  21099216.580    21099219.420          46.700
        45.400
 116764379.408 6  90816753.721 6  21866218.820    21866221.580          41.350
        39.600
 112369337.402 6  87398383.484 6  20991535.560    20991537.340          40.250
        38.300
 118716810.446 7  92335303.743 5  22192853.980    22192859.460          44.700
        35.750
 123395478.884 5                  23124260.580                          34.100

 110791186.465 7                  20740343.200                          46.300

 117582809.428 7  91453316.132 6  21957759.820    21957762.240          43.000
        41.300
 122794325.764 7  95506709.986 6  22979284.100    22979288.380          44.200
        40.350
 128063297.285 8                  24369634.960                          51.500

 19  2 28 14 33 12.0000000  0 18G29G20G27G25G15G21G31G16G10G26R22R13
                                R07R23R12R08R11E01
 122389034.404 4                  23289860.840                          29.550

 106376620.088 8  82890850.20947  20242797.480    20242791.460          48.600
        45.800
 129251654.350 7 100715562.56046  24595771.520    24595769.400          42.600
        37.400
 128560197.164 6 100176779.70145  24464191.840    24464192.280          37.000
        31.050
                                  25296560.180                          33.650

 108417123.295 8  84480849.62647  20631092.980    20631086.680          50.150
        44.650
 124628453.980 7  97113061.41145  23716009.940    23716004.800          44.750
        34.750
 118508793.466 7  92344491.87646  22551473.520    22551467.600          46.700
        39.750
 112602115.821 8  87741900.62147  21427468.540    21427466.120          49.000
        45.250
 108681198.354 8  84686638.81847  20681343.540    20681341.240          49.850
        46.800
 112629995.893 7  87601125.753 7  21099394.660    21099397.500          47.150
        45.500
 116761277.226 6  90814340.917 6  21865637.840    21865640.680          40.500
        38.550
 112367382.094 7  87396862.664 6  20991170.300    20991172.080          42.050
        39.000
 118714385.091 7  92333417.366 6  22192400.620    22192406.020          45.300
        36.600
 110796458.521 7                  20741330.140                          46.700

 117575382.995 7  91447540.024 6  21956372.980    21956375.400          43.200
        41.700
 122802651.960 7  95513185.926 6  22980842.260    22980846.460          42.150
        39.250
 128063907.825 8                  24369751.140                          51.650

 19  2 28 14 33 14.0000000  0 18G29G20G27G25G15G21G31G16G10G26R22R13
                                R07R23R12R08R11E01
 122392339.327 6                  23290489.780                          36.000

 106375097.931 8  82889664.11047  20242507.820    20242501.800          48.900
        45.750
 129246727.751 7 100711723.66146  24594834.000    24594832.280          43.100
        36.700
 128567615.871 6 100182560.52646  24465603.740    24465604.340          37.000
        36.600
 132933116.133 6                  25296329.160                          36.350

 108420070.610 8  84483146.23047  20631653.840    20631647.520          50.200
        44.700
 124633467.454 7  97116967.97845  23716963.960    23716958.880          44.550
        34.600
 118502776.731 7  92339803.50746  22550328.580    22550322.620          47.250
        38.250
 112596498.159 8  87737523.21647  21426399.540    21426397.120          49.250
        45.100
 108679028.472 8  84684947.99447  20680930.640    20680928.320          50.050
        46.800
 112630948.514 8  87601866.689 7  21099573.100    21099575.960          48.100
        45.650
 116758180.165 6  90811932.098 6  21865057.820    21865060.720          40.800
        38.500
 112365432.059 6  87395345.978 6  20990806.040    20990807.800          41.500
        40.700
 118711961.793 7  92331532.589 6  22191947.640    22191953.000          45.150
        37.400
 110801735.019 7                  20742317.920                          46.650

 117567959.550 7  91441766.231 6  21954986.700    21954989.120          43.600
        41.950
 122810980.184 7  95519663.438 6  22982400.840    22982404.960          42.600
        38.550
 128064522.234 8                  24369868.060                          51.650

 19  2 28 14 33 16.0000000  0 18G29G20G27G25G15G21G31G16G10G26R22R13
                                R07R23R12R08R11E01
 122395644.385 6                  23291118.720                          38.800

 106373577.578 8  82888479.42047  20242218.500    20242212.480          48.850
        45.850
 129241800.021 7 100707883.87846  24593896.220    24593895.500          43.250
        38.650
 128575034.431 6 100188341.21645  24467015.380    24467016.360          38.500
        31.350
 132931902.146 5                  25296098.920                          35.350

 108423018.404 8  84485443.21447  20632214.780    20632208.480          50.200
        44.200
 124638480.414 7  97120874.16645  23717917.880    23717912.840          44.050
        35.550
 118496760.609 7  92335115.62446  22549183.740    22549177.800          47.050
        37.800
 112590881.499 8  87733146.59647  21425330.720    21425328.280          49.100
        44.950
 108676860.359 8  84683258.55047  20680518.060    20680515.760          49.900
        46.100
 112631900.412 7  87602607.041 7  21099751.420    21099754.300          47.900
        45.900
 116755085.566 6  90809525.198 6  21864478.360    21864481.200          40.750
        39.050
 112363484.523 6  87393831.230 6  20990442.220    20990444.000          41.800
        39.700
 118709537.885 7  92329647.344 6  22191494.480    22191499.900          45.250
        36.550
 110807013.224 7                  20743306.000                          46.150

 117560536.359 7  91435992.636 7  21953600.460    21953602.900          43.650
        42.350
 122819307.937 7  95526140.586 6  22983959.280    22983963.500          42.350
        39.450
 128065137.874 8                  24369985.200                          51.650

 19  2 28 14 33 18.0000000  0 18G29G20G27G25G15G21G31G16G10G26R22R13
                                R07R23R12R08R11E01
 122398949.235 7                  23291747.620                          44.650

 106372058.836 8  82887295.96247  20241929.500    20241923.480          49.100
        46.800
 129236870.960 7 100704043.05246  24592958.220    24592956.660          44.500
        37.350
 128582452.657 6 100194121.64845  24468427.060    24468428.400          39.950
        34.850
 132930688.643 6 103582335.48645  25295867.200    25295865.660          40.200
        32.500
 108425966.461 8  84487740.40947  20632775.780    20632769.480          49.850
        44.250
 124643492.672 7  97124779.82146  23718871.640    23718866.680          43.650
        36.650
 118490744.915 7  92330428.06646  22548038.960    22548033.000          47.100
        37.550
 112585265.666 8  87728770.60747  21424262.080    21424259.620          49.700
        44.850
 108674693.853 8  84681570.36747  20680105.780    20680103.480          49.950
        46.650
 112632851.415 7  87603346.702 7  21099929.580    21099932.460          47.700
        45.850
 116751993.199 6  90807120.034 6  21863899.260    21863902.120          41.400
        38.300
 112361539.153 6  87392318.158 6  20990078.840    20990080.560          38.600
        38.350
 118707113.148 7  92327761.427 6  22191041.200    22191046.640          44.700
        37.500
 110812292.970 7                  20744294.360                          46.250

 117553113.168 7  91430219.058 6  21952214.240    21952216.680          44.250
        41.900
 122827634.833 7  95532617.039 6  22985517.580    22985521.840          45.150
        37.800
 128065754.537 8                  24370102.540                          51.650

 19  2 28 14 33 20.0000000  0 18G29G20G27G25G15G21G31G16G10G26R22R13
                                R07R23R12R08R11E01
 122402254.216 7  95378379.49355  23292376.540    23292374.600          44.750
        31.850
 106370541.986 8  82886113.99647  20241640.860    20241634.820          49.100
        47.100
 129231940.838 7 100700201.40146  24592020.040    24592018.240          44.050
        37.400
 128589870.838 6 100199901.99845  24469838.720    24469839.700          40.650
        33.850
 132929475.710 7 103581390.32945  25295636.740    25295637.300          42.050
        32.100
 108428915.050 8  84490038.00147  20633336.880    20633330.560          49.650
        44.650
 124648504.526 7  97128685.16646  23719825.340    23719820.440          44.300
        36.700
 118484729.941 7  92325741.06546  22546894.340    22546888.400          47.250
        38.100
 112579650.860 8  87724395.42047  21423193.620    21423191.140          49.850
        44.000
 108672529.209 8  84679883.63647  20679693.860    20679691.580          50.050
        46.400
 112633801.861 8  87604085.958 7  21100107.640    21100110.520          48.100
        44.900
 116748903.366 6  90804716.820 6  21863320.600    21863323.480          41.400
        38.350
 112359596.334 7  87390807.066 6  20989715.940    20989717.620          44.000
        40.150
 118704687.884 7  92325875.121 6  22190587.800    22190593.280          45.100
        36.950
 110817574.567 7                  20745283.100                          46.200

 117545690.186 7  91424445.636 6  21950828.080    21950830.500          43.000
        41.250
 122835961.074 7  95539092.961 6  22987075.760    22987080.180          44.850
        41.250
 128066372.492 8                  24370220.140                          51.750

 19  2 28 14 33 22.0000000  0 17G29G20G27G15G21G31G16G10G26R22R13R07
                                R23R12R08R11E01
 122405559.717 7  95380955.10246  23293005.560    23293002.260          47.050
        36.550
 106369027.461 8  82884933.84347  20241352.660    20241346.620          49.150
        46.900
 129227010.086 7 100696359.27446  24591081.720    24591080.020          44.050
        39.100
 132928263.896 6 103580446.06245  25295406.020    25295404.280          41.300
        35.700
 108431864.599 8  84492336.35347  20633898.140    20633891.860          49.800
        43.800
 124653516.342 7  97132590.45146  23720779.040    23720774.160          45.800
        36.300
 118478716.107 7  92321054.97546  22545749.940    22545743.940          47.000
        38.750
 112574037.591 8  87720021.46947  21422125.480    21422122.980          49.050
        44.850
 108670366.844 8  84678198.67647  20679282.360    20679280.100          49.850
        46.400
 112634752.096 8  87604825.011 7  21100285.660    21100288.520          48.200
        45.050
 116745816.539 6  90802315.957 6  21862742.480    21862745.420          41.550
        39.050
 112357656.659 7  87389298.407 6  20989353.600    20989355.260          43.400
        41.350
 118702262.516 7  92323988.736 6  22190134.420    22190139.840          44.600
        36.550
 110822858.434 7                  20746272.260                          46.450

 117538267.978 7  91418672.843 7  21949442.060    21949444.460          46.100
        43.250
 122844287.326 7  95545568.880 6  22988633.940    22988638.620          44.950
        40.900
 128066992.187 8                  24370338.060                          51.750

 19  2 28 14 33 24.0000000  0 18G29G20G27G25G15G21G31G16G10G26R22R13
                                R07R23R12R08R11E01
 122408867.384 7  95383532.46145  23293635.020    23293631.360          45.300
        34.950
 106367516.875 8  82883756.74447  20241065.180    20241059.140          49.000
        46.550
 129222080.332 7 100692517.91046  24590143.580    24590141.620          44.250
        36.950
                                  24472661.460    24472664.780          40.100
        33.200
 132927054.867 6 103579503.95245  25295175.880    25295175.460          40.850
        32.350
 108434816.779 8  84494636.77347  20634459.940    20634453.640          49.900
        44.400
 124658529.785 7  97136497.00145  23721733.040    23721728.220          44.900
        35.600
 118472705.035 7  92316371.03546  22544606.060    22544600.040          46.850
        38.400
 112568427.489 8  87715649.96747  21421057.920    21421055.400          49.300
        45.100
 108668208.414 8  84676516.77847  20678871.620    20678869.360          49.950
        46.650
 112635703.804 7  87605565.229 7  21100463.940    21100466.800          47.600
        45.350
 116742734.374 6  90799918.713 6  21862165.300    21862168.220          41.200
        38.550
 112355721.709 6  87387793.452 6  20988992.120    20988993.820          41.650
        40.500
 118699838.718 7  92322103.554 6  22189681.280    22189686.700          44.850
        36.800
 110828146.222 7                  20747262.180                          46.650

 117530848.311 7  91412901.991 7  21948056.480    21948058.880          46.050
        43.050
 122852615.159 7  95552046.078 6  22990192.420    22990197.100          45.000
        39.100
 128067615.240 8                  24370456.640                          51.700

 19  2 28 14 33 26.0000000  0 18G29G20G27G25G15G21G31G16G10G26R22R13
                                R07R23R12R08R11E01
 122412174.777 7  95386109.64946  23294264.400    23294261.700          45.600
        36.350
 106366007.760 8  82882580.82547  20240778.020    20240771.980          48.800
        46.450
 129217149.109 7 100688675.41546  24589205.200    24589203.600          44.150
        37.150
 128612132.293 6 100217238.27946  24474073.100    24474075.760          37.950
        36.250
 132925846.065 6 103578562.00745  25294946.080    25294944.440          41.200
        32.950
 108437769.076 8  84496937.27247  20635021.740    20635015.440          49.800
        43.400
 124663542.427 7  97140402.94446  23722686.880    23722682.140          46.000
        36.950
 118466694.291 7  92311687.34546  22543462.260    22543456.240          47.000
        38.150
 112562818.046 8  87711278.96247  21419990.480    21419987.960          49.400
        45.600
 108666051.453 8  84674836.03647  20678461.160    20678458.920          49.700
        45.850
 112636654.447 7  87606304.634 7  21100642.020    21100644.880          47.550
        45.550
 116739654.369 6  90797523.160 6  21861588.480    21861591.460          41.050
        39.300
 112353788.792 7  87386290.077 7  20988631.040    20988632.760          43.450
        42.000
 118697413.967 7  92320217.631 6  22189228.000    22189233.380          44.800
        37.000
 110833435.399 7                  20748252.320                          46.350

 117523428.585 7  91407131.103 7  21946670.920    21946673.300          45.250
        43.700
 122860941.956 7  95558522.432 6  22991750.720    22991755.420          43.650
        39.250
 128068239.186 8                  24370575.380                          51.750

 19  2 28 14 33 28.0000000  0 18G29G20G27G25G15G21G31G16G10G26R22R13
                                R07R23R12R08R11E01
 122415483.142 7  95388687.60845  23294893.980    23294891.640          45.150
        35.400
 106364501.380 8  82881407.02547  20240491.360    20240485.320          48.900
        46.200
 129212217.723 7 100684832.76846  24588266.760    24588265.380          44.150
        39.050
 128619553.060 6 100223020.67946  24475485.300    24475486.940          39.750
        36.350
 132924638.841 7 103577621.34645  25294716.520    25294715.640          42.050
        31.750
 108440722.779 8  84499238.84947  20635583.800    20635577.500          50.000
        43.450
 124668555.555 7  97144309.25446  23723640.860    23723636.140          46.400
        40.950
 118460685.095 7  92307004.85846  22542318.720    22542312.780          47.000
        39.150
 112557210.550 8  87706909.48047  21418923.420    21418920.900          49.600
        45.300
 108663897.220 8  84673157.41047  20678051.220    20678048.960          49.850
        46.250
 112637605.405 8  87607044.275 7  21100820.180    21100823.040          48.100
        45.550
 116736577.800 6  90795130.275 6  21861012.280    21861015.320          41.400
        39.000
 112351859.404 7  87384789.456 6  20988270.620    20988272.360          44.250
        41.750
 118694989.468 7  92318331.922 5  22188774.760    22188780.100          45.050
        35.900
 110838727.313 7                  20749242.960                          46.350

 117516010.072 7  91401361.136 7  21945285.580    21945287.940          45.700
        43.850
 122869269.220 6  95564999.158 6  22993309.060    22993313.800          38.900
        38.400
 128068865.294 8                  24370694.520                          51.750

 19  2 28 14 33 30.0000000  0 18G29G20G27G25G15G21G31G16G10G26R22R13
                                R07R23R12R08R11E01
 122418792.448 7  95391266.29445  23295523.720    23295520.960          43.750
        34.550
 106362997.760 8  82880235.37047  20240205.220    20240199.180          48.950
        45.950
 129207286.101 7 100680989.94446  24587328.300    24587326.880          44.150
        38.900
 128626974.479 6 100228803.54545  24476898.400    24476900.220          38.600
        33.900
 132923433.126 6 103576681.82245  25294487.180    25294485.160          41.650
        35.400
 108443677.851 8  84501541.48047  20636146.140    20636139.820          49.950
        43.700
 124673569.024 7  97148215.82546  23724594.920    23724590.180          46.650
        39.200
 118454677.455 7  92302323.58646  22541175.500    22541169.620          46.650
        38.950
 112551604.970 8  87702541.48947  21417856.720    21417854.200          49.700
        45.200
 108661745.679 8  84671480.88347  20677641.800    20677639.540          49.950
        46.550
 112638556.630 8  87607784.116 7  21100998.360    21101001.240          48.600
        45.450
 116733504.622 6  90792740.022 6  21860436.800    21860439.820          41.400
        38.250
 112349933.417 7  87383291.458 6  20987910.840    20987912.580          43.250
        41.200
 118692565.317 7  92316446.487 6  22188321.580    22188326.900          45.400
        36.400
 110844021.907 7                  20750234.120                          46.400

 117508592.686 7  91395592.046 7  21943900.420    21943902.780          45.550
        43.350
 122877596.634 6  95571476.025 6  22994867.440    22994872.180          41.350
        39.700
 128069493.560 8                  24370814.080                          51.700

 19  2 28 14 33 32.0000000  0 18G29G20G27G25G15G21G31G16G10G26R22R13
                                R07R23R12R08R11E01
 122422101.699 6  95393844.92745  23296153.440    23296150.320          40.700
        35.100
 106361495.736 8  82879064.95947  20239919.380    20239913.360          48.700
        46.900
 129202353.144 7 100677146.08146  24586389.580    24586388.500          44.200
        38.250
 128634395.524 6 100234586.16546  24478310.180    24478311.780          41.100
        38.800
 132922227.886 6 103575742.68045  25294257.980    25294256.680          41.750
        32.950
 108446633.193 8  84503844.34247  20636708.520    20636702.200          50.150
        44.400
 124678581.805 7  97152121.86646  23725548.880    23725544.120          47.000
        39.300
 118448670.269 7  92297642.66646  22540032.380    22540026.460          47.450
        38.650
 112546000.214 8  87698174.13547  21416790.180    21416787.660          49.550
        44.550
 108659595.755 8  84669805.61847  20677232.680    20677230.420          50.100
        46.700
 112639506.971 8  87608523.269 7  21101176.380    21101179.280          48.150
        45.100
 116730433.714 7  90790351.533 6  21859861.720    21859864.720          42.000
        38.400
 112348009.735 7  87381795.250 7  20987551.460    20987553.220          43.950
        42.250
 118690140.401 7  92314560.439 6  22187868.260    22187873.560          44.900
        36.750
 110849318.039 7                  20751225.580                          46.700

 117501175.327 7  91389822.993 7  21942515.260    21942517.620          45.650
        44.700
 122885923.209 6  95577952.244 6  22996425.640    22996430.260          41.150
        39.850
 128070122.851 8                  24370933.840                          51.750

 19  2 28 14 33 34.0000000  0 18G29G20G27G25G15G21G31G16G10G26R22R13
                                R07R23R12R08R11E01
 122425411.286 6  95396423.80145  23296783.200    23296780.140          40.450
        33.600
 106359995.881 8  82877896.25047  20239633.980    20239627.940          48.650
        46.250
 129197419.459 7 100673301.68846  24585450.740    24585450.020          44.400
        38.050
 128641816.877 7 100240368.98546  24479722.780    24479723.300          43.550
        38.850
 132921023.537 6 103574804.23645  25294028.860    25294026.800          41.300
        33.950
 108449589.353 8  84506147.83147  20637271.060    20637264.740          49.800
        44.350
 124683594.457 7  97156027.81446  23726502.820    23726498.000          46.450
        37.150
 118442664.094 7  92292962.54246  22538889.440    22538883.520          47.300
        38.150
 112540396.854 8  87693807.87647  21415723.900    21415721.360          49.250
        44.750
 108657447.990 8  84668132.02947  20676823.980    20676821.720          49.900
        46.700
 112640456.963 7  87609262.156 7  21101354.340    21101357.240          47.400
        44.800
 116727365.654 6  90787965.264 6  21859287.200    21859290.180          41.750
        38.950
 112346088.973 7  87380301.320 7  20987192.640    20987194.420          45.750
        43.300
 118687715.222 7  92312674.206 5  22187414.900    22187420.200          45.650
        35.700
 110854616.219 7                  20752217.400                          46.400

 117493758.702 7  91384054.517 7  21941130.260    21941132.600          46.750
        44.700
 122894249.565 6  95584428.315 6  22997983.760    22997988.440          39.300
        41.150
 128070753.731 8                  24371053.920                          51.650

 19  2 28 14 33 36.0000000  0 18G29G20G27G25G15G21G31G16G10G26R22R13
                                R07R23R12R08R11E01
 122428721.210 7  95399002.94045  23297413.000    23297410.140          44.250
        35.500
 106358498.243 8  82876729.27847  20239348.980    20239342.960          48.650
        46.250
 129192484.984 7 100669456.66346  24584511.780    24584510.940          44.600
        38.150
 128649238.375 6 100246151.93345  24481135.200    24481135.120          40.750
        35.800
 132919820.255 7 103573866.59845  25293799.820    25293798.400          42.650
        32.900
 108452546.349 8  84508451.99147  20637833.780    20637827.440          50.100
        44.200
 124688606.968 7  97159933.68146  23727456.740    23727451.880          46.450
        38.700
 118436658.939 7  92288283.20746  22537746.680    22537740.780          47.200
        37.400
 112534794.891 8  87689442.72147  21414657.900    21414655.340          49.600
        44.600
 108655302.407 8  84666460.15447  20676415.680    20676413.420          50.150
        46.400
 112641406.702 8  87610000.856 7  21101532.260    21101535.160          48.150
        45.400
 116724300.454 6  90785581.222 6  21858713.180    21858716.140          41.850
        38.250
 112344171.181 7  87378809.717 7  20986834.400    20986836.180          44.350
        42.400
 118685289.795 7  92310787.763 6  22186961.480    22186966.800          44.550
        36.300
 110859916.542 7                  20753209.620                          46.450

 117486342.745 7  91378286.553 7  21939745.380    21939747.720          45.950
        43.950
 122902575.758 5  95590904.262 6  22999541.900    22999546.580          34.200
        40.200
 128071386.230 8                  24371174.300                          51.750

 19  2 28 14 33 38.0000000  0 18G29G20G27G25G15G21G31G16G10G26R22R13
                                R07R23R12R08R11E01
 122432032.515 6  95401583.23645  23298043.120    23298040.680          41.900
        30.650
 106357003.727 8  82875564.73047  20239064.580    20239058.560          48.450
        46.450
 129187550.731 7 100665611.75446  24583572.800    24583571.800          44.150
        38.700
 128656661.033 7 100251935.83945  24482547.400    24482548.460          42.350
        33.350
 132918618.922 6 103572930.50945  25293571.120    25293569.680          39.900
        30.950
 108455505.146 8  84510757.56747  20638396.800    20638390.480          50.150
        44.000
 124693620.303 7  97163840.20746  23728410.800    23728405.860          46.100
        37.850
 118430655.750 7  92283605.39046  22536604.340    22536598.400          47.450
        39.200
 112529195.252 8  87685079.36647  21413592.320    21413589.760          49.650
        44.850
 108653159.945 8  84664790.70947  20676007.980    20676005.720          50.050
        46.850
 112642357.057 8  87610740.000 7  21101710.280    21101713.200          48.050
        44.300
 116721239.069 6  90783200.164 6  21858139.900    21858142.840          41.700
        38.350
 112342257.079 7  87377320.985 6  20986476.780    20986478.640          43.350
        40.850
 118682865.042 7  92308901.840 6  22186508.180    22186513.520          44.650
        36.400
 110865219.944 7                  20754202.420                          46.850

 117478928.321 7  91372519.801 7  21938360.780    21938363.120          45.850
        43.700
 122910902.627 5  95597380.699 6  23001100.240    23001104.860          35.650
        39.550
 128072021.266 8                  24371295.140                          51.800

 19  2 28 14 33 40.0000000  0 20G29G20G27G25G15G21G31G16G10G26R22R13
                                R07R21R23R06R12R08R11E01
 122435345.237 7  95404164.55144  23298673.480    23298670.360          44.200
        28.900
 106355512.306 8  82874402.55747  20238780.780    20238774.740          48.500
        46.300
 129182616.608 7 100661766.98546  24582633.860    24582632.800          44.000
        40.800
 128664084.790 6 100257720.59345  24483960.240    24483960.980          39.050
        35.100
 132917419.300 6 103571995.77145  25293342.840    25293342.060          39.250
        31.700
 108458465.652 8  84513064.45847  20638960.180    20638953.840          50.150
        43.850
 124698634.414 7  97167747.32646  23729365.000    23729360.040          45.750
        38.600
 118424654.462 7  92278929.06346  22535462.340    22535456.360          47.350
        38.050
 112523597.893 8  87680717.78747  21412527.180    21412524.620          49.700
        44.850
 108651020.530 8  84663123.62647  20675600.860    20675598.600          49.950
        46.600
 112643308.025 7  87611479.642 7  21101888.440    21101891.340          47.900
        44.950
 116718181.428 6  90780822.004 6  21857567.280    21857570.240          41.550
        38.200
 112340346.803 7  87375835.242 6  20986119.920    20986121.800          42.800
        40.800
                                  23731058.040                          37.250

 118680440.995 7  92307016.470 6  22186055.020    22186060.380          44.950
        37.250
                                  23137276.720                          39.300

 110870526.391 7                  20755195.800                          46.400

 117471515.484 7  91366754.251 7  21936976.520    21936978.800          45.950
        43.350
 122919230.154 5  95603857.632 6  23002658.580    23002663.260          35.800
        39.400
 128072658.799 8                  24371416.460                          51.800

 19  2 28 14 33 42.0000000  0 20G29G20G27G25G15G21G31G16G10G26R22R13
                                R07R21R23R06R12R08R11E01
 122438658.385 7  95406746.18545  23299303.960    23299300.680          45.400
        34.250
 106354023.107 8  82873242.12747  20238497.380    20238491.340          48.500
        46.700
 129177681.754 7 100657921.66046  24581694.780    24581693.660          44.800
        38.400
 128671508.844 6 100263505.56245  24485373.120    24485374.020          38.900
        35.750
 132916220.831 5 103571061.97544  25293114.740    25293111.520          35.950
        26.900
 108461427.043 8  84515372.03247  20639523.720    20639517.380          50.150
        44.000
 124703648.406 7  97171654.31146  23730319.140    23730314.140          45.250
        38.250
 118418654.236 7  92274253.56446  22534320.540    22534314.560          46.950
        39.850
 112518001.955 8  87676357.31647  21411462.300    21411459.740          49.700
        45.300
 108648883.326 8  84661458.27047  20675194.160    20675191.920          50.000
        47.000
 112644258.701 7  87612219.056 7  21102066.520    21102069.460          47.900
        45.400
 116715126.673 6  90778446.082 6  21856995.280    21856998.160          41.550
        38.150
 112338439.456 7  87374351.746 6  20985763.600    20985765.500          43.600
        41.900
                                  23731713.360    23731719.260          37.400
        33.700
 118678016.732 7  92305130.936 6  22185601.820    22185607.220          44.200
        36.800
 123469595.040 6                  23138147.940                          38.500

 110875835.047 7                  20756189.580                          46.050

 117464103.354 7  91360989.248 7  21935592.380    21935594.600          45.550
        43.550
 122927557.335 6  95610334.317 6  23004216.900    23004221.600          39.450
        38.250
 128073297.975 8                  24371538.080                          51.750

 19  2 28 14 33 44.0000000  0 20G29G20G27G25G15G21G31G16G10G26R22R13
                                R07R21R23R06R12R08R11E01
 122441972.615 7  95409328.68445  23299934.640    23299931.520          44.800
        35.700
 106352536.750 8  82872083.92247  20238214.520    20238208.500          48.600
        47.100
 129172746.797 7 100654076.26246  24580755.660    24580754.640          43.850
        38.400
 128678933.758 6 100269291.25046  24486786.040    24486785.720          40.350
        36.850
 132915023.987 5 103570129.34445  25292887.000    25292883.020          34.950
        32.400
 108464389.924 8  84517680.77247  20640087.540    20640081.220          49.950
        43.600
 124708662.945 7  97175561.72146  23731273.360    23731268.340          46.050
        39.350
 118412655.690 7  92269579.37646  22533179.060    22533173.100          46.850
        38.650
 112512408.075 8  87671998.44747  21410397.840    21410395.260          49.900
        44.850
 108646748.951 8  84659795.11947  20674788.000    20674785.760          49.900
        46.800
 112645209.744 8  87612958.761 7  21102244.700    21102247.640          48.400
        45.200
 116712075.501 6  90776072.946 6  21856423.880    21856426.760          41.750
        38.500
 112336535.692 7  87372871.022 6  20985407.960    20985409.860          43.350
        40.850
 126996685.764 6                  23732367.880    23732372.360          36.950
        35.100
 118675592.960 7  92303245.792 6  22185148.720    22185154.140          44.850
        37.250
 123474249.821 6                  23139020.020                          38.750

 110881146.451 7                  20757183.880                          46.350

 117456692.485 7  91355225.229 7  21934208.480    21934210.620          45.000
        43.500
 122935885.083 6  95616811.458 6  23005775.340    23005780.020          38.400
        38.800
 128073939.399 8                  24371660.140                          51.800

 19  2 28 14 33 46.0000000  0 20G29G20G27G25G15G21G31G16G10G26R22R13
                                R07R21R23R06R12R08R11E01
 122445287.123 7  95411911.42846  23300565.360    23300562.300          46.000
        37.150
 106351052.483 8  82870927.35347  20237932.060    20237926.040          48.400
        47.100
 129167811.008 7 100650230.22546  24579816.380    24579815.360          43.750
        37.450
 128686358.710 6 100275076.92944  24488198.920    24488198.640          38.350
        27.800
 132913828.096 6 103569197.41745  25292659.460    25292655.900          37.700
        32.550
 108467353.543 8  84519990.08447  20640651.500    20640645.180          49.700
        44.050
 124713677.255 7  97179468.97346  23732227.560    23732222.520          44.850
        38.250
 118406658.065 7  92264905.91046  22532037.740    22532031.800          47.200
        39.350
 112506815.490 8  87667640.58447  21409333.620    21409331.020          49.800
        44.900
 108644616.649 8  84658133.58547  20674382.220    20674379.980          49.850
        46.300
 112646160.417 8  87613698.179 7  21102422.760    21102425.740          48.250
        44.900
 116709027.055 6  90773701.939 6  21855853.000    21855855.860          41.700
        38.150
 112334634.729 7  87371392.505 7  20985052.820    20985054.760          44.250
        42.300
 127000181.972 6  98777945.934 5  23733021.280    23733025.300          37.050
        35.100
 118673168.774 7  92301360.304 6  22184695.560    22184700.960          44.950
        36.950
 123478906.750 6                  23139892.240                          38.900

 110886459.839 7                  20758178.560                          46.300

 117449282.168 7  91349461.653 7  21932824.660    21932826.760          44.300
        43.250
 122944212.452 6  95623288.301 6  23007333.680    23007338.400          37.400
        39.200
 128074582.321 8                  24371782.480                          51.800

 19  2 28 14 33 48.0000000  0 20G29G20G27G25G15G21G31G16G10G26R22R13
                                R07R21R23R06R12R08R11E01
 122448602.089 7  95414494.49345  23301196.160    23301192.700          45.600
        35.750
 106349570.406 8  82869772.48947  20237650.040    20237644.020          48.150
        47.200
 129162874.462 7 100646383.56846  24578876.960    24578875.840          44.150
        37.400
 128693783.970 6 100280862.79345  24489611.860    24489613.000          36.850
        33.650
 132912633.087 6 103568266.23845  25292431.980    25292428.680          39.100
        32.900
 108470317.985 8  84522300.03647  20641215.600    20641209.280          49.700
        42.750
 124718691.449 7  97183376.14046  23733181.700    23733176.620          44.350
        37.300
 118400661.476 7  92260233.24146  22530896.640    22530890.680          47.050
        38.800
 112501224.309 8  87663283.81547  21408269.660    21408267.080          49.750
        44.900
 108642486.521 8  84656473.74147  20673976.880    20673974.640          50.000
        46.350
 112647110.777 8  87614437.344 7  21102600.820    21102603.800          48.050
        45.150
 116705981.522 6  90771333.195 6  21855282.680    21855285.520          41.750
        38.150
 112332736.618 7  87369916.174 6  20984698.260    20984700.180          43.250
        40.700
 127003677.695 6  98780664.822 5  23733674.320    23733678.920          37.550
        35.550
 118670744.342 7  92299474.633 6  22184242.320    22184247.740          45.000
        37.050
 123483566.075 6                  23140764.880                          38.650

 110891775.301 7                  20759173.620                          46.550

 117441872.554 7  91343698.622 7  21931440.960    21931443.040          44.200
        43.800
 122952539.609 6  95629764.947 6  23008892.020    23008896.700          36.750
        39.300
 128075226.862 8                  24371905.140                          51.750

 19  2 28 14 33 50.0000000  0 20G29G20G27G25G15G21G31G16G10G26R22R13
                                R07R21R23R06R12R08R11E01
 122451917.929 7  95417078.25946  23301827.160    23301823.540          46.200
        36.850
 106348090.966 8  82868619.68347  20237368.500    20237362.500          48.450
        47.150
 129157937.608 7 100642536.67146  24577937.500    24577936.360          44.300
        38.500
 128701209.827 6 100286649.14245  24491025.000    24491026.240          37.900
        35.250
 132911439.606 6 103567336.32045  25292204.900    25292202.260          37.200
        32.000
 108473283.712 8  84524611.00247  20641779.960    20641773.640          49.650
        43.550
 124723705.917 7  97187283.52046  23734135.860    23734130.800          44.450
        39.800
 118394666.340 7  92255561.70746  22529755.800    22529749.880          47.150
        38.600
 112495634.948 8  87658928.46747  21407206.040    21407203.460          49.800
        44.950
 108640359.028 8  84654815.95447  20673572.020    20673569.800          50.000
        46.850
 112648061.300 7  87615176.638 7  21102778.860    21102781.880          47.850
        44.850
 116702939.262 6  90768966.991 6  21854712.940    21854715.800          41.500
        37.950
 112330841.832 7  87368442.460 6  20984344.280    20984346.220          43.800
        40.900
 127007173.440 5  98783383.705 5  23734328.120    23734332.840          35.800
        34.650
 118668320.145 7  92297589.159 6  22183789.120    22183794.520          45.600
        37.200
 123488228.228 6                  23141638.220                          39.450

 110897093.326 7                  20760169.160                          46.200

 117434464.079 7  91337936.494 7  21930057.420    21930059.560          44.300
        44.000
 122960866.957 6  95636241.773 6  23010450.400    23010455.040          37.550
        38.300
 128075873.444 8                  24372028.180                          51.700

 19  2 28 14 33 52.0000000  0 20G29G20G27G25G15G21G31G16G10G26R22R13
                                R07R21R23R06R12R08R11E01
 122455234.656 7  95419662.70746  23302458.320    23302454.780          47.900
        39.050
 106346614.212 8  82867468.96347  20237087.480    20237081.480          48.450
        46.950
 129153000.494 7 100638689.57346  24576997.980    24576996.940          44.550
        39.650
 128708636.403 6 100292436.01146  24492438.020    24492439.200          37.000
        36.000
 132910247.556 6 103566407.44445  25291978.020    25291975.700          38.650
        31.600
 108476250.791 8  84526923.00847  20642344.580    20642338.260          49.800
        43.600
 124728720.774 7  97191191.19046  23735090.120    23735085.080          43.700
        40.200
 118388672.738 7  92250891.37646  22528615.240    22528609.300          47.100
        39.000
 112490047.487 8  87654574.60347  21406142.800    21406140.200          49.700
        45.400
 108638234.193 8  84653160.23947  20673167.680    20673165.440          50.000
        46.950
 112649012.007 8  87615916.077 7  21102956.960    21102959.980          48.400
        45.200
 116699900.385 6  90766603.422 6  21854143.860    21854146.720          41.100
        38.350
 112328950.504 7  87366971.424 7  20983990.980    20983992.900          46.100
        43.950
 127010669.110 6  98786102.535 5  23734980.500    23734986.020          37.400
        34.700
 118665896.173 7  92295703.851 6  22183335.980    22183341.360          45.350
        36.300
 123492893.218 6                  23142512.560                          39.300

 110902413.966 7                  20761165.200                          46.450

 117427056.723 7  91332175.223 7  21928674.100    21928676.280          44.600
        44.750
 122969194.520 6  95642718.780 6  23012008.800    23012013.440          37.950
        38.650
 128076522.131 8                  24372151.640                          51.650

 19  2 28 14 33 54.0000000  0 20G29G20G27G25G15G21G31G16G10G26R22R13
                                R07R21R23R06R12R08R11E01
 122458552.422 7  95422247.97346  23303089.680    23303085.960          47.350
        40.000
 106345140.248 8  82866320.42847  20236807.000    20236801.000          48.700
        46.700
 129148063.191 7 100634842.33146  24576058.460    24576057.360          44.700
        38.350
 128716063.741 6 100298223.58045  24493851.280    24493852.340          38.600
        30.800
 132909057.049 6 103565479.74745  25291751.460    25291749.200          41.000
        34.300
 108479219.259 8  84529236.07947  20642909.460    20642903.140          49.800
        43.750
 124733736.077 7  97195099.21246  23736044.440    23736039.460          44.300
        39.250
 118382680.731 7  92246222.28246  22527475.000    22527469.080          46.900
        38.250
 112484462.001 8  87650222.27747  21405079.920    21405077.320          49.750
        45.250
 108636112.110 8  84651506.66847  20672763.860    20672761.620          50.000
        46.700
 112649963.008 8  87616655.744 7  21103135.100    21103138.140          48.300
        44.750
 116696864.923 6  90764242.511 6  21853575.480    21853578.280          41.900
        38.500
 112327062.604 7  87365503.054 7  20983638.300    20983640.240          46.400
        44.300
 127014165.002 5  98788821.547 5  23735634.140    23735638.880          34.950
        33.950
 118663472.552 7  92293818.808 6  22182882.900    22182888.240          44.900
        36.250
 123497561.131 6                  23143387.300                          37.900

 110907737.307 7                  20762161.740                          46.650

 117419650.623 7  91326414.941 7  21927291.020    21927293.240          45.000
        44.000
 122977522.453 6  95649196.044 6  23013567.200    23013571.960          37.800
        38.400
 128077172.983 8                  24372275.480                          51.600

 19  2 28 14 33 56.0000000  0 20G29G20G27G25G15G21G31G16G10G26R22R13
                                R07R21R23R06R12R08R11E01
 122461870.620 8  95424833.58046  23303721.100    23303717.380          48.950
        39.850
 106343668.541 8  82865173.64047  20236526.940    20236520.940          48.450
        46.550
 129143125.253 7 100630994.57246  24575118.800    24575117.480          44.100
        38.850
 128723491.408 6 100304011.37045  24495264.740    24495265.140          36.900
        34.350
 132907867.601 7 103564552.91545  25291525.020    25291523.400          43.950
        34.200
 108482188.650 8  84531549.87947  20643474.520    20643468.200          49.850
        43.900
 124738751.310 7  97199007.16946  23736998.780    23736993.860          42.900
        40.200
 118376689.838 7  92241554.06246  22526334.980    22526329.040          47.150
        38.550
 112478877.990 8  87645871.09547  21404017.320    21404014.720          49.300
        45.300
 108633992.297 8  84649854.86347  20672360.460    20672358.240          49.950
        46.800
 112650913.795 8  87617395.233 7  21103313.200    21103316.240          48.000
        45.100
 116693832.423 6  90761883.914 6  21853007.580    21853010.400          41.550
        38.650
 112325177.745 7  87364037.055 7  20983286.180    20983288.120          45.750
        44.550
 127017660.226 5  98791540.073 6  23736287.040    23736291.940          35.500
        37.200
 118661048.818 7  92291933.673 5  22182429.800    22182435.140          45.650
        35.800
 123502231.430 6                  23144262.680                          40.200

 110913062.934 7                  20763158.720                          47.050

 117412245.237 7  91320655.206 7  21925908.080    21925910.340          45.300
        43.750
 122985850.198 6  95655673.164 6  23015125.660    23015130.380          38.150
        39.700
 128077825.537 8                  24372399.640                          51.700

 19  2 28 14 33 58.0000000  0 20G29G20G27G25G15G21G31G16G10G26R22R13
                                R07R21R23R06R12R08R11E01
 122465189.850 6                  23304352.720                          38.250

 106342199.438 8  82864028.89247  20236247.380    20236241.400          49.250
        46.200
 129138186.907 7 100627146.52846  24574179.080    24574177.780          44.100
        37.800
 128730919.616 6 100309799.59245  24496678.240    24496678.120          36.000
        35.300
 132906679.794 6 103563627.33144  25291298.960    25291297.860          36.100
        26.750
 108485159.248 8  84533864.64347  20644039.800    20644033.480          49.550
        43.700
 124743766.839 7  97202915.35446  23737953.160    23737948.300          44.000
        39.950
 118370700.354 7  92236886.94546  22525195.220    22525189.240          47.000
        39.450
 112473295.787 8  87641521.34547  21402955.060    21402952.460          49.200
        45.300
 108631875.043 8  84648205.06747  20671957.580    20671955.340          49.900
        46.350
 112651864.623 8  87618134.761 7  21103491.320    21103494.380          48.700
        44.550
 116690803.192 7  90759527.858 6  21852440.320    21852443.120          42.050
        38.650
 112323296.224 7  87362573.647 7  20982934.720    20982936.620          45.350
        42.750
 127021155.569 5  98794258.676 4  23736939.540    23736945.540          30.600
        26.350
 118658625.260 7  92290048.667 6  22181976.740    22181982.060          44.700
        36.400
 123506904.459 6                  23145138.560                          40.850

 110918391.034 7                  20764156.180                          46.900

 117404840.853 7  91314896.259 7  21924525.340    21924527.660          45.350
        42.800
 122994178.117 6  95662150.433 6  23016684.120    23016688.880          37.600
        40.550
 128078480.073 8                  24372524.200                          51.800

 19  2 28 14 34  0.0000000  0 20G29G20G27G25G15G21G31G16G10G26R22R13
                                R07R21R23R06R12R08R11E01
 122468510.042 6  95429998.19244  23304984.520    23304980.140          36.700
        29.700
 106340733.160 8  82862886.32747  20235968.340    20235962.360          49.100
        46.250
 129133248.482 7 100623298.40546  24573239.320    24573238.100          43.600
        38.700
 128738348.610 5                  24498091.960                          34.300

 132905493.347 5 103562710.58644  25291072.900    25291071.480          33.050
        26.550
 108488131.355 8  84536180.57447  20644605.380    20644599.060          49.450
        43.950
 124748782.870 7  97206823.93146  23738907.640    23738902.820          44.850
        38.650
 118364712.566 7  92232221.11546  22524055.780    22524049.780          47.150
        39.400
 112467715.617 8  87637173.17747  21401893.180    21401890.600          49.250
        45.000
 108629760.606 8  84646557.44647  20671555.200    20671552.980          50.000
        46.050
 112652815.842 8  87618874.607 7  21103669.500    21103672.600          48.550
        44.750
 116687777.543 6  90757174.563 6  21851873.700    21851876.520          41.250
        38.400
 112321418.257 7  87361113.023 7  20982583.880    20982585.800          43.750
        43.600
 127024650.878 5  98796977.320 4  23737592.280    23737598.560          31.000
        28.700
 118656202.101 7  92288163.992 6  22181523.760    22181529.080          44.800
        36.550
 123511580.433 6                  23146015.020                          40.600

 110923721.895 7                  20765154.120                          46.650

 117397437.797 7  91309138.333 6  21923142.860    21923145.260          43.950
        37.750
 123002506.464 6  95668628.002 6  23018242.660    23018247.420          37.950
        39.700
 128079136.868 8                  24372649.160                          51.750

 19  2 28 14 34  2.0000000  0 20G29G20G27G25G15G21G31G16G10G26R22R13
                                R07R21R23R06R12R08R11E01
 122471830.954 6  95432586.05644  23305616.540    23305611.580          36.050
        29.200
 106339269.312 8  82861745.65947  20235689.780    20235683.820          49.100
        46.100
 129128309.526 7 100619449.89146  24572299.440    24572298.320          44.450
        39.050
 128745778.103 4 100321375.67044  24499505.840    24499504.200          28.800
        26.100
 132904308.178 5 103561788.25345  25290847.420    25290846.660          34.650
        32.750
 108491104.483 8  84538497.29947  20645171.140    20645164.820          49.900
        43.700
 124753798.922 7  97210732.52946  23739862.160    23739857.420          45.650
        39.250
 118358726.014 7  92227556.26546  22522916.580    22522910.540          47.000
        38.950
 112462137.058 8  87632826.25847  21400831.620    21400829.020          49.350
        45.050
 108627648.581 8  84644911.71647  20671153.300    20671151.060          49.950
        46.300
 112653766.993 8  87619614.403 7  21103847.680    21103850.780          48.150
        44.400
 116684754.945 6  90754823.655 6  21851307.660    21851310.460          41.750
        38.100
 112319543.277 7  87359654.711 6  20982233.600    20982235.520          44.200
        41.900
 127028146.074 5  98799695.883 4  23738246.060    23738251.600          30.650
        25.650
 118653778.934 7  92286279.322 6  22181070.780    22181076.100          44.550
        36.550
 123516259.003 6                  23146891.900                          40.250

 110929055.035 7                  20766152.480                          46.450

 117390035.721 7  91303381.162 7  21921760.600    21921763.040          45.600
        42.750
 123010834.709 6  95675105.491 6  23019801.160    23019805.900          38.100
        39.950
 128079795.466 8                  24372774.480                          51.800

 19  2 28 14 34  4.0000000  0 20G29G20G27G25G15G21G31G16G10G26R22R13
                                R07R21R23R06R12R08R11E01
 122475152.181 6  95435173.95045  23306248.560    23306243.720          40.000
        32.700
 106337807.681 8  82860606.72447  20235411.640    20235405.680          49.050
        45.600
 129123369.817 7 100615600.76446  24571359.420    24571358.400          44.300
        38.650


 132903123.938 5 103560865.50145  25290621.920    25290621.420          32.800
        30.200
 108494078.489 8  84540814.70647  20645737.080    20645730.760          49.550
        44.050
 124758814.919 7  97214641.10246  23740816.680    23740812.000          44.950
        38.750
 118352740.511 7  92222892.23646  22521777.580    22521771.560          46.800
        38.700
 112456559.949 8  87628480.45547  21399770.320    21399767.740          49.400
        44.350
 108625538.753 8  84643267.69447  20670751.820    20670749.580          50.050
        46.700
 112654717.863 8  87620353.960 7  21104025.800    21104028.920          48.250
        44.400
 116681735.257 6  90752475.009 6  21850742.160    21850744.960          41.350
        38.250
 112317671.273 7  87358198.727 7  20981883.900    20981885.800          43.950
        42.850
 127031640.749 5  98802413.932 4  23738899.560    23738905.460          32.700
        28.050
 118651355.543 7  92284394.476 6  22180617.720    22180623.100          45.000
        37.050
 123520939.961 6                  23147769.340                          40.350

 110934390.318 7                  20767151.280                          46.600

 117382634.288 7  91297624.500 6  21920378.460    21920380.920          44.750
        41.700
 123019162.700 6  95681582.807 6  23021359.600    23021364.400          37.700
        40.250
 128080455.701 8                  24372900.140                          51.600

 19  2 28 14 34  6.0000000  0 20G29G20G27G25G15G21G31G16G10G26R22R13
                                R07R21R23R06R12R08R11E01
 122478474.850 6  95437762.99845  23306880.880    23306875.840          39.450
        32.050
 106336349.186 8  82859470.23447  20235134.080    20235128.140          49.350
        45.950
 129118430.322 7 100611751.81446  24570419.440    24570418.440          43.900
        39.450


 132901941.852 5                  25290396.900                          34.250

 108497054.258 8  84543133.48547  20646303.340    20646297.040          49.600
        43.900
 124763831.660 7  97218550.22646  23741771.320    23741766.700          44.900
        38.850
 118346756.980 7  92218229.76546  22520638.960    22520632.920          47.050
        39.400
 112450985.176 8  87624136.47647  21398709.500    21398706.880          49.550
        44.350
 108623432.033 8  84641626.09447  20670350.920    20670348.680          50.050
        46.700
 112655669.368 8  87621094.018 7  21104204.040    21104207.160          48.350
        44.100
 116678719.387 6  90750129.339 6  21850177.380    21850180.180          41.250
        38.700
 112315803.167 7  87356745.757 7  20981534.900    20981536.820          42.950
        43.050
 127035135.847 5                  23739553.180    23739554.440          31.550
        30.600
 118648932.804 7  92282510.130 6  22180164.800    22180170.200          44.900
        36.050
 123525624.251 6                  23148647.440                          40.750

 110939728.682 7                  20768150.640                          46.300

 117375234.530 7  91291869.173 7  21918996.640    21918999.120          44.800
        42.150
 123027491.428 6  95688060.707 6  23022918.280    23022922.980          38.550
        38.800
 128081118.476 8                  24373026.260                          51.800

 19  2 28 14 34  8.0000000  0 20G29G20G27G25G15G21G31G16G10G26R22R13
                                R07R21R23R06R12R08R11E01
 122481798.613 6  95440352.88645  23307513.360    23307508.300          40.200
        31.900
 106334893.599 8  82858336.01647  20234857.100    20234851.160          49.450
        45.950
 129113490.755 7 100607902.80246  24569479.460    24569478.620          43.600
        38.700


 132900761.353 5 103559006.35743  25290172.240    25290175.980          32.700
        23.100
 108500031.566 8  84545453.46647  20646869.920    20646863.600          49.700
        44.000
 124768848.992 7  97222459.82746  23742726.060    23742721.540          46.050
        37.600
 118340775.199 7  92213568.64546  22519500.660    22519494.640          47.250
        39.100
 112445412.500 8  87619794.12947  21397649.040    21397646.420          49.550
        44.650
 108621328.211 8  84639986.74847  20669950.560    20669948.320          50.000
        46.550
 112656621.324 8  87621834.430 7  21104382.360    21104385.500          48.300
        44.050
 116675707.087 6  90747786.441 6  21849613.240    21849616.040          41.200
        38.500
 112313938.644 7  87355295.571 7  20981186.540    20981188.520          43.050
        42.450
 127038631.193 5                  23740205.640    23740210.160          32.600
        28.350
 118646510.546 7  92280626.149 6  22179711.980    22179717.380          44.950
        36.300
 123530311.610 6                  23149526.060                          40.950

 110945069.869 7                  20769150.540                          46.900

 117367836.109 7  91286114.851 6  21917615.120    21917617.560          44.150
        41.300
 123035820.531 6  95694538.914 6  23024477.000    23024481.620          40.850
        39.550
 128081783.572 8                  24373152.820                          51.800

 19  2 28 14 34 10.0000000  0 19G29G20G27G25G21G31G16G10G26R22R13R07
                                R21R23R06R12R08R11E01
 122485122.357 6  95442942.79444  23308145.880    23308141.220          40.350
        27.500
 106333439.730 8  82857203.13447  20234580.440    20234574.500          49.550
        46.050
 129108550.007 7 100604052.88546  24568539.260    24568538.500          43.850
        39.800


 108503009.235 8  84547773.73347  20647436.560    20647430.240          49.750
        42.850
 124773865.719 7  97226368.96345  23743680.740    23743676.240          45.600
        35.500
 118334793.989 7  92208907.96846  22518362.460    22518356.460          47.450
        38.700
 112439840.786 8  87615452.52947  21396588.780    21396586.160          49.700
        45.300
 108619226.110 8  84638348.74747  20669550.540    20669548.320          50.150
        46.050
 112657572.499 8  87622574.224 7  21104560.540    21104563.680          48.800
        43.650
 116672697.180 6  90745445.402 6  21849049.580    21849052.380          41.150
        37.950
 112312076.503 7  87353847.242 7  20980838.640    20980840.660          43.250
        42.100
 127042125.627 5  98810552.780 5  23740858.400    23740865.200          32.500
        30.650
 118644087.596 7  92278741.637 6  22179259.000    22179264.400          45.250
        37.050
 123535000.743 6                  23150404.980                          40.600

 110950412.694 7                  20770150.740                          47.250

 117360437.883 7  91280360.686 6  21916233.620    21916236.040          43.950
        41.550
 123044149.000 6  95701016.600 6  23026035.620    23026040.160          41.850
        39.050
 128082449.800 8                  24373279.620                          51.900

 19  2 28 14 34 12.0000000  0 19G29G20G27G25G21G31G16G10G26R22R13R07
                                R21R23R06R12R08R11E01
 122488445.124 6  95445531.95045  23308778.160    23308773.780          40.600
        32.100
 106331986.757 8  82856070.95747  20234303.940    20234298.000          49.150
        45.650
 129103607.160 7 100600201.32246  24567598.660    24567597.800          43.350
        38.600


 108505986.428 8  84550093.63447  20648003.100    20647996.800          49.750
        43.650
 124778880.999 7  97230276.98646  23744635.100    23744630.680          45.800
        36.350
 118328812.495 7  92204247.05746  22517224.200    22517218.220          46.700
        38.350
 112434269.155 8  87611110.98547  21395528.540    21395525.900          49.450
        45.200
 108617124.868 8  84636711.41247  20669150.700    20669148.460          50.100
        46.100
 112658522.015 8  87623312.733 7  21104738.420    21104741.560          48.700
        43.600
 116669688.789 6  90743105.540 6  21848486.220    21848488.980          41.150
        38.350
 112310215.980 7  87352400.174 7  20980491.060    20980493.100          43.950
        42.550
 127045618.228 5  98813269.154 5  23741511.480    23741518.480          34.950
        31.300
 118641663.091 7  92276855.917 6  22178805.760    22178811.160          45.500
        36.750
 123539690.965 6                  23151284.260                          40.000

 110955756.291 7                  20771151.040                          46.700

 117353039.044 7  91274606.021 7  21914852.000    21914854.360          44.350
        42.550
 123052475.813 6  95707493.048 6  23027593.940    23027598.380          39.600
        39.800
 128083116.315 8                  24373406.460                          51.700

 19  2 28 14 34 14.0000000  0 19G29G20G27G25G21G31G16G10G26R22R13R07
                                R21R23R06R12R08R11E01
 122491768.387 6  95448121.49644  23309410.560    23309406.420          39.100
        27.650
 106330535.895 8  82854940.41147  20234027.860    20234021.900          49.250
        46.000
 129098663.535 7 100596349.16846  24566657.900    24566657.020          44.200
        39.600


 108508964.383 8  84552414.10447  20648569.780    20648563.480          49.650
        43.400
 124783896.071 7  97234184.82846  23745589.440    23745585.020          46.350
        38.150
 118322831.968 7  92199586.89646  22516086.140    22516080.180          46.900
        38.800
 112428698.852 8  87606770.49147  21394468.560    21394465.920          49.550
        45.150
 108615025.726 8  84635075.71947  20668751.240    20668749.000          50.150
        46.400
 112659471.137 8  87624050.933 7  21104916.240    21104919.360          48.400
        43.950
 116666683.222 6  90740767.890 6  21847923.380    21847926.120          41.250
        38.200
 112308358.239 7  87350955.258 7  20980144.020    20980146.060          44.250
        42.350
 127049110.166 5  98815985.087 4  23742164.160    23742168.780          34.200
        27.850
 118639238.285 7  92274969.963 6  22178352.480    22178357.840          44.950
        36.550
 123544383.382 6                  23152163.780                          40.650

 110961101.933 7                  20772151.760                          46.600

 117345640.810 7  91268851.833 6  21913470.500    21913472.800          44.100
        41.500
 123060802.295 6  95713969.211 6  23029152.180    23029156.580          41.550
        38.500
 128083784.351 8                  24373533.580                          51.700

 19  2 28 14 34 16.0000000  0 19G29G20G27G25G21G31G16G10G26R22R13R07
                                R21R23R06R12R08R11E01
 122495092.208 6  95450711.49845  23310043.060    23310039.200          39.950
        35.000
 106329087.504 8  82853811.78547  20233752.240    20233746.280          49.250
        45.400
 129093719.417 7 100592496.60646  24565717.060    24565716.080          44.300
        37.500


 108511943.442 8  84554735.43247  20649136.680    20649130.340          49.700
        43.550
 124788911.288 7  97238092.78546  23746543.820    23746539.360          46.550
        36.500
 118316852.738 7  92194927.75646  22514948.320    22514942.360          46.950
        38.200
 112423130.246 8  87602431.31747  21393408.880    21393406.240          49.550
        44.250
 108612929.061 8  84633441.95047  20668352.260    20668350.000          50.200
        46.250
 112660420.254 8  87624789.151 7  21105094.040    21105097.160          48.250
        44.050
 116663680.796 6  90738432.670 6  21847361.160    21847363.820          40.850
        37.800
 112306503.673 7  87349512.797 7  20979797.580    20979799.600          44.550
        43.150
 127052601.932 5                  23742816.440                          33.650

 118636813.484 7  92273084.004 6  22177899.180    22177904.540          44.900
        36.650
 123549078.412 6                  23153043.760                          40.300

 110966449.937 7                  20773152.880                          46.500

 117338243.497 7  91263098.359 6  21912089.120    21912091.400          43.000
        41.550
 123069128.902 6  95720445.450 6  23030710.400    23030714.800          40.100
        39.450
 128084454.276 8                  24373661.040                          51.750

 19  2 28 14 34 18.0000000  0 19G29G20G27G25G21G31G16G10G26R22R13R07
                                R21R23R06R12R08R11E01
 122498416.725 6  95453302.04544  23310675.720    23310671.840          40.150
        28.700
 106327641.492 8  82852685.01647  20233477.080    20233471.120          49.300
        45.750
 129088774.754 7 100588643.62846  24564776.120    24564775.080          44.050
        39.200
 128805217.496 5 100367716.14845  24510818.240    24510820.940          35.050
        34.100
 108514923.528 8  84557057.57147  20649703.760    20649697.420          49.800
        43.450
 124793926.557 7  97242000.76846  23747498.200    23747493.700          46.100
        36.700
 118310874.733 7  92190269.58546  22513810.760    22513804.800          47.050
        38.250
 112417563.235 8  87598093.39347  21392349.520    21392346.880          49.700
        44.700
 108610834.756 8  84631810.02447  20667953.740    20667951.460          50.100
        46.100
 112661369.261 8  87625527.268 7  21105271.820    21105274.960          48.350
        44.100
 116660681.472 6  90736099.860 6  21846799.480    21846802.080          41.300
        37.950
 112304652.268 7  87348072.820 7  20979451.740    20979453.760          44.550
        42.600
 127056093.444 5                  23743468.980    23743475.220          33.950
        31.600
 118634388.618 7  92271197.994 6  22177445.860    22177451.240          44.650
        36.200
 123553775.970 6                  23153924.180                          40.850

 110971800.200 7                  20774154.460                          46.650

 117330847.097 7  91257345.614 6  21910707.840    21910710.160          43.000
        41.400
 123077455.373 6  95726921.567 6  23032268.640    23032273.020          36.900
        39.650
 128085125.998 8                  24373788.840                          51.800

 19  2 28 14 34 20.0000000  0 19G29G20G27G25G21G31G16G10G26R22R13R07
                                R21R23R06R12R08R11E01
 122501741.412 6  95455892.76045  23311308.380    23311304.020          39.400
        35.550
 106326197.508 8  82851559.83847  20233202.280    20233196.340          49.250
        45.950
 129083829.161 7 100584789.91346  24563834.980    24563834.060          43.600
        39.700
 128812648.792 5 100373506.90544  24512232.360    24512235.780          34.200
        27.650
 108517904.260 8  84559380.22247  20650270.980    20650264.640          49.850
        43.550
 124798941.482 7  97245908.47846  23748452.520    23748447.980          46.850
        37.200
 118304897.611 7  92185612.10446  22512673.340    22512667.420          47.050
        38.850
 112411997.461 8  87593756.43447  21391290.380    21391287.740          49.700
        44.800
 108608742.475 8  84630179.67747  20667555.580    20667553.320          50.150
        46.300
 112662317.838 8  87626265.035 7  21105449.520    21105452.660          48.350
        44.050
 116657684.832 6  90733769.148 6  21846238.280    21846240.880          41.300
        37.700
 112302803.540 7  87346634.922 7  20979106.400    20979108.400          45.000
        43.350
 127059584.236 6  98824149.635 4  23744121.420    23744127.000          36.000
        28.550
 118631963.330 7  92269311.650 6  22176992.480    22176997.860          44.800
        36.600
 123558475.682 6                  23154804.980                          41.100

 110977152.413 7                  20775156.400                          46.550

 117323451.174 7  91251593.242 6  21909326.680    21909329.020          43.000
        41.150
 123085781.403 6  95733397.387 6  23033826.740    23033831.160          36.300
        38.550
 128085799.158 8                  24373916.940                          51.700

 19  2 28 14 34 22.0000000  0 19G29G20G27G25G21G31G16G10G26R22R13R07
                                R21R23R06R12R08R11E01
 122505067.918 6  95458484.85243  23311941.400    23311938.420          39.250
        22.100
 106324757.095 8  82850437.44047  20232928.180    20232922.240          49.200
        46.000
 129078884.141 7 100580936.65746  24562893.980    24562892.960          44.250
        39.100


 108520887.142 8  84561704.54747  20650838.600    20650832.280          49.900
        43.500
 124803957.592 7  97249817.12146  23749407.060    23749402.500          46.550
        37.000
 118298922.859 7  92180956.45146  22511536.380    22511530.460          47.150
        39.050
 112406434.449 8  87589421.62047  21390231.780    21390229.140          49.800
        45.050
 108606653.714 8  84628552.06747  20667158.120    20667155.860          50.150
        46.300
 112663267.467 8  87627003.632 7  21105627.420    21105630.560          48.500
        44.000
 116654692.394 6  90731441.700 6  21845677.920    21845680.460          41.550
        38.100
 112300959.126 7  87345200.376 7  20978761.820    20978763.840          45.100
        43.050
 127063075.925 6  98826865.366 5  23744773.980    23744777.920          36.100
        30.200
 118629539.168 7  92267426.201 6  22176539.280    22176544.700          44.400
        36.650
 123563179.087 6                  23155686.480                          40.750

 110982508.050 7                  20776158.960                          46.800

 117316057.318 7  91245842.473 6  21907945.880    21907948.240          43.100
        40.950
 123094108.512 5  95739874.017 6  23035384.980    23035389.480          34.700
        38.900
 128086475.247 8                  24374045.580                          51.750

 19  2 28 14 34 24.0000000  0 18G29G20G27G21G31G16G10G26R22R13R07R21
                                R23R06R12R08R11E01
 122508396.371 5  95461078.38445  23312574.820    23312572.120          35.400
        32.300
 106323320.266 8  82849317.83947  20232654.780    20232648.820          49.200
        46.300
 129073939.781 7 100577083.92946  24561953.100    24561951.980          44.400
        37.800
 108523872.259 8  84564030.60547  20651406.660    20651400.320          49.700
        43.850
 124808974.937 7  97253726.75046  23750361.860    23750357.200          46.900
        36.250
 118292950.546 7  92176302.69846  22510399.880    22510393.980          46.750
        38.950
 112400874.220 8  87585088.97347  21389173.700    21389171.060          49.600
        44.600
 108604568.513 8  84626927.24347  20666761.300    20666759.060          50.050
        46.600
 112664218.153 8  87627743.048 7  21105805.500    21105808.640          48.300
        44.000
 116651704.246 6  90729117.594 6  21845118.380    21845120.840          41.500
        37.600
 112299119.048 7  87343769.200 6  20978418.080    20978420.080          45.700
        41.600
 127066568.545 5  98829581.808 5  23745426.660    23745432.800          35.550
        33.800
 118627116.226 7  92265541.699 6  22176086.320    22176091.780          44.650
        36.550
 123567886.272 6                  23156568.660                          41.200

 110987867.189 7                  20777162.220                          47.100

 117308665.502 7  91240093.272 6  21906565.520    21906567.860          44.200
        40.850
 123102436.776 5  95746351.570 6  23036943.460    23036948.040          33.600
        39.450
 128087154.321 8                  24374174.800                          51.750

 19  2 28 14 34 26.0000000  0 20G29G20G27G25G15G21G31G16G10G26R22R13
                                R07R21R23R06R12R08R11E01
 122511725.977 5  95463672.75644  23313208.460    23313205.400          35.200
        24.200
 106321886.561 8  82848200.67447  20232381.960    20232376.000          49.350
        46.050
 129068995.573 7 100573231.29846  24561012.240    24561011.140          44.300
        37.850
                                  24516476.180    24516479.660          38.400
        28.600
                                  25288158.360    25288167.620          36.250
        28.600
 108526859.108 8  84566358.01547  20651975.040    20651968.700          49.650
        44.200
 124813993.073 7  97257636.99446  23751316.780    23751312.000          46.400
        36.100
 118286980.203 7  92171650.47446  22509263.740    22509257.840          46.950
        38.600
 112395316.336 8  87580758.15347  21388116.060    21388113.420          49.450
        44.750
 108602486.434 8  84625304.84447  20666365.080    20666362.840          50.100
        46.550
 112665169.501 8  87628482.999 7  21105983.720    21105986.860          48.700
        44.100
 116648719.896 6  90726796.430 6  21844559.520    21844561.940          41.850
        37.800
 112297282.833 7  87342341.032 7  20978075.060    20978077.060          44.750
        43.100
 127070061.580 5  98832298.602 4  23746079.340    23746086.660          34.400
        29.650
 118624693.998 7  92263657.746 6  22175633.540    22175638.980          45.050
        36.800
 123572596.662 6                  23157451.540                          40.950

 110993229.362 7                  20778166.020                          46.600

 117301275.416 6  91234345.413 6  21905185.520    21905187.760          41.050
        36.300
 123110765.857 5  95752829.699 6  23038502.060    23038506.720          34.650
        39.350
 128087835.936 8                  24374304.500                          51.800

 19  2 28 14 34 28.0000000  0 20G29G20G27G25G15G21G31G16G10G26R22R13
                                R07R21R23R06R12R08R11E01
 122515055.875 6  95466273.55855  23313842.240    23313839.220          36.500
        30.600
 106320454.876 8  82847085.07447  20232109.520    20232103.560          49.350
        45.650
 129064050.464 7 100569377.96046  24560071.220    24560070.120          43.950
        38.800
                                  24517892.440    24517890.840          39.950
        34.950
                                  25287935.940                          33.150

 108529846.643 8  84568685.96747  20652543.540    20652537.200          49.850
        43.950
 124819010.912 7  97261547.02945  23752271.660    23752266.840          45.150
        35.900
 118281010.729 7  92166998.94746  22508127.800    22508121.860          47.050
        38.600
 112389759.686 8  87576428.29147  21387058.660    21387056.040          49.900
        45.400
 108600406.357 8  84623684.00447  20665969.260    20665967.000          50.250
        46.050
 112666120.414 8  87629222.600 7  21106161.860    21106165.000          48.650
        44.200
 116645738.220 6  90724477.352 6  21844001.120    21844003.560          41.500
        38.100
 112295449.253 7  87340914.917 7  20977732.560    20977734.540          44.900
        42.800
 127073554.079 6  98835015.035 4  23746731.960    23746737.800          36.250
        28.500
 118622271.312 7  92261773.443 6  22175180.620    22175186.100          44.950
        36.400
 123577309.229 6                  23158334.740                          40.950

 110998593.498 7                  20779170.220                          45.800

 117293885.701 7  91228597.885 6  21903805.520    21903807.760          45.550
        41.800
 123119094.198 5  95759307.210 5  23040060.560    23040065.280          33.900
        34.750
 128088518.988 8                  24374434.500                          51.800

 19  2 28 14 34 30.0000000  0 19G29G20G27G25G21G31G16G10G26R22R13R07
                                R21R23R06R12R08R11E01
 122518384.582 6  95468867.41045  23314475.680    23314472.640          37.350
        31.400
 106319023.730 8  82845969.88947  20231837.160    20231831.220          49.300
        45.750
 129059102.948 7 100565522.76546  24559129.720    24559128.600          44.150
        39.200
                                  24519305.680    24519307.940          36.600
        29.150
 108532833.319 8  84571013.24147  20653111.880    20653105.560          49.950
        43.600
 124824026.938 7  97265455.63346  23753226.180    23753221.380          45.200
        37.000
 118275040.644 7  92162346.93846  22506991.720    22506985.780          46.850
        38.350
 112384202.814 8  87572098.25547  21386001.220    21385998.600          49.600
        45.350
 108598326.818 8  84622063.57947  20665573.540    20665571.260          50.200
        46.300
 112667069.340 8  87629960.644 7  21106339.620    21106342.780          48.400
        44.600
 116642757.714 6  90722159.187 6  21843443.020    21843445.380          41.550
        37.550
 112293616.900 7  87339489.756 7  20977390.260    20977392.260          45.350
        42.550
 127077044.312 6                  23747384.080    23747387.760          37.500
        32.250
 118619846.672 7  92259887.612 6  22174727.380    22174732.820          45.300
        36.950
 123582022.452 6                  23159218.100                          41.350

 111003958.021 7                  20780174.460                          47.000

 117286495.098 7  91222849.615 6  21902425.380    21902427.580          43.250
        41.200
 123127420.937 5  95765783.562 6  23041618.820    23041623.560          34.650
        39.250
 128089201.974 8                  24374564.460                          51.800

 19  2 28 14 34 32.0000000  0 18G29G20G27G25G21G31G16G10G26R22R13R07
                                R21R23R06R12R08E01
 122521713.251 7  95471461.10945  23315109.100    23315106.040          44.350
        32.100
 106317594.529 8  82844856.22047  20231565.200    20231559.260          49.350
        46.100
 129054154.446 7 100561666.79246  24558188.060    24558186.880          44.350
        38.750
 128857275.326 6 100408249.74045  24520722.200    24520721.000          38.650
        30.100
 108535820.591 8  84573340.98747  20653680.340    20653674.020          49.650
        43.250
 124829042.549 7  97269363.90146  23754180.620    23754175.780          44.850
        37.250
 118269071.349 7  92157695.54046  22505855.800    22505849.880          47.250
        37.500
 112378647.106 8  87567769.12947  21384944.020    21384941.380          49.450
        45.000
 108596249.219 8  84620444.67047  20665178.180    20665175.900          50.150
        46.350
 112668017.691 7  87630698.244 7  21106517.260    21106520.420          47.800
        44.550
 116639779.868 6  90719843.086 6  21842885.400    21842887.700          41.800
        37.050
 112291787.258 7  87338066.695 7  20977048.460    20977050.480          45.300
        42.650
 127080533.847 6                  23748036.220    23748040.960          37.200
        34.750
 118617421.533 7  92258001.406 6  22174274.020    22174279.460          45.450
        36.250
 123586737.767 7                  23160101.920                          42.600

 111009324.345 7                  20781179.040                          47.350

 117279104.945 7  91217101.749 6  21901045.340    21901047.480          43.250
        39.950
 128089886.324 8                  24374694.700                          51.900

 19  2 28 14 34 34.0000000  0 18G29G20G27G25G15G21G31G16G10G26R22R13
                                R07R23R06R12R08E01
 122525043.811 6  95474056.39046  23315742.920    23315739.540          41.550
        36.800
 106316168.554 8  82843745.07447  20231293.840    20231287.900          49.150
        46.000
 129049206.239 7 100557811.07746  24557246.440    24557245.260          44.800
        38.800
 128864710.804 5 100414043.60344  24522135.840    24522135.040          31.250
        26.100
 132885495.892 6                  25287269.900                          38.150

 108538809.721 8  84575670.18747  20654249.160    20654242.820          49.750
        43.650
 124834059.024 7  97273272.83946  23755135.180    23755130.400          45.200
        36.950
 118263104.143 7  92153045.77946  22504720.260    22504714.360          47.000
        39.100
 112373093.811 8  87563441.88547  21383887.260    21383884.640          49.550
        45.350
 108594174.830 8  84618828.25547  20664783.440    20664781.160          50.300
        45.900
 112668966.775 8  87631436.423 7  21106695.040    21106698.220          48.350
        44.900
 116636805.935 6  90717530.019 6  21842328.480    21842330.800          41.800
        38.400
 112289961.585 7  87336646.721 7  20976707.400    20976709.460          46.000
        44.050
 118614997.149 7  92256115.767 6  22173820.800    22173826.240          44.850
        37.050
 123591456.239 6                  23160986.320                          37.000

 111014693.772 7                  20782184.180                          46.600

 117271716.503 7  91211355.164 7  21899665.600    21899667.720          43.300
        42.350
 128090573.315 8                  24374825.440                          51.900

 19  2 28 14 34 36.0000000  0 18G29G20G27G25G15G21G31G16G10G26R22R13
                                R07R23R06R12R08E01
 122528376.594 7  95476653.43545  23316377.140    23316373.800          42.000
        34.050
 106314746.804 8  82842637.21547  20231023.300    20231017.320          49.200
        45.750
 129044259.288 7 100553956.29946  24556305.040    24556303.900          44.450
        37.200
 128872148.277 5 100419839.09145  24523551.500    24523553.760          35.550
        30.400
 132884332.525 6 103546226.25345  25287048.580    25287043.920          36.550
        31.100
 108541801.707 8  84578001.59947  20654818.500    20654812.180          50.250
        43.250
 124839077.391 7  97277183.25146  23756090.120    23756085.380          45.450
        36.900
 118257139.991 7  92148398.39246  22503585.320    22503579.440          47.550
        38.400
 112367544.005 8  87559117.37147  21382831.160    21382828.540          50.000
        45.600
 108592104.662 8  84617215.14347  20664389.500    20664387.220          50.300
        46.200
 112669917.579 8  87632175.939 7  21106873.180    21106876.340          48.650
        43.900
 116633836.929 6  90715220.788 6  21841772.400    21841774.800          41.250
        37.750
 112288140.880 7  87335230.633 7  20976367.280    20976369.340          47.150
        45.050
 118612574.603 7  92254231.577 6  22173367.940    22173373.340          45.300
        36.750
 123596179.222 6                  23161871.560                          39.600

 111020067.309 7                  20783190.100                          46.300

 117264330.714 7  91205610.653 6  21898286.360    21898288.440          42.300
        41.700
 128091263.916 8                  24374956.880                          51.900

 19  2 28 14 34 38.0000000  0 18G29G20G27G25G15G21G31G16G10G26R22R13
                                R07R23R06R12R08E01
 122531709.863 6  95479250.77345  23317011.440    23317008.120          41.550
        30.600
 106313327.304 8  82841531.11147  20230753.180    20230747.220          49.200
        46.250
 129039311.628 7 100550100.97746  24555363.520    24555362.440          44.050
        38.750
 128879586.107 5 100425634.81545  24524966.700    24524970.680          35.400
        31.650
 132883170.148 6                  25286827.460                          36.800

 108544794.579 8  84580333.71147  20655388.040    20655381.720          49.900
        43.700
 124844095.682 7  97281093.58546  23757045.040    23757040.320          44.750
        38.800
 118251176.952 7  92143751.87646  22502450.580    22502444.700          47.350
        37.200
 112361995.662 8  87554793.98347  21381775.360    21381772.740          50.200
        45.400
 108590036.742 8  84615603.77947  20663995.980    20663993.720          50.300
        46.100
 112670868.177 8  87632915.301 7  21107051.260    21107054.420          48.300
        43.900
 116630870.862 7  90712913.849 6  21841216.920    21841219.360          42.050
        37.700
 112286323.117 7  87333816.821 7  20976027.700    20976029.780          47.050
        44.300
 118610151.934 7  92252347.289 6  22172915.060    22172920.460          45.200
        36.650
 123600904.564 6                  23162757.120                          38.000

 111025442.986 7                  20784196.440                          46.750

 117256945.696 6  91199866.790 6  21896907.260    21896909.300          41.900
        41.250
 128091956.194 8                  24375088.620                          51.900

 19  2 28 14 34 40.0000000  0 18G29G20G27G25G15G21G31G16G10G26R22R13
                                R07R23R06R12R08E01
 122535043.045 7  95481848.07945  23317645.720    23317642.400          42.850
        33.650
 106311909.429 8  82840426.27247  20230483.360    20230477.400          49.200
        46.050
 129034362.680 7 100546244.66646  24554421.760    24554420.700          44.200
        38.500
 128887023.619 5 100431430.25945  24526381.980    24526384.500          33.450
        30.600
 132882008.278 6                  25286605.860                          40.200

 108547787.718 8  84582666.02947  20655957.620    20655951.300          50.050
        44.150
 124849113.276 7  97285003.38446  23757999.820    23757995.200          44.700
        38.250
 118245214.371 7  92139105.71546  22501315.940    22501310.060          46.900
        38.500
 112356448.166 8  87550471.25947  21380719.720    21380717.080          50.200
        45.250
 108587970.454 8  84613993.68347  20663602.780    20663600.500          50.300
        46.050
 112671817.966 8  87633654.019 7  21107229.180    21107232.340          48.450
        44.800
 116627907.071 6  90710608.684 6  21840661.880    21840664.320          41.650
        37.300
 112284507.709 7  87332404.839 7  20975688.540    20975690.640          47.000
        44.750
 118607728.414 7  92250462.318 6  22172462.020    22172467.380          44.950
        37.250
 123605631.640 6                  23163642.940                          37.550

 111030820.234 7                  20785203.060                          46.700

 117249560.772 6  91194122.979 6  21895528.120    21895530.180          41.150
        41.100
 128092649.493 8                  24375220.560                          51.850

 19  2 28 14 34 42.0000000  0 17G29G20G27G15G21G31G16G10G26R22R13R07
                                R23R06R12R08E01
 122538378.053 7  95484446.80545  23318280.380    23318277.020          42.200
        33.250
 106310495.178 8  82839324.26047  20230214.260    20230208.280          49.200
        46.200
 129029414.396 7 100542388.86346  24553480.100    24553479.020          43.900
        39.250
 132880848.799 5 103543491.54745  25286384.980    25286381.740          34.750
        31.950
 108550783.078 8  84585000.08447  20656527.620    20656521.300          49.950
        43.500
 124854132.124 7  97288914.14046  23758954.860    23758950.300          45.500
        39.250
 118239254.317 7  92134461.52846  22500181.780    22500175.920          47.350
        39.400
 112350903.551 8  87546150.78047  21379664.620    21379661.980          50.200
        45.750
 108585907.779 8  84612386.40247  20663210.260    20663207.980          50.400
        46.450
 112672768.868 7  87634393.612 7  21107407.320    21107410.480          47.800
        44.700
 116624947.676 6  90708306.939 6  21840107.680    21840110.120          41.700
        37.600
 112282696.746 7  87330996.317 7  20975350.220    20975352.340          47.000
        45.000
 118605306.086 7  92248578.307 6  22172009.200    22172014.560          45.250
        37.400
 123610362.566 6                  23164529.520                          36.450

 111036201.081 7                  20786210.360                          46.250

 117242178.051 7  91188380.865 6  21894149.440    21894151.440          43.550
        39.950
 128093345.846 8                  24375353.060                          51.850

 19  2 28 14 34 44.0000000  0 18G29G20G27G25G15G21G31G16G10G26R22R13
                                R07R23R06R12R08E01
 122541715.419 7  95487047.30045  23318915.480    23318912.040          42.050
        33.750
 106309084.974 8  82838225.39947  20229945.900    20229939.940          49.200
        45.900
 129024467.251 7 100538533.96346  24552538.660    24552537.520          44.500
        37.400


 132879692.258 6 103542590.41645  25286164.620    25286160.200          37.300
        34.400
 108553781.141 8  84587336.23547  20657098.140    20657091.800          50.100
        43.750
 124859152.667 7  97292826.23746  23759910.260    23759905.740          45.950
        38.250
 118233297.159 7  92129819.58546  22499048.180    22499042.280          47.350
        39.300
 112345362.190 8  87541832.83247  21378610.140    21378607.480          50.050
        45.950
 108583849.164 8  84610782.28447  20662818.520    20662816.240          50.350
        46.200
 112673721.336 7  87635134.425 7  21107585.740    21107588.920          47.800
        44.650
 116621993.029 6  90706008.880 6  21839554.340    21839556.820          41.700
        37.200
 112280890.551 7  87329591.507 7  20975012.820    20975014.940          46.400
        44.800
 118602885.420 7  92246695.573 6  22171556.680    22171562.060          45.650
        37.550
 123615097.681 5                  23165416.900                          34.800

 111041585.912 7                  20787218.440                          46.400

 117234797.968 7  91182640.800 6  21892771.240    21892773.220          43.550
        39.800
 128094045.659 8                  24375486.240                          51.900

 19  2 28 14 34 46.0000000  0 18G29G20G27G25G15G21G31G16G10G26R22R13
                                R07R23R06R12R08E01
 122545052.779 7  95489647.83945  23319550.600    23319547.160          43.300
        32.300
 106307676.624 8  82837127.98647  20229677.900    20229671.940          49.200
        46.200
 129019519.002 7 100534678.19146  24551597.040    24551595.840          44.650
        37.050


 132878536.397 6                  25285945.120                          38.750

 108556779.693 8  84589672.77147  20657668.740    20657662.400          49.600
        44.100
 124864172.713 7  97296737.95746  23760865.540    23760861.080          45.450
        39.050
 118227340.697 7  92125178.18446  22497914.700    22497908.820          47.100
        38.250
 112339821.911 8  87537515.73847  21377555.860    21377553.220          50.000
        45.750
 108581792.369 8  84609179.59147  20662427.120    20662424.840          50.400
        46.400
 112674673.162 7  87635874.738 7  21107764.060    21107767.220          47.750
        44.850
 116619040.910 6  90703712.788 6  21839001.500    21839003.980          41.600
        38.000
 112279086.812 7  87328188.603 7  20974675.860    20974677.980          46.450
        44.850
 118600464.168 7  92244812.383 6  22171104.020    22171109.440          45.100
        37.200
 123619834.856 5                  23166304.460                          35.650

 111046972.430 7                  20788226.800                          47.000

 117227418.230 7  91176901.021 6  21891393.080    21891395.060          43.850
        39.300
 128094746.715 8                  24375619.660                          51.800

 19  2 28 14 34 48.0000000  0 17G29G20G27G15G21G31G16G10G26R22R13R07
                                R23R06R12R08E01
 122548389.663 7  95492247.99245  23320185.620    23320182.000          44.000
        32.400
 106306269.599 8  82836031.60547  20229410.160    20229404.180          49.150
        46.200
 129014569.118 7 100530821.13746  24550655.120    24550653.840          44.250
        37.500
 132877380.641 6                  25285724.860                          38.150

 108559778.167 8  84592009.23247  20658239.340    20658233.000          49.900
        43.100
 124869191.700 7  97300648.84246  23761820.640    23761816.220          46.000
        39.300
 118221384.406 7  92120536.92846  22496781.240    22496775.380          47.300
        38.550
 112334282.161 8  87533199.04747  21376501.680    21376499.040          50.050
        45.700
 108579736.886 8  84607577.91747  20662035.980    20662033.700          50.300
        46.300
 112675623.778 7  87636614.098 7  21107942.120    21107945.300          47.650
        44.400
 116616090.757 6  90701418.228 6  21838449.020    21838451.520          41.600
        38.050
 112277285.183 7  87326787.348 7  20974339.300    20974341.440          46.300
        44.600
 118598041.731 7  92242928.260 6  22170651.160    22170656.600          44.900
        36.400
 123624573.324 6                  23167192.320                          36.200

 111052360.072 7                  20789235.380                          47.050

 117220038.216 7  91171160.999 6  21890014.880    21890016.900          43.950
        40.450
 128095448.496 8                  24375753.200                          51.900

 19  2 28 14 34 50.0000000  0 18G29G20G27G25G15G21G31G16G10G26R22R13
                                R07R23R06R12R08E01
 122551727.294 6  95494848.71944  23320820.740    23320816.960          40.050
        29.650
 106304864.968 8  82834937.08547  20229142.880    20229136.900          49.200
        46.150
 129009618.686 7 100526963.66746  24549713.080    24549711.820          45.150
        38.150


 132876226.041 7 103539917.46945  25285505.320    25285504.480          42.350
        32.900
 108562777.673 8  84594346.50747  20658810.140    20658803.780          49.500
        43.600
 124874210.703 7  97304559.72446  23762775.760    23762771.320          45.550
        39.900
 118215429.356 7  92115896.62746  22495648.040    22495642.160          47.200
        38.000
 112328744.042 8  87528883.63247  21375447.800    21375445.160          49.850
        45.300
 108577683.780 8  84605978.09147  20661645.280    20661643.000          50.250
        46.600
 112676574.334 8  87637353.410 7  21108120.200    21108123.360          48.500
        44.600
 116613143.687 7  90699126.075 6  21837897.160    21837899.640          42.300
        37.250
 112275486.666 7  87325388.477 7  20974003.300    20974005.460          47.000
        44.850
 118595619.217 7  92241044.071 6  22170198.300    22170203.740          45.000
        36.750
 123629314.304 5                  23168080.720                          35.800

 111057749.983 7                  20790244.380                          46.600

 117212659.164 7  91165421.711 6  21888636.880    21888638.920          45.150
        41.600
 128096152.071 8                  24375887.080                          51.900

 19  2 28 14 34 52.0000000  0 18G29G20G27G25G15G21G31G16G10G26R22R13
                                R07R23R06R12R08E01
 122555065.022 7  95497449.53545  23321455.900    23321452.040          44.000
        34.300
 106303462.291 8  82833844.09047  20228875.960    20228869.980          49.250
        45.700
 129004667.249 7 100523105.43146  24548770.880    24548769.580          44.550
        37.900


 132875072.167 6 103539018.33845  25285285.700    25285285.280          41.700
        33.650
 108565777.725 8  84596684.21647  20659381.040    20659374.700          50.050
        43.250
 124879229.346 7  97308470.34946  23763730.800    23763726.340          46.700
        39.450
 118209475.111 7  92111256.96046  22494514.980    22494509.080          47.450
        38.300
 112323207.068 8  87524569.11747  21374394.160    21374391.520          49.850
        45.400
 108575632.627 8  84604379.79347  20661254.980    20661252.680          50.300
        46.100
 112677524.301 8  87638092.287 7  21108298.140    21108301.320          48.400
        43.950
 116610199.204 6  90696835.909 6  21837345.720    21837348.220          41.900
        38.500
 112273690.770 7  87323991.653 7  20973667.820    20973669.940          46.750
        44.800
 118593196.184 7  92239159.488 6  22169745.320    22169750.780          44.550
        36.400
 123634057.386 6                  23168969.680                          36.900

 111063141.699 7                  20791253.720                          46.850

 117205280.537 7  91159682.740 7  21887259.000    21887261.020          44.550
        42.900
 128096856.979 8                  24376021.220                          51.750

 19  2 28 14 34 54.0000000  0 17G29G20G27G25G21G31G16G10G26R22R13R07
                                R23R06R12R08E01
 122558403.751 7  95500051.13045  23322091.240    23322087.360          44.000
        32.550
 106302062.278 8  82832753.17947  20228609.560    20228603.560          49.150
        46.400
 128999715.537 7 100519246.94446  24547828.580    24547827.340          44.600
        37.950


 108568779.086 8  84599022.94347  20659952.180    20659945.840          49.650
        43.050
 124884248.260 7  97312381.18946  23764685.920    23764681.440          47.100
        38.650
 118203522.412 7  92106618.49546  22493382.220    22493376.280          47.200
        38.250
 112317672.010 8  87520256.08747  21373340.860    21373338.220          50.200
        45.600
 108573584.130 8  84602783.56047  20660865.160    20660862.860          50.100
        46.300
 112678474.491 7  87638831.331 7  21108476.140    21108479.320          47.800
        43.850
 116607258.059 6  90694548.364 6  21836794.900    21836797.460          41.800
        37.850
 112271898.294 7  87322597.496 7  20973332.960    20973335.080          46.700
        45.250
 118590773.450 7  92237275.156 6  22169292.420    22169297.900          45.300
        36.350
 123638803.293 5                  23169859.200                          35.950

 111068536.008 7                  20792263.560                          47.250

 117197903.096 7  91153944.754 7  21885881.320    21885883.360          44.050
        43.100
 128097563.989 8                  24376155.760                          51.900

 19  2 28 14 34 56.0000000  0 17G29G20G27G25G21G31G16G10G26R22R13R07
                                R23R06R12R08E01
 122561742.293 7  95502652.62045  23322726.560    23322722.680          43.850
        33.300
 106300663.995 8  82831663.60647  20228343.480    20228337.500          49.000
        46.050
 128994762.590 7 100515387.49746  24546886.060    24546884.840          44.300
        38.400
 128946530.033 6 100477819.54345  24537709.560    24537711.140          39.700
        30.050
 108571780.791 8  84601361.92447  20660523.380    20660517.040          50.000
        43.600
 124889266.590 7  97316291.59346  23765640.920    23765636.460          46.850
        39.250
 118197570.241 7  92101980.44646  22492249.560    22492243.620          47.350
        38.850
 112312137.898 8  87515943.78247  21372287.760    21372285.120          49.950
        45.550
 108571537.354 8  84601188.66647  20660475.680    20660473.360          50.250
        46.700
 112679423.866 8  87639569.718 7  21108653.980    21108657.180          48.350
        44.150
 116604319.330 6  90692262.697 6  21836244.580    21836247.140          41.100
        38.350
 112270108.228 7  87321205.237 7  20972998.560    20973000.660          47.000
        44.550
 118588350.002 7  92235390.252 6  22168839.400    22168844.860          45.250
        37.000
 123643551.042 6                  23170748.980                          39.800

 111073931.946 7                  20793273.680                          47.250

 117190525.838 7  91148206.915 7  21884503.680    21884505.740          46.000
        42.900
 128098272.116 8                  24376290.520                          51.800

 19  2 28 14 34 58.0000000  0 18G29G20G27G25G21G31G16G10G26R22R13R07
                                R21R23R06R12R08E01
 122565080.349 7  95505253.69945  23323361.760    23323357.940          43.200
        34.350
 106299266.841 8  82830574.90747  20228077.620    20228071.620          49.100
        46.400
 128989807.864 7 100511526.69046  24545943.200    24545942.000          43.700
        37.550
 128953970.227 6 100483617.07545  24539125.340    24539128.060          37.900
        32.300
 108574782.236 8  84603700.71747  20661094.540    20661088.200          49.550
        43.250
 124894283.635 7  97320200.97246  23766595.680    23766591.160          46.700
        39.100
 118191618.070 7  92097342.40346  22491116.880    22491110.960          47.050
        38.700
 112306604.133 8  87511631.76147  21371234.720    21371232.080          49.650
        45.050
 108569491.698 8  84599594.64547  20660086.400    20660084.080          50.100
        46.200
 112680371.848 7  87640307.031 7  21108831.560    21108834.760          47.800
        44.300
 116601382.382 6  90689978.408 6  21835694.540    21835697.140          41.700
        38.100
 112268319.952 7  87319814.362 7  20972664.480    20972666.580          47.100
        44.800
                                  23756517.340    23756520.680          31.300
        32.100
 118585925.199 7  92233504.298 6  22168386.080    22168391.560          44.800
        37.250
 123648299.903 6                  23171638.920                          36.100

 111079328.854 7                  20794283.980                          46.650

 117183148.226 7  91142468.783 6  21883125.980    21883128.080          44.700
        41.900
 128098980.768 8                  24376425.380                          51.750

 19  2 28 14 35  0.0000000  0 18G29G20G27G25G21G31G16G10G26R22R13R07
                                R21R23R06R12R08E01
 122568419.194 7  95507855.40045  23323997.120    23323993.240          43.850
        35.700
 106297872.310 8  82829488.26547  20227812.240    20227806.260          48.950
        46.150
 128984852.781 7 100507665.59246  24545000.260    24544999.120          43.950
        38.400
 128961411.032 6 100489415.09244  24540542.160    24540544.680          37.500
        29.850
 108577784.956 8  84606040.50447  20661665.940    20661659.620          49.400
        43.800
 124899300.957 7  97324110.58246  23767550.500    23767545.940          45.100
        37.800
 118185667.368 7  92092705.48446  22489984.500    22489978.580          47.300
        39.750
 112301072.226 8  87507321.19447  21370182.020    21370179.400          48.900
        43.950
 108567448.663 8  84598002.67147  20659697.620    20659695.300          50.350
        46.450
 112681319.959 7  87641044.458 7  21109009.200    21109012.360          47.850
        44.100
 116598448.777 6  90687696.728 6  21835145.120    21835147.780          41.300
        37.900
 112266535.115 7  87318426.164 7  20972331.040    20972333.140          46.600
        44.850
 127129414.118 5                  23757167.360    23757172.400          33.200
        35.150
 118583500.512 7  92231618.420 6  22167932.820    22167938.280          45.150
        37.000
 123653051.586 5                  23172529.420                          35.300

 111084728.257 7                  20795294.760                          47.150

 117175771.837 7  91136731.581 7  21881748.520    21881750.620          43.750
        42.750
 128099691.461 8                  24376560.620                          51.800

 19  2 28 14 35  2.0000000  0 17G29G20G27G21G31G16G10G26R22R13R07R21
                                R23R06R12R08E01
 122571758.898 7  95510457.75945  23324632.620    23324628.740          42.550
        34.900
 106296480.409 8  82828403.66047  20227547.380    20227541.380          49.100
        46.300
 128979897.393 7 100503804.25946  24544057.280    24544056.140          44.400
        39.900
 108580788.910 8  84608381.25647  20662237.560    20662231.260          49.650
        43.800
 124904318.546 7  97328020.38146  23768505.360    23768500.740          45.000
        37.750
 118179718.176 7  92088069.75046  22488852.400    22488846.500          47.150
        38.400
 112295542.189 8  87503012.08547  21369129.700    21369127.060          48.900
        44.250
 108565408.233 8  84596412.72747  20659309.340    20659307.020          50.300
        46.650
 112682268.213 8  87641782.004 7  21109186.860    21109190.000          48.000
        44.200
 116595518.547 6  90685417.664 6  21834596.360    21834599.020          41.250
        36.900
 112264753.594 7  87317040.539 7  20971998.220    20972000.320          46.700
        45.350
 127132900.710 5  98881156.257 5  23757818.780    23757823.640          35.750
        32.050
 118581076.037 7  92229732.720 6  22167479.600    22167485.060          45.100
        36.850
 123657805.984 6                  23173420.420                          36.300

 111090130.093 7                  20796306.020                          47.250

 117168396.531 7  91130995.215 7  21880371.240    21880373.340          43.800
        42.650
 128100404.178 8                  24376696.240                          51.850

 19  2 28 14 35  4.0000000  0 18G29G20G27G21G31G16G10G26R22R13R07R21
                                R23R06R12R08R11E01
 122575101.584 6  95513062.43745  23325268.700    23325265.080          41.450
        31.300
 106295093.297 8  82827322.79047  20227283.420    20227277.440          49.050
        45.800
 128974943.825 7 100499944.35146  24543114.620    24543113.540          44.800
        38.050
 108583796.283 8  84610724.66547  20662809.860    20662803.540          49.800
        43.450
 124909338.568 7  97331932.05646  23769460.660    23769456.020          46.250
        37.050
 118173772.629 7  92083436.87246  22487720.980    22487715.100          47.400
        39.000
 112290016.175 8  87498706.09447  21368078.120    21368075.500          49.800
        45.050
 108563372.598 8  84594826.51847  20658921.980    20658919.660          50.150
        46.000
 112683218.824 7  87642521.370 7  21109364.940    21109368.080          47.800
        44.400
 116592593.798 6  90683142.855 6  21834048.620    21834051.320          41.350
        37.800
 112262977.636 7  87315659.229 7  20971666.480    20971668.540          47.050
        44.050
 127136389.375 5  98883869.647 5  23758472.120    23758474.480          32.200
        32.500
 118578653.978 7  92227848.898 6  22167026.820    22167032.260          44.900
        36.850
 123662565.381 5                  23174312.320                          34.150

 111095536.648 7                  20797318.140                          46.350

 117161024.568 7  91125261.454 6  21878994.540    21878996.680          42.800
        41.050
 123268988.341 5  95875908.251 6  23068112.080    23068117.540          35.500
        39.350
 128101121.070 8                  24376832.660                          51.750

 19  2 28 14 35  6.0000000  0 18G29G20G27G21G31G16G10G26R22R13R07R21
                                R23R06R12R08R11E01
 122578447.058 6  95515669.29944  23325905.320    23325901.500          40.900
        29.150
 106293710.666 8  82826245.41947  20227020.320    20227014.320          48.950
        45.900
 128969991.850 7 100496085.67946  24542172.300    24542171.200          44.750
        38.550
 108586806.745 8  84613070.47247  20663382.740    20663376.420          49.550
        43.450
 124914360.714 7  97335845.40646  23770416.380    23770411.720          46.500
        37.400
 118167830.458 7  92078806.61846  22486590.220    22486584.340          47.400
        38.950
 112284493.839 8  87494402.95947  21367027.260    21367024.620          50.050
        45.100
 108561341.445 8  84593243.80147  20658535.460    20658533.140          50.000
        46.150
 112684171.424 7  87643262.273 7  21109543.400    21109546.520          47.300
        44.200
 116589674.285 6  90680872.129 6  21833501.860    21833504.580          41.350
        37.750
 112261206.950 7  87314282.027 7  20971335.700    20971337.760          47.150
        45.200
 127139879.873 5  98886584.510 5  23759123.260    23759127.380          30.650
        33.850
 118576234.047 7  92225966.725 6  22166574.460    22166579.880          45.100
        37.700
 123667329.482 5                  23175204.920                          33.350

 111100947.635 7                  20798331.060                          46.750

 117153655.680 6  91119530.098 6  21877618.460    21877620.580          41.550
        40.650
 123277318.889 6  95882387.535 6  23069671.520    23069676.340          37.000
        38.250
 128101841.874 8                  24376969.820                          51.800

 19  2 28 14 35  8.0000000  0 19G29G20G27G25G15G21G31G16G10G26R22R13
                                R07R23R06R12R08R11E01
 122581793.012 7  95518276.52046  23326542.020    23326538.200          43.000
        36.050
 106292330.321 8  82825169.83047  20226757.640    20226751.660          49.050
        46.050
 128965039.190 7 100492226.47546  24541229.860    24541228.800          45.200
        38.050
 128991196.752 6                  24546209.300                          39.650

 132865896.339 6                  25283538.420                          40.900

 108589818.109 8  84615416.98747  20663955.780    20663949.460          49.650
        43.450
 124919382.738 7  97339758.69545  23771372.060    23771367.380          46.150
        34.400
 118161889.446 7  92074177.25646  22485459.680    22485453.800          47.100
        38.700
 112278973.044 8  87490101.03047  21365976.680    21365974.040          50.450
        45.800
 108559312.570 8  84591662.86047  20658149.380    20658147.060          50.050
        46.000
 112685123.804 7  87644003.005 7  21109721.820    21109724.920          47.650
        44.550
 116586757.733 6  90678603.706 6  21832955.700    21832958.380          41.600
        38.150
 112259439.291 7  87312907.192 7  20971005.480    20971007.540          46.650
        44.950
 118573813.932 7  92224084.420 6  22166122.040    22166127.460          45.100
        37.000
 123672095.931 5                  23176098.120                          34.200

 111106360.814 7                  20799344.420                          46.700

 117146287.460 6  91113799.277 6  21876242.500    21876244.640          38.600
        38.550
 123285649.255 6  95888866.692 6  23071230.540    23071235.200          38.800
        40.500
 128102564.339 8                  24377107.300                          51.850

 19  2 28 14 35 10.0000000  0 20G29G20G27G25G15G21G31G16G10G26R22R13
                                R07R21R23R06R12R08R11E01
 122585138.000 7  95520883.01146  23327178.560    23327174.680          43.550
        37.150
 106290950.774 8  82824094.85447  20226495.140    20226489.120          49.100
        46.300
 128960084.367 7 100488365.57046  24540286.980    24540285.900          44.550
        37.500
 128998642.330 6 100518423.98945  24547624.500    24547624.880          41.500
        32.000
 132864754.958 6 103530958.81054  25283320.360    25283317.640          41.950
        26.950
 108592828.877 8  84617763.04847  20664528.720    20664522.400          49.550
        43.300
 124924403.239 7  97343670.76746  23772327.420    23772322.740          45.800
        36.200
 118155948.082 7  92069547.62346  22484329.080    22484323.200          46.900
        38.950
 112273452.266 8  87485799.14247  21364926.120    21364923.480          50.100
        45.700
 108557284.479 8  84590082.53747  20657763.440    20657761.120          50.100
        46.100
 112686074.413 7  87644742.365 7  21109899.880    21109903.020          47.300
        44.750
 116583842.633 6  90676336.408 6  21832409.780    21832412.480          41.700
        37.450
 112257673.056 7  87311533.443 7  20970675.540    20970677.580          46.150
        44.950
                                  23760427.520    23760430.820          35.550
        36.850
 118571392.084 7  92222200.766 6  22165669.300    22165674.740          45.100
        37.500
 123676863.157 5                  23176991.460                          34.100

 111111774.629 7                  20800357.900                          46.600

 117138918.475 5  91108067.949 6  21874866.320    21874868.560          32.000
        37.350
 123293977.871 6  95895344.480 6  23072789.500    23072793.620          39.600
        39.400
 128103287.014 8                  24377244.820                          51.900

 19  2 28 14 35 12.0000000  0 20G29G20G27G25G15G21G31G16G10G26R22R13
                                R07R21R23R06R12R08R11E01
 122588484.257 7  95523490.45145  23327815.340    23327811.400          44.550
        34.850
 106289574.270 8  82823022.25447  20226233.200    20226227.180          49.150
        45.700
 128955129.656 7 100484504.75946  24539344.140    24539343.040          44.400
        36.200
 129006088.999 6 100524226.63845  24549041.900    24549041.460          41.700
        31.700
 132863615.425 7 103530070.82545  25283103.900    25283099.680          43.150
        33.050
 108595841.331 8  84620110.41547  20665101.980    20665095.640          49.350
        43.200
 124929424.407 7  97347583.37646  23773282.920    23773278.160          46.400
        36.750
 118150008.636 7  92064919.49446  22483198.840    22483192.960          46.900
        38.700
 112267933.775 8  87481499.03347  21363875.980    21363873.340          50.000
        45.350
 108555259.448 8  84588504.58347  20657378.100    20657375.780          50.000
        46.400
 112687025.649 7  87645482.217 7  21110078.080    21110081.200          47.350
        44.900
 116580931.277 6  90674072.022 6  21831864.540    21831867.260          41.200
        37.700
 112255910.587 7  87310162.630 7  20970346.300    20970348.340          46.450
        44.750
 127150343.616 6                  23761076.640    23761084.760          38.050
        36.300
 118568970.805 7  92220317.545 6  22165216.660    22165222.120          45.350
        36.650
 123681633.619 5                  23177885.300                          33.000

 111117191.360 7                  20801371.940                          46.550

 117131551.257 5  91102337.921 6  21873490.360    21873492.740          35.800
        37.300
 123302307.006 6  95901822.686 6  23074348.600    23074352.240          37.250
        38.700
 128104012.144 8                  24377382.820                          51.900

 19  2 28 14 35 14.0000000  0 20G29G20G27G25G15G21G31G16G10G26R22R13
                                R07R21R23R06R12R08R11E01
 122591830.813 7  95526098.12845  23328452.140    23328448.240          44.250
        34.450
 106288199.878 8  82821951.30547  20225971.660    20225965.640          48.950
        45.850
 128950174.087 7 100480643.29046  24538401.120    24538399.980          44.600
        38.500
 129013535.771 6 100530029.26546  24550459.040    24550461.240          41.800
        36.100
 132862476.861 7 103529183.63645  25282887.080    25282884.740          43.350
        33.350
 108598854.487 8  84622458.33147  20665675.360    20665669.020          49.600
        42.850
 124934445.297 7  97351495.75746  23774238.340    23774233.580          45.250
        36.700
 118144070.138 7  92060292.09546  22482068.780    22482062.920          46.700
        38.000
 112262416.629 8  87477199.96447  21362826.100    21362823.460          49.800
        44.600
 108553236.494 8  84586928.25947  20656993.140    20656990.820          50.150
        46.300
 112687976.476 7  87646221.748 7  21110256.180    21110259.320          47.650
        44.300
 116578022.703 6  90671809.800 6  21831319.880    21831322.560          41.600
        37.300
 112254151.015 7  87308794.079 7  20970017.600    20970019.640          46.850
        45.000
 127153831.599 5  98897430.213 6  23761727.900    23761735.460          35.650
        38.100
 118566549.213 7  92218434.077 6  22164763.960    22164769.440          44.550
        36.850
 123686406.295 5                  23178779.580                          33.750

 111122610.028 7                  20802386.340                          46.950

 117124184.682 6  91096608.357 6  21872114.620    21872117.080          41.550
        39.750
 123310635.796 6  95908300.621 6  23075907.060    23075910.940          38.200
        36.950
 128104738.757 8                  24377521.080                          51.750

 19  2 28 14 35 16.0000000  0 19G29G20G27G15G21G31G16G10G26R22R13R07
                                R21R23R06R12R08R11E01
 122595177.496 7  95528705.97645  23329089.020    23329085.160          43.300
        30.050
 106286827.434 8  82820881.87047  20225710.500    20225704.480          48.900
        45.800
 128945217.559 7 100476781.06546  24537457.940    24537456.700          44.300
        37.800
 132861339.086 7 103528297.06046  25282670.720    25282668.820          45.500
        36.250
 108601868.250 8  84624806.70147  20666248.860    20666242.520          49.700
        44.200
 124939465.818 7  97355407.81546  23775193.700    23775188.900          44.100
        36.500
 118138132.456 7  92055665.32546  22480938.880    22480933.040          46.550
        38.500
 112256900.665 8  87472901.81047  21361776.440    21361773.800          49.550
        45.000
 108551215.509 8  84585353.46047  20656608.560    20656606.240          50.000
        45.750
 112688926.780 8  87646960.879 7  21110434.220    21110437.340          48.450
        45.900
 116575116.775 6  90669549.640 6  21830775.700    21830778.360          41.050
        37.700
 112252394.086 7  87307427.575 7  20969689.380    20969691.420          45.700
        42.650
 127157318.970 6  98900142.614 6  23762381.520    23762386.480          39.350
        38.300
 118564127.114 7  92216550.228 6  22164311.160    22164316.640          45.250
        36.800
 123691181.133 5                  23179674.380                          32.900

 111128030.542 7                  20803401.060                          46.850

 117116818.441 7  91090878.998 6  21870739.000    21870741.420          44.600
        40.950
 123318963.988 6  95914778.116 5  23077465.400    23077469.560          39.900
        35.850
 128105466.748 8                  24377659.620                          51.850

 19  2 28 14 35 18.0000000  0 20G29G20G27G25G15G21G31G16G10G26R22R13
                                R07R21R23R06R12R08R11E01
 122598525.854 6  95531315.12545  23329726.180    23329722.300          40.800
        33.550
 106285458.108 8  82819814.85947  20225449.940    20225443.900          49.100
        46.600
 128940261.143 7 100472918.93146  24536514.740    24536513.520          44.600
        36.400
                                  24553294.400                          39.650

 132860203.191 7 103527411.95245  25282454.820    25282452.840          42.400
        31.400
 108604883.697 8  84627156.36747  20666822.680    20666816.320          49.750
        43.550
 124944486.997 7  97359320.38745  23776149.160    23776144.380          44.500
        35.650
 118132196.693 7  92051040.05846  22479809.340    22479803.480          46.850
        38.500
 112251387.029 8  87468605.46747  21360727.220    21360724.580          48.800
        45.350
 108549197.602 8  84583781.05847  20656224.560    20656222.240          50.100
        45.750
 112689877.690 7  87647700.461 7  21110612.380    21110615.460          47.900
        44.750
 116572214.582 6  90667292.374 6  21830232.200    21830234.860          41.550
        37.900
 112250641.012 7  87306064.079 6  20969361.860    20969363.940          44.050
        40.400
 127160806.696 6  98902855.269 6  23763033.180    23763038.680          41.750
        37.400
 118561705.739 7  92214666.955 6  22163858.540    22163864.000          45.050
        37.150
 123695959.097 4                  23180569.760                          29.250

 111133453.975 7                  20804416.340                          47.050

 117109453.932 7  91085151.032 6  21869363.720    21869366.120          44.950
        41.100
 123327292.914 5  95921256.228 5  23079024.140    23079028.200          30.700
        35.600
 128106197.216 8                  24377798.620                          51.850

 19  2 28 14 35 20.0000000  0 19G29G20G27G25G15G21G31G16G10G26R22R13
                                R07R21R23R12R08R11E01
 122601873.175 7  95533923.38645  23330363.120    23330359.260          44.050
        34.100
 106284089.868 8  82818748.69647  20225189.560    20225183.520          49.100
        45.700
 128935302.881 7 100469055.36846  24535571.200    24535569.940          43.150
        38.400
 129035871.064 6 100547441.00445  24554709.940    24554709.220          39.600
        33.250
 132859067.200 7 103526526.80445  25282238.700    25282236.660          43.400
        34.500
 108607898.836 8  84629505.83147  20667396.420    20667390.100          49.250
        42.750
 124949506.872 7  97363232.01146  23777104.380    23777099.620          44.950
        38.950
 118126260.973 7  92046414.83246  22478679.800    22478673.940          47.400
        38.850
 112245873.717 8  87464309.36347  21359678.080    21359675.440          49.150
        45.750
 108547180.775 8  84582209.50447  20655840.760    20655838.460          50.000
        45.950
 112690827.178 7  87648438.941 7  21110790.240    21110793.320          46.100
        44.050
 116569314.188 6  90665036.506 6  21829689.020    21829691.700          41.450
        38.600
 112248889.752 7  87304701.984 7  20969034.700    20969036.800          44.650
        43.350
 127164292.894 7  98905566.727 7  23763684.880    23763690.360          42.550
        42.600
 118559282.975 7  92212782.592 6  22163405.600    22163411.100          44.300
        37.150
 111138878.366 7                  20805431.800                          46.250

 117102089.084 7  91079422.831 7  21867988.400    21867990.760          43.650
        43.050
                                  23080583.180    23080586.500          37.950
        38.750
 128106928.192 8                  24377937.720                          51.850

 19  2 28 14 35 22.0000000  0 19G29G20G27G25G15G21G31G16G10G26R22R13
                                R07R21R23R12R08R11E01
 122605222.280 7  95536533.04245  23331000.440    23330996.540          46.900
        35.600
 106282725.030 8  82817685.18447  20224929.860    20224923.800          49.050
        45.450
 128930345.109 7 100465192.18446  24534627.780    24534626.500          44.250
        37.250
 129043319.147 6 100553244.67244  24556128.220    24556127.160          37.150
        29.950
 132857933.410 6 103525643.29744  25282023.000    25282021.360          41.750
        28.550
 108610916.031 8  84631856.89247  20667970.580    20667964.260          49.900
        44.100
 124954527.840 7  97367144.46246  23778059.800    23778055.040          44.200
        36.650
 118120327.426 7  92041791.27846  22477550.680    22477544.800          47.600
        39.250
 112240363.032 8  87460015.32947  21358629.420    21358626.800          49.350
        45.050
 108545167.368 8  84580640.62947  20655457.620    20655455.300          50.200
        45.500
 112691777.533 8  87649178.115 7  21110968.260    21110971.340          48.000
        43.750
 116566417.901 7  90662783.841 6  21829146.640    21829149.320          42.050
        37.350
 112247142.644 7  87303343.122 7  20968708.340    20968710.400          47.000
        44.700
 127167779.665 7  98908278.646 6  23764336.860    23764341.360          42.350
        41.150
 118556861.066 7  92210898.888 6  22162952.840    22162958.360          44.250
        36.900
 111144305.995 7                  20806447.860                          46.350

 117094725.992 7  91073695.961 6  21866613.400    21866615.720          43.350
        41.300
                                  23082141.560    23082145.020          36.400
        38.050
 128107661.952 8                  24378077.340                          51.650

 19  2 28 14 35 24.0000000  0 18G29G20G27G15G21G31G16G10G26R22R13R07
                                R21R23R12R08R11E01
 122608572.281 7  95539143.43045  23331637.920    23331634.000          45.200
        33.950
 106281362.880 8  82816623.77047  20224670.640    20224664.600          49.100
        45.600
 128925387.033 7 100461328.73246  24533684.260    24533682.960          44.550
        37.200
 132856801.126 7 103524760.97345  25281807.580    25281806.560          44.000
        34.150
 108613934.497 8  84634208.94547  20668544.980    20668538.660          50.100
        44.600
 124959549.211 6  97371057.20745  23779015.320    23779010.640          40.250
        31.300
 118114395.468 7  92037168.98846  22476421.840    22476415.980          47.550
        38.350
 112234854.288 8  87455722.80547  21357581.140    21357578.500          49.750
        44.700
 108543156.637 8  84579073.82147  20655075.000    20655072.680          50.300
        45.850
 112692728.098 7  87649917.448 7  21111146.320    21111149.400          47.600
        43.300
 116563525.000 6  90660533.804 6  21828604.900    21828607.580          41.800
        38.050
 112245398.852 7  87301986.846 7  20968382.600    20968384.660          46.700
        45.350
 127171266.540 7  98910990.677 6  23764988.540    23764992.820          43.950
        40.950
 118554439.479 7  92209015.443 5  22162500.120    22162505.640          44.800
        35.250
 111149736.191 7                  20807464.400                          46.600

 117087364.228 7  91067970.145 6  21865238.660    21865240.960          44.300
        41.900
 123352295.088 6  95940687.259 7  23083700.140    23083703.560          39.600
        42.100
 128108397.820 8                  24378217.360                          51.800

 19  2 28 14 35 26.0000000  0 19G29G20G27G25G15G21G31G16G10G26R22R13
                                R07R21R23R12R08R11E01
 122611923.714 7  95541754.93045  23332275.700    23332271.780          44.800
        31.600
 106280003.904 8  82815564.83047  20224412.040    20224406.000          49.150
        45.850
 128920429.217 7 100457465.51346  24532740.800    24532739.460          43.800
        37.900
                                  24558962.880    24558962.980          41.850
        36.900
 132855670.855 7 103523880.23045  25281592.540    25281592.240          43.400
        31.350
 108616954.765 8  84636562.40547  20669119.720    20669113.400          50.050
        44.650
 124964571.272 6  97374970.51645  23779970.980    23779966.220          37.500
        33.050
 118108465.550 7  92032548.27246  22475293.420    22475287.540          47.750
        40.050
 112229347.946 8  87451432.15847  21356533.320    21356530.680          49.700
        44.800
 108541149.079 8  84577509.49247  20654692.960    20654690.660          50.350
        46.350
 112693679.371 7  87650657.335 7  21111324.520    21111327.600          47.850
        42.900
 116560635.970 7  90658286.765 6  21828063.920    21828066.560          42.050
        38.900
 112243659.061 7  87300633.686 7  20968057.580    20968059.640          46.600
        44.900
 127174753.908 6  98913703.082 6  23765640.160    23765645.080          41.850
        41.850
 118552018.637 7  92207132.571 5  22162047.620    22162053.080          43.850
        35.900
 111155169.407 7                  20808481.520                          46.300

 117080004.121 7  91062245.630 7  21863864.240    21863866.520          44.700
        42.050
 123360624.394 6  95947165.617 6  23085258.640    23085262.220          37.200
        37.600
 128109136.247 8                  24378357.880                          51.800

 19  2 28 14 35 28.0000000  0 19G29G20G27G25G15G21G31G16G10G26R22R13
                                R07R21R23R12R08R11E01
 122615275.400 7  95544366.65845  23332913.500    23332909.560          44.400
        34.400
 106278646.991 8  82814507.48947  20224153.840    20224147.780          49.150
        46.000
 128915470.519 7 100453601.60646  24531797.180    24531795.900          44.100
        38.800
                                  24560381.140    24560380.260          40.800
        37.050
 132854541.461 7 103523000.22445  25281377.440    25281376.840          42.600
        31.700
 108619975.696 8  84638916.37347  20669694.560    20669688.260          49.950
        44.250
 124969593.068 6  97378883.56745  23780926.580    23780921.840          37.550
        32.450
 118102536.561 7  92027928.28546  22474165.180    22474159.280          47.600
        39.300
 112223842.921 8  87447142.53047  21355485.740    21355483.120          49.700
        44.900
 108539143.584 8  84575946.76947  20654311.340    20654309.020          50.300
        46.200
 112694630.239 7  87651396.894 7  21111502.660    21111505.740          47.500
        43.100
 116557749.709 7  90656041.907 6  21827523.400    21827526.080          42.000
        38.600
 112241922.111 7  87299282.722 7  20967733.120    20967735.180          47.050
        45.350
 127178240.722 7  98916415.046 7  23766291.920    23766296.860          42.350
        42.450
 118549597.454 7  92205249.425 6  22161595.020    22161600.440          44.550
        36.300
 111160604.613 7                  20809499.000                          46.900

 117072644.652 7  91056521.617 7  21862489.920    21862492.200          45.350
        43.300
 123368953.120 6  95953643.502 6  23086817.260    23086820.660          37.900
        39.750
 128109876.140 8                  24378498.700                          51.800

 19  2 28 14 35 30.0000000  0 18G29G20G27G25G15G21G16G10G26R22R13R07
                                R21R23R12R08R11E01
 122618627.374 7  95546978.60245  23333551.360    23333547.420          44.850
        34.750
 106277292.104 8  82813451.73447  20223896.020    20223889.940          49.100
        46.050
 128910510.890 7 100449736.97046  24530853.380    24530852.140          43.750
        38.050
                                  24561798.760    24561798.700          41.200
        36.900
 132853412.921 7 103522120.85645  25281162.560    25281162.060          42.650
        33.800
 108622997.286 8  84641270.86147  20670269.560    20670263.260          50.000
        44.850
 118096608.479 7  92023309.00046  22473037.100    22473031.200          47.000
        38.600
 112218339.165 8  87442853.89047  21354438.420    21354435.780          49.850
        45.400
 108537140.120 8  84574385.62447  20653930.080    20653927.760          50.300
        46.600
 112695580.626 8  87652136.084 7  21111680.680    21111683.760          48.350
        43.900
 116554866.126 6  90653799.135 6  21826983.420    21826986.080          41.400
        37.900
 112240187.823 7  87297933.832 7  20967409.140    20967411.200          46.450
        45.300
 127181726.770 7  98919126.399 7  23766943.600    23766948.080          42.250
        42.950
 118547175.812 7  92203365.925 6  22161142.320    22161147.720          45.050
        36.450
 111166041.665 7                  20810516.820                          46.550

 117065285.648 7  91050797.954 7  21861115.700    21861117.940          45.800
        42.850
 123377281.453 6  95960121.090 7  23088375.820    23088379.040          40.350
        42.100
 128110617.476 8                  24378639.760                          51.800

 19  2 28 14 35 32.0000000  0 19G29G20G27G25G15G21G31G16G10G26R22R13
                                R07R21R23R12R08R11E01
 122621979.926 7  95549591.00145  23334189.320    23334185.340          45.000
        32.050
 106275939.565 8  82812397.81747  20223638.640    20223632.580          49.250
        46.200
 128905550.667 7 100445871.86446  24529909.460    24529908.260          44.600
        37.650
 129080572.687 7 100582260.24446  24563216.260    24563217.160          44.050
        36.550
 132852285.545 6 103521242.40644  25280948.040    25280946.200          40.250
        28.550
 108626019.815 8  84643626.07447  20670844.740    20670838.420          49.850
        44.700
                                  23782838.240    23782834.500          44.750
        39.550
 118090681.608 7  92018690.66446  22471909.240    22471903.360          47.050
        39.350
 112212836.977 8  87438566.45547  21353391.380    21353388.740          49.850
        45.100
 108535138.992 8  84572826.29747  20653549.280    20653546.960          50.200
        46.100
 112696530.834 8  87652875.120 7  21111858.680    21111861.760          48.300
        44.100
 116551985.586 6  90651558.721 6  21826443.980    21826446.660          41.600
        38.050
 112238456.672 7  87296587.379 7  20967085.740    20967087.800          46.350
        45.500
 127185212.600 6  98921837.597 7  23767594.900    23767599.400          40.650
        42.350
 118544754.049 7  92201482.324 6  22160689.600    22160694.960          44.700
        36.650
 111171480.904 7                  20811535.080                          46.550

 117057927.550 7  91045074.982 7  21859741.640    21859743.860          44.500
        43.400
 123385608.584 6                  23089934.040                          39.750

 128111360.538 8                  24378781.180                          51.750

 19  2 28 14 35 34.0000000  0 19G29G20G27G25G15G21G31G16G10G26R22R13
                                R07R21R23R12R08R11E01
 122625332.983 7  95552203.75845  23334827.400    23334823.480          45.350
        34.600
 106274589.292 8  82811345.65347  20223381.700    20223375.620          49.100
        46.100
 128900589.766 7 100442006.24146  24528965.440    24528964.260          44.950
        36.750
 129088023.263 6 100588065.87246  24564633.740    24564635.120          41.150
        36.900
 132851159.183 6 103520364.72445  25280733.860    25280731.520          40.950
        30.900
 108629043.210 8  84645981.96647  20671420.060    20671413.760          50.150
        44.650
                                  23783794.200    23783788.640          45.350
        38.200
 118084755.886 7  92014073.21546  22470781.600    22470775.760          47.250
        38.550
 112207336.287 8  87434280.20947  21352344.640    21352342.000          49.600
        45.300
 108533140.108 8  84571268.72747  20653168.920    20653166.580          50.100
        46.050
 112697480.794 7  87653613.986 7  21112036.620    21112039.700          47.850
        43.700
 116549107.957 7  90649320.567 6  21825905.100    21825907.780          42.000
        38.500
 112236728.514 7  87295243.246 7  20966762.900    20966764.980          46.300
        45.600
 127188697.934 6  98924548.388 7  23768246.320    23768250.560          41.350
        43.400
 118542332.086 7  92199598.583 6  22160236.820    22160242.180          44.400
        36.800
 111176922.248 7                  20812553.700                          46.300

 117050570.295 7  91039352.677 7  21858367.740    21858369.940          45.350
        43.100
 123393936.524 6                  23091492.460    23091495.960          41.600
        41.350
 128112105.261 8                  24378922.900                          51.800

 19  2 28 14 35 36.0000000  0 19G29G20G27G25G15G21G31G16G10G26R22R13
                                R07R21R23R12R08R11E01
 122628686.668 7  95554817.00745  23335465.580    23335461.700          45.150
        33.750
 106273241.412 8  82810295.35347  20223125.220    20223119.140          49.100
        46.100
 128895628.282 7 100438140.16046  24528021.320    24528020.140          44.550
        37.500
 129095474.262 7 100593871.83946  24566051.680    24566053.180          44.250
        37.650
 132850034.183 6 103519488.08644  25280519.880    25280516.940          39.400
        27.200
 108632067.606 8  84648338.64147  20671995.600    20671989.280          50.100
        44.100
                                  23784749.420    23784744.060          45.350
        40.000
 118078831.419 7  92009456.75446  22469654.220    22469648.360          47.050
        38.600
 112201837.231 8  87429995.23747  21351298.200    21351295.560          49.600
        45.150
 108531143.639 8  84569713.04147  20652789.000    20652786.680          50.150
        46.200
 112698430.684 7  87654352.800 7  21112214.560    21112217.640          47.450
        43.400
 116546233.436 6  90647084.833 6  21825366.800    21825369.480          41.800
        38.550
 112235003.452 7  87293901.537 7  20966440.640    20966442.720          46.650
        45.500
 127192182.934 6  98927258.962 7  23768897.540    23768902.040          40.500
        42.450
 118539910.047 7  92197714.775 6  22159784.020    22159789.400          44.650
        36.550
 111182365.873 7                  20813572.760                          46.200

 117043213.880 7  91033631.031 7  21856994.020    21856996.200          44.700
        43.250
 123402264.259 6                  23093050.860    23093054.480          41.350
        43.750
 128112851.781 8                  24379064.960                          51.800

 19  2 28 14 35 38.0000000  0 19G29G20G27G25G15G21G31G16G10G26R22R13
                                R07R21R23R12R08R11E01
 122632042.006 7  95557431.56646  23336104.080    23336100.260          45.450
        36.050
 106271896.980 8  82809247.74647  20222869.380    20222863.300          49.050
        46.050
 128890667.350 7 100434274.51346  24527077.280    24527076.160          44.850
        38.500
 129102926.625 7 100599678.86145  24567470.080    24567471.180          44.800
        35.400
 132848911.350 6 103518613.21045  25280306.300    25280302.860          37.950
        31.950
 108635094.047 8  84650696.91047  20672571.500    20672565.200          50.000
        44.050
 124994724.531 7  97398478.77346  23785705.080    23785699.840          45.450
        39.050
 118072909.260 7  92004842.08246  22468527.280    22468521.400          47.000
        39.350
 112196340.864 8  87425712.35347  21350252.280    21350249.640          49.650
        45.000
 108529150.606 8  84568160.02947  20652409.740    20652407.400          50.250
        46.100
 112699381.517 7  87655092.341 7  21112392.700    21112395.740          46.800
        42.600
 116543363.055 6  90644852.313 6  21824829.240    21824831.960          41.000
        38.150
 112233282.534 7  87292563.051 7  20966119.140    20966121.260          46.850
        45.450
 127195668.784 6  98929970.175 7  23769548.740    23769553.780          38.700
        42.650
 118537489.026 7  92195831.769 6  22159331.400    22159336.800          44.800
        36.650
 111187812.821 7                  20814592.460                          46.200

 117035859.496 7  91027910.963 7  21855620.680    21855622.800          44.500
        42.800
 123410592.870 6                  23094609.360                          41.050

 128113601.133 8                  24379207.560                          51.800

 19  2 28 14 35 40.0000000  0 19G29G20G27G25G15G21G31G16G10G26R22R13
                                R07R21R23R12R08R11E01
 122635397.908 7  95560046.55545  23336742.700    23336738.740          44.750
        34.800
 106270554.823 8  82808201.90947  20222613.980    20222607.880          49.250
        46.150
 128885705.711 7 100430408.29946  24526133.120    24526131.940          44.500
        38.950
 129110379.256 7 100605486.09946  24568888.420    24568889.220          44.200
        36.900
 132847789.649 6 103517739.12145  25280092.700    25280089.600          38.550
        33.350
 108638121.394 8  84653055.88447  20673147.580    20673141.300          49.850
        43.650
 124999746.761 7  97402392.18946  23786660.900    23786655.560          45.300
        38.250
 118066988.264 7  92000228.31946  22467400.540    22467394.700          47.000
        38.600
 112190846.017 8  87421430.65247  21349206.640    21349204.000          49.850
        44.950
 108527159.854 8  84566608.79147  20652030.920    20652028.580          50.150
        45.850
 112700332.107 7  87655831.693 7  21112570.780    21112573.820          47.150
        42.950
 116540495.674 6  90642622.131 6  21824292.260    21824294.980          41.100
        37.600
 112231564.659 7  87291226.941 7  20965798.240    20965800.380          46.700
        45.750
 127199154.204 6  98932681.034 6  23770200.220    23770205.100          38.700
        41.850
 118535067.840 7  92193948.633 6  22158878.780    22158884.180          44.700
        36.450
 111193261.873 7                  20815612.540                          46.350

 117028505.989 7  91022191.564 7  21854247.500    21854249.560          44.350
        42.200
 123418921.446 6                  23096167.960    23096171.840          41.200
        42.900
 128114352.162 8                  24379350.500                          51.750

 19  2 28 14 35 42.0000000  0 19G29G20G27G25G15G21G31G16G10G26R22R13
                                R07R21R23R12R08R11E01
 122638753.732 7  95562661.46645  23337381.280    23337377.400          46.150
        34.100
 106269214.413 8  82807157.43247  20222358.920    20222352.800          49.050
        46.200
 128880742.869 7 100426541.15946  24525188.720    24525187.540          44.350
        38.650
 129117831.558 7 100611293.06246  24570306.700    24570307.000          44.050
        38.500
 132846668.464 6 103516865.47444  25279879.340    25279875.800          38.950
        29.400
 108641149.070 8  84655415.10447  20673723.740    20673717.440          49.850
        43.850
 125004768.313 7  97406305.06646  23787616.400    23787611.900          44.950
        39.050
 118061067.849 7  91995615.01746  22466273.900    22466268.080          47.150
        38.200
 112185352.146 8  87417149.71147  21348161.200    21348158.560          49.800
        45.200
 108525170.823 8  84565058.89747  20651652.420    20651650.080          50.250
        46.200
 112701281.909 7  87656570.426 7  21112748.720    21112751.740          46.650
        42.000
 116537630.705 6  90640393.820 6  21823755.700    21823758.460          41.050
        37.600
 112229849.260 7  87289892.731 7  20965477.800    20965479.940          46.600
        44.950
 127202638.701 6  98935391.192 6  23770851.480    23770855.940          37.850
        41.900
 118532645.917 7  92192064.917 6  22158426.000    22158431.420          45.050
        36.800
 111198712.501 7                  20816632.880                          46.350

 117021152.726 7  91016472.356 7  21852874.360    21852876.340          44.300
        43.000
 123427249.077 6  95998980.481 7  23097726.360    23097730.260          41.050
        42.850
 128115104.331 8                  24379493.600                          51.650

 19  2 28 14 35 44.0000000  0 19G29G20G27G25G15G21G31G16G10G26R22R13
                                R07R21R23R12R08R11E01
 122642109.855 7  95565276.62345  23338019.920    23338016.000          46.350
        33.200
 106267876.042 8  82806114.54347  20222104.220    20222098.120          48.950
        46.550
 128875779.136 7 100422673.31146  24524244.140    24524242.940          44.150
        38.000
 129125283.903 7 100617100.08546  24571724.800    24571725.300          44.450
        39.550
 132845548.153 6 103515992.48945  25279666.100    25279663.600          41.100
        32.400
 108644177.405 8  84657774.84747  20674300.020    20674293.720          49.900
        44.200
 125009789.572 7  97410217.72646  23788571.960    23788567.300          45.400
        37.550
 118055148.377 7  91991002.44846  22465147.460    22465141.620          46.950
        39.600
 112179859.562 8  87412869.77447  21347116.000    21347113.360          49.600
        45.450
 108523183.842 8  84563510.59847  20651274.300    20651271.980          50.150
        46.650
 112702231.245 7  87657308.798 7  21112926.560    21112929.580          46.900
        42.700
 116534768.487 6  90638167.661 6  21823219.780    21823222.480          41.000
        38.100
 112228136.628 7  87288560.695 7  20965157.860    20965160.020          47.250
        44.900
 127206122.523 6  98938100.877 6  23771502.500    23771506.980          40.700
        41.800
 118530223.571 7  92190180.870 6  22157973.160    22157978.580          45.350
        36.650
 111204165.047 7                  20817653.600                          46.500

 117013799.998 7  91010753.555 7  21851501.320    21851503.240          44.900
        42.900
 123435576.282 6  96005457.209 7  23099284.740    23099289.000          41.300
        43.300
 128115857.939 8                  24379637.020                          51.700

 19  2 28 14 35 46.0000000  0 19G29G20G27G25G15G21G31G16G10G26R22R13
                                R07R21R23R12R08R11E01
 122645466.816 8  95567892.41046  23338658.740    23338654.740          49.100
        38.250
 106266540.341 8  82805073.73747  20221850.060    20221843.940          48.950
        45.850
 128870815.111 7 100418805.25246  24523299.520    24523298.280          43.650
        39.000
 129132736.862 7 100622907.54946  24573143.080    24573143.560          43.800
        40.300
 132844429.364 7 103515120.72946  25279453.140    25279450.500          43.750
        36.700
 108647207.011 8  84660135.58047  20674876.540    20674870.240          49.850
        44.150
 125014811.037 7  97414130.55546  23789527.620    23789523.080          44.950
        40.000
 118049230.419 7  91986391.05246  22464021.300    22464015.480          46.800
        38.600
 112174368.896 8  87408591.32747  21346071.160    21346068.520          49.650
        45.100
 108521199.538 8  84561964.38147  20650896.700    20650894.380          50.100
        46.250
 112703180.753 7  87658047.297 7  21113104.440    21113107.460          46.900
        43.050
 116531909.636 6  90635944.106 6  21822684.400    21822687.100          41.150
        37.900
 112226427.451 7  87287231.321 7  20964838.580    20964840.740          47.650
        45.750
 127209606.394 6  98940810.540 6  23772153.540    23772157.980          40.300
        41.400
 118527801.429 7  92188296.980 6  22157520.380    22157525.760          45.550
        36.950
 111209620.074 7                  20818674.820                          46.850

 117006448.409 7  91005035.640 7  21850128.460    21850130.340          44.900
        43.100
 123443903.696 6  96011934.066 7  23100843.060    23100847.360          41.950
        43.350
 128116613.616 8                  24379780.820                          51.700

 19  2 28 14 35 48.0000000  0 19G29G20G27G25G15G21G31G16G10G26R22R13
                                R07R21R23R12R08R11E01
 122648824.965 7  95570509.10245  23339297.780    23339293.760          47.150
        32.000
 106265207.503 8  82804035.16347  20221596.420    20221590.320          49.000
        45.650
 128865850.965 7 100414937.09746  24522354.840    24522353.600          43.550
        38.000
 129140190.633 7 100628715.64846  24574561.520    24574562.140          44.550
        39.300
 132843312.215 7 103514250.27946  25279240.500    25279238.100          42.700
        37.000
 108650238.087 8  84662497.45147  20675453.340    20675447.040          49.950
        44.150
 125019833.023 7  97418043.79746  23790483.120    23790478.660          44.250
        39.900
 118043314.195 7  91981781.00946  22462895.480    22462889.660          46.850
        39.050
 112168880.324 8  87404314.52847  21345026.700    21345024.080          49.650
        45.350
 108519218.079 8  84560420.38747  20650519.640    20650517.320          50.050
        45.950
 112704130.695 7  87658786.136 7  21113282.360    21113285.420          47.050
        43.050
 116529054.379 6  90633723.354 6  21822149.720    21822152.400          41.200
        37.450
 112224721.797 7  87285904.697 7  20964519.960    20964522.140          47.400
        45.700
 127213090.337 6  98943520.244 6  23772804.480    23772808.900          38.950
        41.950
 118525379.677 7  92186413.393 6  22157067.620    22157073.060          45.650
        37.100
 111215077.766 7                  20819696.520                          46.650

 116999098.313 7  90999318.915 6  21848755.880    21848757.740          45.200
        41.650
 123452231.383 6  96018411.139 7  23102401.460    23102405.960          41.350
        43.400
 128117371.542 8                  24379925.040                          51.650

 19  2 28 14 35 50.0000000  0 19G29G20G27G25G15G21G31G16G10G26R22R13
                                R07R21R23R12R08R11E01
 122652184.183 8  95573126.64446  23339937.040    23339932.980          48.050
        37.700
 106263877.533 8  82802998.82247  20221343.340    20221337.220          49.050
        45.800
 128860886.786 7 100411068.91346  24521410.200    24521408.920          44.600
        38.800
 129147645.206 6 100634524.37745  24575980.080    24575980.640          41.200
        35.800
 132842196.731 7 103513381.07745  25279028.240    25279025.900          44.050
        34.550
 108653270.602 8  84664860.45447  20676030.400    20676024.120          49.800
        43.300
 125024855.457 7  97421957.38446  23791438.720    23791434.540          44.000
        39.750
 118037399.703 7  91977172.31846  22461769.980    22461764.180          47.300
        39.950
 112163393.828 8  87400039.34447  21343982.660    21343980.040          49.700
        45.050
 108517239.464 8  84558878.60947  20650143.140    20650140.800          50.200
        46.600
 112705081.017 7  87659525.269 7  21113460.400    21113463.460          47.250
        43.350
 116526202.635 6  90631505.327 6  21821615.620    21821618.360          41.250
        38.300
 112223019.784 7  87284580.902 7  20964202.000    20964204.200          46.950
        45.650
 127216574.601 6  98946230.214 6  23773455.620    23773460.180          38.750
        41.250
 118522958.329 7  92184530.118 6  22156614.980    22156620.420          44.700
        36.450
 111220538.127 7                  20820718.720                          46.150

 116991749.602 7  90993603.257 6  21847383.540    21847385.400          42.850
        41.400
 123460559.502 7  96024888.549 7  23103959.840    23103964.720          42.000
        43.200
 128118131.707 8                  24380069.680                          51.700

 19  2 28 14 35 52.0000000  0 20G29G20G27G25G15G21G31G16G10G26R22R13
                                R07R21R23R06R12R08R11E01
 122655544.474 7  95575745.07546  23340576.480    23340572.460          47.800
        38.500
 106262550.426 8  82801964.70947  20221090.800    20221084.680          49.000
        46.050
 128855922.461 7 100407200.60046  24520465.520    24520464.240          44.400
        39.250
 129155100.593 6 100640333.78845  24577398.800    24577398.660          41.350
        32.600
 132841082.989 7 103512513.23246  25278816.280    25278814.120          44.400
        37.300
 108656304.595 8  84667224.61447  20676607.760    20676601.460          49.700
        43.600
 125029878.372 7  97425871.31946  23792394.180    23792390.300          44.150
        40.300
 118031486.976 7  91972564.99646  22460644.840    22460639.020          47.250
        39.550
 112157909.476 8  87395765.82147  21342939.020    21342936.400          49.800
        45.600
 108515263.718 8  84557339.06447  20649767.160    20649764.840          50.200
        46.400
 112706031.671 7  87660264.661 6  21113638.500    21113641.560          46.050
        41.800
 116523354.410 6  90629290.047 6  21821082.240    21821085.000          41.800
        37.950
 112221321.335 7  87283259.888 7  20963884.740    20963886.920          47.250
        45.250
 127220058.937 6  98948940.229 6  23774106.640    23774111.580          40.900
        40.900
 118520537.390 7  92182647.171 6  22156162.440    22156167.860          44.750
        36.650
                                  23195861.340                          36.600

 111226001.215 7                  20821741.420                          46.450

 116984402.320 7  90987888.730 7  21846011.460    21846013.380          44.350
        43.650
 123468887.918 6  96031366.181 7  23105518.360    23105523.260          41.450
        42.900
 128118894.131 8                  24380214.760                          51.800

 19  2 28 14 35 54.0000000  0 20G29G20G27G25G15G21G31G16G10G26R22R13
                                R07R21R23R06R12R08R11E01
 122658905.857 8  95578364.34346  23341216.140    23341212.120          48.300
        38.700
 106261226.144 8  82800932.79947  20220838.800    20220832.660          49.300
        46.400
 128850958.053 7 100403332.24546  24519520.840    24519519.500          44.700
        38.400
 129162556.795 7 100646143.83046  24578817.720    24578817.920          44.100
        39.650
 132839970.855 7 103511646.63046  25278604.580    25278602.680          45.000
        36.400
 108659340.013 8  84669589.86547  20677185.400    20677179.080          49.800
        43.800
 125034901.747 7  97429785.61946  23793349.800    23793345.960          43.600
        38.750
 118025575.931 7  91967958.98346  22459520.000    22459514.180          47.950
        38.500
 112152427.162 8  87391493.88247  21341895.760    21341893.160          49.800
        45.000
 108513290.812 8  84555801.73547  20649391.740    20649389.400          50.250
        46.350
 112706982.653 7  87661004.315 7  21113816.660    21113819.720          46.250
        42.000
 116520509.755 6  90627077.544 6  21820549.480    21820552.280          41.750
        37.750
 112219626.448 7  87281941.656 7  20963568.160    20963570.320          47.200
        45.300
 127223543.479 6  98951650.430 6  23774757.920    23774762.660          40.900
        39.800
 118518116.873 7  92180764.554 6  22155709.960    22155715.380          44.450
        36.750
 123782403.873 6                  23196768.480                          41.350

 111231466.977 7                  20822764.620                          46.750

 116977056.431 7  90982175.269 7  21844639.620    21844641.620          44.650
        43.300
 123477216.524 6  96037843.966 7  23107076.920    23107081.680          41.850
        43.200
 128119658.780 8                  24380360.260                          51.750

 19  2 28 14 35 56.0000000  0 20G29G20G27G25G15G21G31G16G10G26R22R13
                                R07R21R23R06R12R08R11E01
 122662267.548 8  95580983.83046  23341855.860    23341851.860          48.250
        39.000
 106259903.953 8  82799902.52047  20220587.200    20220581.060          49.250
        45.900
 128845992.809 7 100399463.22846  24518575.980    24518574.680          45.500
        38.500
 129170013.088 7 100651953.93346  24580236.680    24580236.900          43.800
        38.300
 132838859.670 7 103510780.79045  25278393.180    25278391.500          45.200
        35.900
 108662376.142 8  84671955.68347  20677763.140    20677756.840          49.750
        44.000
 125039924.812 7  97433699.67646  23794305.360    23794302.060          43.600
        39.950
 118019665.887 7  91963353.74446  22458395.340    22458389.540          47.800
        39.250
 112146946.234 8  87387223.02947  21340852.780    21340850.180          49.750
        45.300
 108511319.997 8  84554266.03447  20649016.700    20649014.380          50.300
        46.400
 112707933.230 7  87661743.653 7  21113994.720    21113997.780          46.250
        42.000
 116517667.893 6  90624867.207 6  21820017.300    21820020.100          41.900
        37.650
 112217934.474 7  87280625.670 7  20963252.100    20963254.240          46.950
        45.300
 127227027.427 6  98954360.187 6  23775408.960    23775413.640          40.450
        40.700
 118515696.046 7  92178881.684 6  22155257.400    22155262.820          44.850
        36.650
 123787230.850 6                  23197672.580                          41.900

 111236934.736 7                  20823788.200                          46.550

 116969711.185 7  90976462.295 7  21843267.920    21843270.000          44.400
        43.200
 123485544.806 6  96044321.509 7  23108635.420    23108640.100          41.900
        42.250
 128120424.936 8                  24380506.060                          51.800

 19  2 28 14 35 58.0000000  0 20G29G20G27G25G15G21G31G16G10G26R22R13
                                R07R21R23R06R12R08R11E01
 122665629.872 8  95583603.81946  23342495.680    23342491.680          48.250
        38.150
 106258584.133 8  82798874.08747  20220336.060    20220329.920          49.250
        46.050
 128841026.990 7 100395593.77246  24517631.020    24517629.760          45.450
        37.950
 129177469.708 7 100657764.27346  24581655.620    24581656.080          44.050
        38.100
 132837749.662 7 103509915.84546  25278181.960    25278180.180          44.650
        36.250
 108665413.250 8  84674322.25547  20678341.100    20678334.780          49.850
        44.400
 125044947.857 7  97437613.72846  23795261.020    23795257.740          42.950
        39.050
 118013757.085 7  91958749.47746  22457270.920    22457265.120          47.750
        39.050
 112141466.908 8  87382953.42347  21339810.100    21339807.500          49.650
        45.400
 108509351.556 8  84552732.18347  20648642.120    20648639.800          50.300
        46.650
 112708883.716 7  87662482.923 7  21114172.800    21114175.840          45.950
        42.200
 116514829.088 7  90622659.254 6  21819485.680    21819488.460          42.100
        37.500
 112216245.565 7  87279312.067 7  20962936.580    20962938.740          47.050
        45.350
 127230511.105 6  98957069.699 6  23776059.920    23776064.840          40.000
        40.800
 118513275.083 7  92176998.728 6  22154804.820    22154810.220          44.900
        36.250
 123792060.341 6                  23198577.360                          41.800

 111242404.704 7                  20824812.200                          46.400

 116962366.832 7  90970750.031 7  21841896.400    21841898.540          44.350
        43.850
 123493872.966 7  96050798.958 7  23110193.940    23110198.420          42.400
        42.450
 128121192.844 8                  24380652.180                          51.800

 19  2 28 14 36  0.0000000  0 20G29G20G27G25G15G21G31G16G10G26R22R13
                                R07R21R23R06R12R08R11E01
 122668993.187 8  95586224.58646  23343135.720    23343131.720          48.300
        39.600
 106257267.076 8  82797847.80947  20220085.440    20220079.280          49.300
        46.550
 128836060.960 7 100391724.15346  24516686.020    24516684.780          45.000
        39.000
 129184927.003 7 100663575.12146  24583074.660    24583075.220          43.650
        37.950
 132836641.241 7 103509052.13646  25277971.000    25277969.380          44.600
        37.400
 108668451.709 8  84676689.88347  20678919.300    20678912.980          49.800
        44.200
 125049971.297 7  97441528.07046  23796216.680    23796213.440          43.300
        38.600
 118007849.910 7  91954146.48346  22456146.840    22456141.000          47.550
        38.550
 112135989.577 8  87378685.37247  21338767.780    21338765.200          49.650
        45.600
 108507385.870 8  84551200.48047  20648268.060    20648265.740          50.150
        46.850
 112709834.458 7  87663222.391 6  21114350.920    21114353.940          45.950
        41.800
 116511993.745 6  90620453.990 6  21818954.720    21818957.500          41.800
        37.750
 112214560.164 7  87278001.204 7  20962621.740    20962623.880          47.200
        45.000
 127233994.823 6  98959779.231 6  23776711.000    23776715.880          41.050
        40.650
 118510854.401 7  92175115.985 6  22154352.300    22154357.700          45.450
        36.100
 123796892.655 6                  23199483.260                          41.600

 111247877.217 7                  20825836.660                          46.750

 116955023.803 7  90965038.803 7  21840525.120    21840527.340          44.350
        43.300
 123502201.358 7  96057276.592 7  23111752.600    23111756.880          42.600
        42.800
 128121962.916 8                  24380798.720                          51.750

 19  2 28 14 36  2.0000000  0 20G29G20G27G25G15G21G31G16G10G26R22R13
                                R07R21R23R06R12R08R11E01
 122672357.166 8  95588845.86646  23343775.860    23343771.860          48.250
        39.000
 106255952.453 8  82796823.42547  20219835.280    20219829.120          49.150
        46.350
 128831094.450 7 100387854.14946  24515740.920    24515739.700          44.700
        38.350
 129192384.720 7 100669386.30646  24584493.800    24584494.740          43.550
        38.650
 132835534.103 7 103508189.42845  25277760.320    25277758.740          45.250
        34.750
 108671491.193 8  84679058.31247  20679497.700    20679491.380          49.800
        43.550
 125054994.762 7  97445442.45646  23797172.480    23797169.320          43.250
        39.550
 118001944.039 7  91949544.53446  22455022.980    22455017.120          47.100
        39.350
 112130513.951 8  87374418.65347  21337725.800    21337723.220          49.650
        45.650
 108505422.618 8  84549670.67347  20647894.460    20647892.140          50.200
        46.750
 112710785.095 7  87663961.772 7  21114529.000    21114532.020          46.450
        42.650
 116509161.535 6  90618251.164 6  21818424.340    21818427.120          41.400
        38.200
 112212877.951 7  87276692.820 7  20962307.520    20962309.620          46.600
        45.400
 127237478.327 6  98962488.627 6  23777362.040    23777366.740          39.700
        41.250
 118508433.711 7  92173233.226 6  22153899.740    22153905.160          45.000
        36.550
 123801727.495 6                  23200390.000                          40.200

 111253351.948 7                  20826861.540                          46.450

 116947681.839 7  90959328.397 7  21839154.040    21839156.320          44.550
        43.350
 123510529.573 7  96063754.087 7  23113311.200    23113315.440          42.750
        43.250
 128122734.818 8                  24380945.600                          51.850

 19  2 28 14 36  4.0000000  0 20G29G20G27G25G15G21G31G16G10G26R22R13
                                R07R21R23R06R12R08R11E01
 122675722.436 8  95591468.15646  23344416.260    23344412.300          48.000
        38.900
 106254640.873 8  82795801.41647  20219585.680    20219579.520          49.100
        46.250
 128826128.010 7 100383984.19646  24514795.820    24514794.640          44.750
        39.200
 129199843.421 7 100675198.26646  24585913.140    24585914.180          43.700
        38.650
 132834428.811 7 103507328.15846  25277550.000    25277548.560          44.950
        36.550
 108674532.326 8  84681428.02547  20680076.400    20680070.080          49.850
        43.550
 125060018.873 7  97449357.33846  23798128.480    23798125.000          43.650
        38.150
 117996040.122 7  91944944.10246  22453899.500    22453893.640          46.950
        38.300
 112125040.587 8  87370153.69647  21336684.260    21336681.680          49.700
        45.800
 108503462.424 8  84548143.25347  20647521.460    20647519.140          50.200
        46.250
 112711736.278 7  87664701.585 7  21114707.220    21114710.220          46.600
        42.650
 116506333.031 6  90616051.220 6  21817894.640    21817897.440          41.200
        38.150
 112211199.493 7  87275387.349 7  20961993.960    20961996.060          46.300
        45.400
 127240962.179 6  98965198.254 6  23778013.040    23778017.860          40.350
        41.550
 118506013.609 7  92171350.931 6  22153447.320    22153452.720          45.250
        36.900
 123806565.396 6                  23201297.060                          40.050

 111258829.560 7                  20827886.960                          46.400

 116940341.465 7  90953619.230 7  21837783.260    21837785.580          44.850
        42.950
 123518858.430 7  96070232.089 7  23114869.880    23114874.160          43.050
        42.950
 128123509.153 8                  24381092.960                          51.850

 19  2 28 14 36  6.0000000  0 20G29G20G27G25G15G21G31G16G10G26R22R13
                                R07R21R23R06R12R08R11E01
 122679087.629 8  95594090.38346  23345056.640    23345052.720          48.150
        38.300
 106253330.997 8  82794780.73847  20219336.420    20219330.260          49.100
        46.350
 128821160.333 7 100380113.29646  24513850.500    24513849.340          44.550
        38.900
 129207301.790 7 100681009.96246  24587332.380    24587333.460          43.250
        38.150
 132833324.066 7 103506467.32245  25277339.760    25277338.380          44.600
        35.550
 108677573.752 8  84683797.96647  20680655.160    20680648.840          49.900
        43.450
 125065042.277 7  97453271.66846  23799084.400    23799080.900          44.200
        37.350
 117990136.781 7  91940344.09646  22452776.140    22452770.260          46.900
        39.250
 112119568.196 8  87365889.49947  21335642.900    21335640.300          49.750
        45.100
 108501503.925 8  84546617.15047  20647148.760    20647146.440          50.100
        46.200
 112712686.689 7  87665440.796 7  21114885.240    21114888.260          46.650
        42.650
 116503506.897 6  90613853.118 6  21817365.420    21817368.200          41.350
        38.600
 112209523.525 7  87274083.814 7  20961680.880    20961682.960          46.300
        45.250
 127244445.076 6  98967907.163 6  23778663.960    23778668.880          40.200
        41.350
 118503592.724 7  92169468.026 6  22152994.760    22153000.180          45.100
        36.650
 123811405.082 6                  23202204.180                          40.500

 111264308.708 7                  20828912.680                          46.300

 116933001.249 7  90947910.177 7  21836412.540    21836414.820          44.900
        42.600
 123527186.355 7  96076709.365 7  23116428.380    23116432.520          42.800
        43.000
 128124284.567 8                  24381240.520                          51.800

 19  2 28 14 36  8.0000000  0 20G29G20G27G25G15G21G31G16G10G26R22R13
                                R07R21R23R06R12R08R11E01
 122682452.820 7  95596712.60146  23345697.040    23345693.080          47.850
        38.350
 106252022.877 8  82793761.42447  20219087.500    20219081.340          49.050
        45.650
 128816191.453 7 100376241.45146  24512904.940    24512903.780          44.200
        37.850
 129214759.831 7 100686821.40845  24588751.620    24588752.520          43.300
        34.800
 132832219.844 7 103505606.90145  25277129.620    25277128.080          44.900
        35.950
 108680615.516 8  84686168.17747  20681234.000    20681227.680          49.750
        43.750
 125070065.032 7  97457185.50146  23800040.160    23800036.480          43.800
        38.000
 117984234.070 7  91935744.57746  22451652.880    22451647.000          47.000
        38.950
 112114096.789 8  87361626.06747  21334601.720    21334599.120          49.900
        45.750
 108499547.176 8  84545092.41047  20646776.400    20646774.080          50.200
        45.900
 112713636.312 7  87666179.394 7  21115063.120    21115066.160          46.050
        42.300
 116500683.178 6  90611656.896 6  21816836.620    21816839.400          40.950
        38.150
 112207849.979 7  87272782.175 7  20961368.280    20961370.300          47.100
        45.000
 127247927.060 6  98970615.355 6  23779314.540    23779319.560          40.650
        40.800
 118501171.092 7  92167584.533 6  22152542.060    22152547.480          44.700
        36.900
 123816246.632 6                  23203111.940                          39.750

 111269789.451 7                  20829938.680                          46.550

 116925661.312 7  90942201.341 7  21835041.860    21835044.120          45.050
        42.300
 123535513.563 7  96083186.077 7  23117986.700    23117990.760          42.100
        42.750
 128125061.130 8                  24381388.280                          51.800

 19  2 28 14 36 10.0000000  0 20G29G20G27G25G15G21G31G16G10G26R22R13
                                R07R21R23R06R12R08R11E01
 122685818.365 7  95599335.09646  23346337.480    23346333.520          47.050
        37.350
 106250716.859 8  82792743.75147  20218838.960    20218832.820          49.150
        46.350
 128811221.708 7 100372368.93146  24511959.220    24511958.020          44.050
        38.050
 129222217.959 7 100692632.93846  24590170.840    24590171.680          43.600
        36.250
 132831116.583 7 103504747.23046  25276919.680    25276918.100          45.100
        36.450
 108683658.000 8  84688538.93747  20681812.960    20681806.640          49.700
        43.550
 125075087.508 7  97461099.12546  23800996.000    23800991.960          44.450
        37.950
 117978332.345 7  91931145.82846  22450529.800    22450523.940          47.750
        38.650
 112108626.752 8  87357363.69847  21333560.800    21333558.220          49.800
        45.200
 108497592.536 8  84543569.31547  20646404.440    20646402.140          50.400
        46.650
 112714585.581 7  87666917.714 6  21115240.960    21115244.000          45.300
        41.550
 116497862.280 6  90609462.860 6  21816308.320    21816311.140          41.900
        37.700
 112206179.264 7  87271482.737 7  20961056.180    20961058.160          47.250
        45.100
 127251408.368 6  98973323.032 6  23779965.160    23779969.920          40.600
        41.050
 118498749.145 7  92165700.786 6  22152089.280    22152094.720          44.600
        36.250
 123821090.376 6                  23204019.620                          39.900

 111275272.132 7                  20830965.060                          46.900

 116918322.103 7  90936493.059 6  21833671.300    21833673.500          44.800
        41.650
 123543840.338 6  96089662.443 7  23119544.880    23119548.940          41.500
        42.200
 128125839.199 8                  24381536.360                          51.700

 19  2 28 14 36 12.0000000  0 20G29G20G27G25G15G21G31G16G10G26R22R13
                                R07R21R23R06R12R08R11E01
 122689184.573 7  95601958.11146  23346978.060    23346974.100          47.800
        38.700
 106249413.337 8  82791728.01847  20218590.920    20218584.760          49.100
        46.150
 128806251.538 7 100368496.07946  24511013.420    24511012.200          44.750
        38.350
 129229676.546 7 100698444.80646  24591590.180    24591591.260          43.300
        38.150
 132830014.647 7 103503888.58246  25276710.020    25276708.280          45.300
        37.000
 108686701.575 8  84690910.55447  20682392.140    20682385.820          49.750
        43.300
 125080110.082 7  97465012.80746  23801951.840    23801947.840          44.300
        38.850
 117972431.994 7  91926548.15446  22449407.000    22449401.180          47.300
        38.950
 112103158.446 8  87353102.68547  21332520.200    21332517.620          49.850
        45.700
 108495640.393 8  84542048.16447  20646032.960    20646030.660          50.350
        46.500
 112715534.751 7  87667655.953 7  21115418.800    21115421.820          46.650
        42.300
 116495044.576 6  90607271.321 6  21815780.640    21815783.480          41.650
        38.400
 112204511.866 7  87270185.874 7  20960744.720    20960746.640          46.800
        45.600
 127254889.614 6  98976030.699 6  23780615.740    23780620.500          39.800
        40.900
 118496327.243 7  92163817.080 6  22151636.540    22151642.000          44.350
        36.650
 123825936.708 5                  23204927.860                          35.100

 111280757.159 7                  20831991.880                          46.300

 116910983.925 7  90930785.585 6  21832300.960    21832303.060          44.900
        41.300
 123552166.986 6  96096138.726 7  23121103.060    23121107.060          40.500
        42.400
 128126619.154 8                  24381684.760                          51.800

 19  2 28 14 36 14.0000000  0 20G29G20G27G25G15G21G31G16G10G26R22R13
                                R07R21R23R06R12R08R11E01
 122692551.821 7  95604581.93246  23347618.840    23347614.880          47.300
        37.950
 106248112.600 8  82790714.44847  20218343.400    20218337.220          49.100
        45.800
 128801281.210 7 100364623.09846  24510067.620    24510066.380          44.350
        36.250
 129237135.867 7 100704257.25346  24593009.660    24593010.700          43.300
        38.050
 132828914.319 7 103503031.19046  25276500.680    25276498.880          45.950
        36.400
 108689746.542 8  84693283.25447  20682971.580    20682965.240          49.900
        43.250
 125085132.984 7  97468926.75746  23802907.680    23802903.700          44.950
        38.900
 117966533.313 7  91921951.79846  22448284.520    22448278.680          47.450
        39.050
 112097692.184 8  87348843.26247  21331480.000    21331477.440          49.900
        45.550
 108493691.046 8  84540529.18647  20645662.020    20645659.700          50.300
        46.050
 112716484.260 7  87668394.458 6  21115596.660    21115599.700          46.100
        41.700
 116492230.366 6  90605082.497 6  21815253.600    21815256.480          41.950
        38.200
 112202847.974 7  87268891.746 7  20960433.880    20960435.800          47.100
        45.400
 127258370.916 6  98978738.385 6  23781266.280    23781271.160          40.700
        40.700
 118493905.654 7  92161933.624 6  22151183.840    22151189.320          45.050
        36.400
 123830785.951 6                  23205836.440                          37.950

 111286244.787 7                  20833019.180                          46.100

 116903647.062 7  90925079.128 6  21830930.860    21830932.860          44.950
        41.800
 123560494.026 6  96102615.298 7  23122661.280    23122665.300          40.550
        42.900
 128127401.279 8                  24381833.580                          51.850

 19  2 28 14 36 16.0000000  0 20G29G20G27G25G15G21G31G16G10G26R22R13
                                R07R21R23R06R12R08R11E01
 122695919.855 7  95607206.38046  23348259.760    23348255.800          47.550
        38.200
 106246814.393 8  82789702.86747  20218096.340    20218090.180          49.100
        45.900
 128796310.432 7 100360749.77146  24509121.700    24509120.480          43.900
        38.600
 129244595.665 7 100710070.08146  24594429.260    24594430.320          43.650
        37.550
 132827815.338 7 103502174.84246  25276291.520    25276289.740          44.800
        36.350
 108692792.615 8  84695656.81747  20683551.240    20683544.900          49.700
        43.200
 125090156.102 7  97472840.88046  23803863.660    23803859.660          44.650
        38.200
 117960636.031 7  91917356.53646  22447162.300    22447156.460          47.050
        37.900
 112092227.704 8  87344585.22847  21330440.140    21330437.580          49.650
        45.350
 108491744.213 8  84539012.17547  20645291.540    20645289.240          50.150
        46.150
 112717433.792 7  87669132.992 6  21115774.520    21115777.580          45.150
        41.000
 116489419.396 6  90602896.199 6  21814727.200    21814730.060          41.300
        38.950
 112201187.267 7  87267600.081 7  20960123.640    20960125.540          47.250
        45.000
 127261852.049 6  98981445.910 6  23781916.780    23781921.640          41.200
        39.900
 118491484.108 7  92160050.218 6  22150731.160    22150736.680          45.100
        36.650
 123835637.886 6                  23206745.760                          40.800

 111291734.758 7                  20834046.900                          46.600

 116896311.264 7  90919373.497 6  21829560.980    21829562.880          45.250
        41.800
 123568820.969 6  96109091.781 7  23124219.520    23124223.600          40.450
        42.650
 128128185.322 8                  24381982.760                          51.750

 19  2 28 14 36 18.0000000  0 20G29G20G27G25G15G21G31G16G10G26R22R13
                                R07R21R23R06R12R08R11E01
 122699288.535 7  95609831.31946  23348900.800    23348896.840          47.450
        37.750
 106245518.614 8  82788693.16947  20217849.760    20217843.620          48.950
        45.950
 128791339.166 7 100356876.06746  24508175.680    24508174.480          44.700
        38.800
 129252055.821 7 100715883.17146  24595848.900    24595849.820          43.450
        37.150
 132826717.582 7 103501319.44846  25276082.640    25276080.800          44.550
        36.550
 108695839.719 8  84698031.18447  20684131.080    20684124.740          49.850
        43.750
 125095179.161 7  97476754.95146  23804819.620    23804815.780          45.400
        38.900
 117954740.123 7  91912762.32046  22446040.340    22446034.500          47.400
        38.700
 112086764.898 8  87340328.49247  21329400.600    21329398.060          49.400
        45.550
 108489799.805 8  84537497.05447  20644921.540    20644919.240          50.150
        46.700
 112718383.226 7  87669871.430 7  21115952.360    21115955.440          47.800
        43.950
 116486611.583 6  90600712.339 6  21814201.380    21814204.220          41.100
        39.000
 112199529.799 7  87266310.935 7  20959814.020    20959815.900          46.950
        45.450
 127265332.974 6  98984153.302 6  23782567.300    23782572.000          40.500
        40.550
 118489062.527 7  92158166.774 6  22150278.480    22150283.980          44.400
        37.200
 123840492.227 6                  23207655.620                          37.300

 111297226.929 7                  20835075.060                          46.850

 116888976.516 7  90913668.689 7  21828191.300    21828193.120          44.850
        42.350
 123577147.820 6  96115568.193 7  23125777.700    23125781.900          40.700
        42.950
 128128971.187 8                  24382132.300                          51.800

