     2.11           OBSERVATION DATA    M (MIXED)           RINEX VERSION / TYPE
teqc  2012Jun6                          20190301 21:13:40UTCPGM / RUN BY / DATE
MSXP|IAx86-PII|bcc32 5.0|MSWin95->XP|486/DX+                COMMENT
BIT 2 OF LLI FLAGS DATA COLLECTED UNDER A/S CONDITION       COMMENT
-Unknown-                                                   MARKER NAME
-Unknown-           -Unknown-                               OBSERVER / AGENCY
1533847             LEICA               4.51/6.112          REC # / TYPE / VERS
                    LEIAS10         NONE                    ANT # / TYPE
  2347208.2058 -5240698.4919 -2772508.3480                  APPROX POSITION XYZ
        1.8760        0.0000        0.0000                  ANTENNA: DELTA H/E/N
     1     1                                                WAVELENGTH FACT L1/2
     6    L1    L2    C1    P2    S1    S2                  # / TYPES OF OBSERV
     1.0000                                                 INTERVAL
MS01                                                        COMMENT
Project creator:                                            COMMENT
 SNR is mapped to RINEX snr flag value [0-9]                COMMENT
  L1 & L2: min(max(int(snr_dBHz/6), 0), 9)                  COMMENT
  2019     2    26    15    17    8.0000000     GPS         TIME OF FIRST OBS
    16                                                      LEAP SECONDS
                                                            END OF HEADER
 19  2 26 15 17  8.0000000  0  9G21R05R10R06R20R21R11R12R07
 112169912.959 8  87405102.05047  21345225.200    21345219.120          49.050
        42.550
 112542267.096 8  87532884.251 7  21053359.100    21053361.320          48.850
        44.350
 115873010.998 7  90123476.102 6  21737483.220    21737489.000          45.750
        38.000
 110110748.852 7                  20634706.980                          44.400

 115834489.914 6  90093504.530 7  21661634.040    21661637.520          41.950
        44.350
 114665159.326 7  89184023.352 7  21427926.120    21427927.920          45.450
        43.200
 115317613.370 7  89691488.323 7  21580119.740    21580122.360          44.750
        43.100
 127152095.489 6                  23803138.520                          39.050

 128080423.635 6  99618145.977 6  23926504.440    23926508.860          41.700
        38.800
 19  2 26 15 17  9.0000000  0  9G21R05R10R06R20R21R11R12R07
 112171866.127 8  87406623.99747  21345596.880    21345590.800          49.150
        42.700
 112543312.762 8  87533697.545 7  21053554.700    21053556.940          48.750
        44.800
 115876336.747 7  90126062.796 6  21738107.120    21738112.920          45.850
        38.050
 110107803.010 7                  20634154.940                          44.500

 115835259.887 6  90094103.397 7  21661778.040    21661781.500          41.500
        44.250
 114664127.671 7  89183220.953 7  21427733.340    21427735.140          45.450
        42.950
 115317780.823 7  89691618.556 7  21580151.080    21580153.700          44.650
        43.700
 127149709.717 6                  23802691.920                          38.850

 128076099.313 6  99614782.612 6  23925696.600    23925701.040          41.250
        38.950
 19  2 26 15 17 10.0000000  0  9G21R05R10R06R20R21R11R12R07
 112173819.298 8  87408145.94647  21345968.560    21345962.480          49.000
        42.300
 112544359.110 8  87534511.371 7  21053750.440    21053752.680          48.850
        44.550
 115879662.608 7  90128649.570 6  21738731.040    21738736.840          46.100
        38.150
 110104857.480 7                  20633602.940                          44.400

 115836029.749 6  90094702.176 7  21661922.000    21661925.460          41.800
        44.100
 114663095.919 7  89182418.477 7  21427540.520    21427542.320          45.350
        43.100
 115317948.978 7  89691749.339 7  21580182.560    21580185.160          45.050
        43.550
 127147324.477 6                  23802245.400                          39.250

 128071774.666 6  99611418.991 6  23924888.720    23924893.160          41.750
        38.150
 19  2 26 15 17 11.0000000  0  9G21R05R10R06R20R21R11R12R07
 112175772.563 8  87409667.96946  21346340.260    21346334.160          48.450
        41.650
 112545406.228 8  87535325.790 7  21053946.340    21053948.560          48.650
        44.400
 115882988.431 7  90131236.317 6  21739354.960    21739360.760          46.050
        38.350
 110101912.279 7                  20633051.020                          44.350

 115836799.597 6  90095300.945 7  21662065.980    21662069.420          40.950
        43.750
 114662063.975 7  89181615.858 7  21427347.680    21427349.460          45.500
        43.000
 115318117.671 7  89691880.536 7  21580214.140    21580216.740          45.700
        43.300
 127144939.685 6                  23801798.920                          38.550

 128067449.574 7  99608055.039 6  23924080.760    23924085.200          42.300
        39.050
 19  2 26 15 17 12.0000000  0  9G21R05R10R06R20R21R11R12R07
 112177725.925 8  87411190.07546  21346711.980    21346705.880          48.300
        41.700
 112546454.134 8  87536140.824 7  21054142.360    21054144.580          48.600
        44.100
 115886314.710 7  90133823.419 6  21739978.960    21739984.780          46.650
        38.500
 110098967.731 7                  20632499.200                          44.250

 115837569.389 6  90095899.670 7  21662209.960    21662213.380          40.950
        43.700
 114661031.939 7  89180813.162 7  21427154.820    21427156.600          45.400
        42.750
 115318287.146 7  89692012.344 7  21580245.860    21580248.460          45.700
        43.150
 127142555.471 6                  23801352.620                          38.250

 128063124.517 7  99604691.112 6  23923272.800    23923277.260          42.550
        38.000
 19  2 26 15 17 13.0000000  0  9G21R05R10R06R20R21R11R12R07
 112179679.372 8  87412712.25046  21347083.700    21347077.620          48.950
        41.850
 112547502.868 8  87536956.502 7  21054338.540    21054340.780          48.650
        44.900
 115889642.050 7  90136411.352 6  21740603.160    21740608.980          46.550
        38.100
 110096024.245 7                  20631947.580                          44.000

 115838339.093 6  90096498.333 7  21662353.900    21662357.320          41.600
        43.900
 114659999.901 7  89180010.461 7  21426961.960    21426963.740          46.250
        43.450
 115318457.768 7  89692145.050 7  21580277.800    21580280.380          45.700
        43.300
 127140171.910 6                  23800906.380                          39.200

 128058800.132 6  99601327.704 6  23922464.940    23922469.420          41.100
        37.000
 19  2 26 15 17 14.0000000  0  9G21R05R10R06R20R21R11R12R07
 112181633.683 8  87414235.08746  21347455.600    21347449.520          48.900
        41.900
 112548553.081 8  87537773.330 7  21054535.000    21054537.240          48.750
        45.050
 115892969.681 7  90138999.501 6  21741227.420    21741233.260          46.600
        38.600
 110093081.407 7                  20631396.080                          44.250

 115839109.564 6  90097097.584 7  21662497.980    21662501.420          41.750
        43.650
 114658968.545 7  89179208.291 7  21426769.220    21426771.000          45.750
        43.100
 115318629.578 7  89692278.684 7  21580309.940    21580312.520          45.250
        43.650
 127137789.720 6                  23800460.400                          39.700

 128054475.514 6  99597964.112 6  23921657.100    23921661.540          41.600
        38.050
 19  2 26 15 17 15.0000000  0  9G21R05R10R06R20R21R11R12R07
 112183588.288 8  87415758.15047  21347827.540    21347821.460          48.900
        42.700
 112549604.280 8  87538590.927 7  21054731.640    21054733.900          48.750
        44.700
 115896297.754 7  90141588.004 6  21741851.740    21741857.600          46.650
        38.350
 110090139.293 7                  20630844.720                          44.400

 115839880.188 6  90097696.956 7  21662642.100    21662645.520          41.150
        43.350
 114657937.285 7  89178406.203 7  21426576.500    21426578.280          45.600
        43.150
 115318802.308 7  89692413.031 7  21580342.260    21580344.840          45.300
        43.300
 127135408.235 6                  23800014.600                          39.700

 128050150.893 6  99594600.514 6  23920849.220    23920853.660          41.300
        38.250
 19  2 26 15 17 16.0000000  0  9G21R05R10R06R20R21R11R12R07
 112185542.967 8  87417281.27647  21348199.520    21348193.420          48.950
        42.100
 112550656.300 8  87539409.167 7  21054928.440    21054930.720          48.750
        44.650
 115899626.213 7  90144176.810 6  21742476.140    21742482.020          46.600
        38.300
 110087197.768 7                  20630293.480                          44.400

 115840650.753 6  90098296.284 7  21662786.180    21662789.600          41.700
        43.600
 114656905.954 7  89177604.054 7  21426383.760    21426385.540          45.650
        43.250
 115318975.850 7  89692548.008 7  21580374.740    21580377.320          45.500
        43.050
 127133027.353 6                  23799568.880                          39.350

 128045826.226 6  99591236.886 6  23920041.360    23920045.780          41.900
        37.650
 19  2 26 15 17 17.0000000  0  9G21R05R10R06R20R21R11R12R07
 112187497.774 8  87418804.50147  21348571.500    21348565.420          48.950
        42.250
 112551709.113 8  87540228.032 7  21055125.380    21055127.680          48.850
        44.600
 115902954.912 7  90146765.801 6  21743100.600    21743106.480          46.150
        37.950
 110084256.694 7                  20629742.320                          44.650

 115841421.296 7  90098895.600 7  21662930.280    21662933.700          42.050
        43.750
 114655874.501 7  89176801.815 7  21426190.980    21426192.780          45.850
        43.350
 115319150.129 7  89692683.551 7  21580407.340    21580409.920          45.550
        43.200
 127130647.041 6                  23799123.240                          39.000

 128041501.333 7  99587873.074 6  23919233.420    23919237.840          42.150
        37.200
 19  2 26 15 17 18.0000000  0  9G21R05R10R06R20R21R11R12R07
 112189452.789 8  87420327.89147  21348943.540    21348937.440          49.100
        42.050
 112552762.859 8  87541047.618 7  21055322.500    21055324.820          48.900
        44.600
 115906284.014 7  90149355.098 6  21743725.120    21743731.020          46.450
        38.550
 110081316.281 7                  20629191.280                          44.450

 115842191.933 6  90099494.986 7  21663074.420    21663077.800          41.800
        43.950
 114654843.076 7  89175999.597 7  21425998.220    21426000.040          45.800
        43.400
 115319325.234 7  89692819.737 7  21580440.120    21580442.680          45.650
        43.300
 127128267.417 6                  23798677.760                          38.950

 128037176.417 6  99584509.249 6  23918425.500    23918429.920          41.750
        37.250
 19  2 26 15 17 19.0000000  0  9G21R05R10R06R20R21R11R12R07
 112191407.854 8  87421851.31947  21349315.580    21349309.460          49.100
        42.100
 112553817.329 8  87541867.764 7  21055519.760    21055522.080          48.900
        44.700
 115909613.342 7  90151944.575 6  21744349.700    21744355.600          46.950
        38.000
 110078376.301 7                  20628640.320                          44.250

 115842962.474 6  90100094.293 7  21663218.520    21663221.900          41.950
        43.800
 114653811.522 7  89175197.282 7  21425805.440    21425807.260          46.100
        43.750
 115319500.999 7  89692956.447 7  21580473.000    21580475.560          45.250
        43.400
 127125888.264 6                  23798232.360                          38.750

 128032851.291 6  99581145.280 5  23917617.500    23917621.940          41.600
        35.850
 19  2 26 15 17 20.0000000  0  9G21R05R10R06R20R21R11R12R07
 112193362.993 8  87423374.80347  21349687.620    21349681.520          49.050
        42.000
 112554872.548 8  87542688.488 7  21055717.160    21055719.500          48.900
        44.250
 115912942.982 7  90154534.291 6  21744974.320    21744980.240          46.800
        37.900
 110075436.873 7                  20628089.480                          44.300

 115843732.940 6  90100693.540 7  21663362.620    21663365.960          41.950
        43.750
 114652779.896 7  89174394.910 7  21425612.660    21425614.460          46.100
        43.400
 115319677.515 7  89693093.744 7  21580506.020    21580508.600          45.600
        43.200
 127123509.704 6                  23797787.040                          38.700

 128028526.036 6  99577781.209 5  23916809.520    23916813.920          41.100
        35.650
 19  2 26 15 17 21.0000000  0  9G21R05R10R06R20R21R11R12R07
 112195318.434 8  87424898.52347  21350059.740    21350053.640          49.000
        42.050
 112555928.737 8  87543509.968 7  21055914.740    21055917.080          48.950
        44.600
 115916273.022 7  90157124.322 6  21745599.020    21745604.960          46.900
        37.700
 110072498.038 7                  20627538.740                          44.150

 115844503.595 6  90101292.933 7  21663506.720    21663510.080          41.900
        43.950
 114651748.412 7  89173592.653 7  21425419.900    21425421.720          46.200
        43.850
 115319854.976 7  89693231.773 7  21580539.240    21580541.820          45.450
        43.400
 127121131.966 6                  23797341.920                          39.900

 128024200.698 6  99574417.072 6  23916001.500    23916005.920          40.950
        37.200
 19  2 26 15 17 22.0000000  0  9G21R05R10R06R20R21R11R12R07
 112197273.943 8  87426422.30147  21350431.860    21350425.760          48.950
        42.850
 112556985.696 8  87544332.045 7  21056112.460    21056114.820          49.000
        44.500
 115919603.246 7  90159714.488 6  21746223.780    21746229.700          46.600
        37.700
 110069559.645 7                  20626988.080                          44.050

 115845274.182 6  90101892.274 7  21663650.820    21663654.180          41.900
        43.550
 114650716.743 7  89172790.250 7  21425227.100    21425228.920          46.100
        43.800
 115320033.122 7  89693370.337 7  21580572.580    21580575.140          45.650
        43.000
 127118754.674 6                  23796896.880                          38.600

 128019875.132 6  99571052.750 5  23915193.440    23915197.860          41.350
        35.900
 19  2 26 15 17 23.0000000  0  9G21R05R10R06R20R21R11R12R07
 112199229.696 8  87427946.26047  21350804.020    21350797.940          48.950
        43.200
 112558043.622 8  87545154.877 7  21056310.360    21056312.720          48.650
        44.350
 115922933.944 7  90162305.025 6  21746848.620    21746854.540          46.200
        37.050
 110066622.040 7                  20626437.560                          43.750

 115846044.899 7  90102491.723 7  21663794.960    21663798.300          42.000
        43.650
 114649685.068 7  89171987.837 7  21425034.300    21425036.120          46.450
        43.950
 115320212.122 7  89693509.554 7  21580606.080    21580608.640          45.600
        43.150
 127116378.079 6                  23796451.980                          39.250

 128015549.641 6  99567688.481 5  23914385.380    23914389.820          41.000
        35.600
 19  2 26 15 17 24.0000000  0  9G21R05R10R06R20R21R11R12R07
 112201185.539 8  87429470.29247  21351176.200    21351170.120          49.250
        43.750
 112559102.375 8  87545978.351 7  21056508.420    21056510.780          48.850
        45.050
 115926265.210 7  90164896.005 6  21747473.540    21747479.480          46.650
        36.750
 110063685.261 7                  20625887.220                          43.250

 115846815.538 7  90103091.113 7  21663939.060    21663942.420          43.000
        44.600
 114648653.239 7  89171185.300 7  21424841.480    21424843.300          47.450
        45.350
 115320391.906 7  89693649.381 7  21580639.700    21580642.280          46.150
        43.800
 127114001.829 6                  23796007.140                          40.500

 128011224.362 6  99564324.379 5  23913577.400    23913581.840          40.000
        34.700
 19  2 26 15 17 25.0000000  0  9G21R05R10R06R20R21R11R12R07
 112203141.368 8  87430994.30247  21351548.400    21351542.300          49.300
        43.700
 112560161.752 8  87546802.313 7  21056706.600    21056708.960          48.950
        44.550
 115929596.470 7  90167486.979 6  21748098.500    21748104.420          46.750
        36.850
 110060748.558 7                  20625336.880                          43.300

 115847586.101 7  90103690.439 7  21664083.180    21664086.520          42.600
        44.000
 114647621.409 7  89170382.762 7  21424648.680    21424650.480          47.400
        44.900
 115320572.378 7  89693789.744 7  21580673.480    21580676.060          46.550
        44.000
 127111626.391 6                  23795562.460                          40.150

 128006898.617 6  99560959.911 5  23912769.300    23912773.740          39.650
        34.650
 19  2 26 15 17 26.0000000  0  9G21R05R10R06R20R21R11R12R07
 112205097.584 8  87432518.61847  21351920.640    21351914.560          49.350
        43.300
 112561222.191 8  87547627.101 7  21056904.980    21056907.340          48.850
        44.800
 115932928.269 7  90170078.374 5  21748723.540    21748729.460          46.200
        35.900
 110057812.676 7                  20624786.720                          43.250

 115848356.901 7  90104289.948 7  21664227.300    21664230.660          42.950
        44.550
 114646589.722 7  89169580.334 7  21424455.880    21424457.680          47.700
        45.350
 115320753.842 7  89693930.885 7  21580707.440    21580710.020          46.700
        43.950
 127109251.722 6                  23795117.920                          39.850

 128002572.950 6  99557595.505 5  23911961.240    23911965.660          38.400
        35.700
 19  2 26 15 17 27.0000000  0  9G21R05R10R06R20R21R11R12R07
 112207053.908 8  87434043.02647  21352292.920    21352286.840          49.400
        43.100
 112562283.429 8  87548452.512 7  21057103.500    21057105.880          48.950
        44.750
 115936260.212 7  90172669.887 5  21749348.600    21749354.540          45.950
        35.800
 110054877.205 7                  20624236.620                          43.200

 115849127.685 7  90104889.447 7  21664371.440    21664374.800          43.500
        44.500
 114645557.970 7  89168777.869 7  21424263.060    21424264.880          47.800
        45.650
 115320936.014 7  89694072.583 7  21580741.520    21580744.120          47.000
        44.200
 127106877.638 6                  23794673.460                          39.900

 127998246.940 6  99554230.822 5  23911153.080    23911157.500          38.750
        34.650
 19  2 26 15 17 28.0000000  0  9G21R05R10R06R20R21R11R12R07
 112209010.481 8  87435567.63147  21352665.260    21352659.160          49.550
        43.450
 112563345.522 8  87549278.589 7  21057302.180    21057304.560          49.100
        44.500
 115939592.483 7  90175261.658 5  21749973.720    21749979.660          46.100
        35.750
 110051942.147 7                  20623686.600                          43.300

 115849898.605 7  90105489.052 7  21664515.600    21664518.960          43.100
        44.650
 114644526.419 7  89167975.553 7  21424070.300    21424072.120          47.750
        45.150
 115321119.180 7  89694215.051 7  21580775.800    21580778.400          46.350
        43.650
 127104504.516 6                  23794229.220                          40.650

 127993920.601 6  99550865.886 5  23910344.880    23910349.320          39.700
        35.600
 19  2 26 15 17 29.0000000  0  9G21R05R10R06R20R21R11R12R07
 112210967.112 8  87437092.27847  21353037.600    21353031.520          49.550
        42.900
 112564408.465 8  87550105.325 7  21057501.040    21057503.400          49.150
        44.200
 115942924.959 7  90177853.579 5  21750598.880    21750604.820          46.150
        35.950
 110049007.765 7                  20623136.680                          43.550

 115850669.421 7  90106088.577 7  21664659.740    21664663.120          42.900
        44.700
 114643494.538 7  89167172.984 7  21423877.480    21423879.300          47.700
        45.350
 115321302.835 7  89694357.892 7  21580810.140    21580812.780          46.600
        43.900
 127102131.626 6                  23793785.000                          40.650

 127989594.243 6  99547500.932 5  23909536.680    23909541.120          39.400
        34.250
 19  2 26 15 17 30.0000000  0  9G21R05R10R06R20R21R11R12R07
 112212923.832 8  87438616.99147  21353409.940    21353403.860          49.800
        43.650
 112565472.192 8  87550932.673 7  21057700.020    21057702.400          49.300
        44.850
 115946258.056 7  90180445.990 5  21751224.160    21751230.100          45.900
        35.750
 110046074.009 7                  20622586.900                          43.050

 115851440.189 7  90106688.068 7  21664803.880    21664807.260          43.400
        45.100
 114642462.720 8  89166370.463 7  21423684.660    21423686.480          48.050
        45.300
 115321487.494 7  89694501.516 7  21580844.700    21580847.340          46.850
        44.000
 127099759.516 6                  23793340.920                          40.400

 127985267.984 6  99544136.062 6  23908728.520    23908732.940          38.900
        36.200
 19  2 26 15 17 31.0000000  0  9G21R05R10R06R20R21R11R12R07
 112214880.647 8  87440141.78247  21353782.320    21353776.240          49.900
        43.400
 112566536.685 8  87551760.615 7  21057899.160    21057901.540          49.000
        44.900
 115949591.115 7  90183038.374 6  21751849.440    21751855.380          46.050
        36.250
 110043140.598 7                  20622037.180                          43.150

 115852210.912 7  90107287.523 7  21664948.000    21664951.400          43.350
        45.100
 114641430.716 7  89165567.791 7  21423491.820    21423493.620          47.950
        45.450
 115321672.696 7  89694645.568 7  21580879.360    21580881.980          46.650
        44.200
 127097387.865 6                  23792896.920                          40.450

 127980941.305 6  99540770.872 6  23907920.240    23907924.680          37.950
        37.250
 19  2 26 15 17 32.0000000  0  9G21R05R10R06R20R21R11R12R07
 112216837.722 8  87441666.77847  21354154.740    21354148.660          49.750
        43.250
 112567602.082 8  87552589.253 7  21058098.460    21058100.840          49.050
        45.000
 115952924.327 7  90185630.882 5  21752474.760    21752480.680          45.850
        35.700
 110040207.632 7                  20621487.520                          43.400

 115852981.771 7  90107887.082 7  21665092.180    21665095.560          43.450
        45.050
 114640398.748 7  89164765.151 7  21423298.960    21423300.780          47.700
        45.650
 115321858.641 7  89694790.196 7  21580914.180    21580916.780          46.750
        44.100
 127095016.903 6                  23792453.100                          40.300

 127976614.377 6  99537405.483 6  23907111.960    23907116.380          38.750
        36.100
 19  2 26 15 17 33.0000000  0  9G21R05R10R06R20R21R11R12R07
 112218794.829 8  87443191.79647  21354527.180    21354521.080          49.700
        43.550
 112568668.200 8  87553418.456 7  21058297.920    21058300.280          49.050
        44.950
 115956257.842 7  90188223.610 6  21753100.120    21753106.040          45.900
        36.250
 110037275.112 7                  20620937.960                          43.550

 115853752.541 7  90108486.568 7  21665236.300    21665239.700          43.100
        45.000
 114639366.656 7  89163962.411 7  21423106.100    21423107.920          47.700
        44.900
 115322045.363 7  89694935.430 7  21580949.120    21580951.740          46.250
        44.250
 127092646.532 6                  23792009.380                          40.450

 127972287.259 6  99534039.943 5  23906303.680    23906308.020          40.050
        35.500
 19  2 26 15 17 34.0000000  0  9G21R05R10R06R20R21R11R12R07
 112220752.051 8  87444716.90847  21354899.620    21354893.540          49.850
        43.250
 112569735.147 8  87554248.301 7  21058497.500    21058499.880          48.850
        45.350
 115959591.962 7  90190816.806 6  21753725.600    21753731.500          46.000
        36.100
 110034343.406 7                  20620388.600                          43.600

 115854523.264 7  90109086.017 7  21665380.460    21665383.840          43.350
        44.800
 114638334.495 7  89163159.615 7  21422913.200    21422915.020          47.650
        45.400
 115322232.951 7  89695081.328 7  21580984.220    21580986.840          47.300
        43.800
 127090276.705 6                  23791565.760                          39.850

 127967960.336 6  99530674.554 5  23905495.360    23905499.720          38.950
        34.900
 19  2 26 15 17 35.0000000  0  9G21R05R10R06R20R21R11R12R07
 112222709.428 8  87446242.13947  21355272.100    21355266.020          49.900
        43.250
 112570802.915 8  87555078.787 7  21058697.260    21058699.640          49.000
        45.250
 115962926.277 7  90193410.156 5  21754351.120    21754357.000          45.800
        35.800
 110031412.143 7                  20619839.260                          43.650

 115855294.013 7  90109685.486 7  21665524.580    21665527.960          43.300
        44.950
 114637302.320 7  89162356.810 7  21422720.320    21422722.140          47.700
        45.650
 115322421.292 7  89695227.807 7  21581019.460    21581022.080          47.000
        44.000
 127087907.517 6                  23791122.260                          39.250

 127963633.151 6  99527308.966 5  23904687.000    23904691.360          39.250
        35.700
 19  2 26 15 17 36.0000000  0  9G21R05R10R06R20R21R11R12R07
 112224667.081 8  87447767.57947  21355644.640    21355638.540          49.850
        43.150
 112571871.663 8  87555910.038 7  21058897.200    21058899.560          49.150
        45.400
 115966261.000 7  90196003.830 5  21754976.700    21754982.580          46.200
        35.850
 110028481.477 7                  20619290.060                          43.700

 115856064.915 7  90110285.079 7  21665668.740    21665672.120          43.400
        44.950
 114636270.287 7  89161554.114 7  21422527.460    21422529.300          47.800
        45.550
 115322610.600 7  89695375.039 7  21581054.880    21581057.500          47.200
        43.800
 127085539.154 6                  23790678.940                          39.750

 127959305.881 6  99523943.315 5  23903878.620    23903882.980          39.350
        35.550
 19  2 26 15 17 37.0000000  0  9G21R05R10R06R20R21R11R12R07
 112226624.874 8  87449293.12547  21356017.200    21356011.100          49.800
        42.850
 112572941.267 8  87556741.952 7  21059097.280    21059099.660          49.050
        45.300
 115969595.976 7  90198597.700 5  21755602.340    21755608.220          45.950
        35.950
 110025551.406 7                  20618740.940                          43.350

 115856835.835 7  90110884.685 7  21665812.900    21665816.300          43.350
        45.400
 114635238.105 7  89160751.305 7  21422334.580    21422336.400          47.850
        45.300
 115322800.596 7  89695522.817 7  21581090.440    21581093.060          47.000
        44.050
 127083171.296 6                  23790235.660                          39.450

 127954978.554 6  99520577.617 5  23903070.220    23903074.600          39.750
        35.750
 19  2 26 15 17 38.0000000  0  9G21R05R10R06R20R21R11R12R07
 112228582.721 8  87450818.71547  21356389.780    21356383.660          49.850
        42.950
 112574011.608 8  87557574.438 7  21059297.520    21059299.900          49.050
        45.050
 115972931.173 7  90201191.740 6  21756228.000    21756233.900          45.500
        36.200
 110022621.797 7                  20618191.920                          43.200

 115857606.699 7  90111484.247 7  21665957.020    21665960.480          43.050
        45.200
 114634205.818 7  89159948.419 7  21422141.680    21422143.500          47.900
        45.350
 115322991.315 7  89695671.152 7  21581126.120    21581128.740          47.000
        43.850
 127080803.999 6                  23789792.520                          39.000

 127950651.010 6  99517211.741 5  23902261.780    23902266.180          39.600
        35.650
 19  2 26 15 17 39.0000000  0  9G21R05R10R06R20R21R11R12R07
 112230540.966 8  87452344.61547  21356762.420    21356756.300          49.900
        43.000
 112575083.000 8  87558407.743 7  21059497.960    21059500.320          49.150
        45.600
 115976267.031 7  90203786.290 6  21756853.820    21756859.680          45.700
        36.200
 110019693.033 7                  20617643.080                          43.050

 115858377.834 7  90112084.018 7  21666101.240    21666104.680          43.050
        45.000
 114633173.790 7  89159145.735 7  21421948.820    21421950.640          47.800
        45.850
 115323183.081 7  89695820.302 7  21581162.000    21581164.640          46.750
        44.200
 127078437.610 6                  23789349.520                          40.700

 127946323.622 6  99513845.986 6  23901453.400    23901457.800          39.850
        36.900
 19  2 26 15 17 40.0000000  0  9G21R05R10R06R20R21R11R12R07
 112232499.562 8  87453870.79447  21357135.140    21357129.000          49.750
        43.250
 112576155.410 8  87559241.839 7  21059698.560    21059700.940          49.100
        45.400
 115979603.329 7  90206381.186 5  21757479.700    21757485.580          46.050
        35.600
 110016764.953 7                  20617094.360                          43.300

 115859149.152 7  90112683.932 7  21666245.500    21666248.940          43.150
        44.950
 114632141.939 7  89158343.185 7  21421756.000    21421757.820          47.850
        45.800
 115323375.810 7  89695970.202 7  21581198.080    21581200.700          46.600
        43.800
 127076072.027 6                  23788906.680                          40.000

 127941996.284 6  99510480.277 6  23900644.980    23900649.420          40.050
        36.000
 19  2 26 15 17 41.0000000  0  9G21R05R10R06R20R21R11R12R07
 112234458.574 8  87455397.29747  21357507.920    21357501.800          49.600
        42.700
 112577228.980 8  87560076.836 7  21059899.400    21059901.780          48.850
        45.300
 115982939.990 7  90208976.367 6  21758105.660    21758111.520          46.300
        36.700
 110013837.612 7                  20616545.760                          43.550

 115859920.803 7  90113284.107 7  21666389.800    21666393.240          42.650
        44.600
 114631110.241 7  89157540.751 7  21421563.220    21421565.040          47.600
        45.450
 115323569.457 7  89696120.816 7  21581234.300    21581236.940          46.650
        43.650
 127073707.227 6                  23788463.960                          40.300

 127937668.888 6  99507114.525 6  23899836.560    23899841.020          39.650
        36.000
 19  2 26 15 17 42.0000000  0  9G21R05R10R06R20R21R11R12R07
 112236417.695 8  87456923.89447  21357880.740    21357874.620          49.850
        43.200
 112578303.374 8  87560912.478 7  21060100.380    21060102.780          48.850
        45.300
 115986277.077 7  90211571.877 6  21758731.680    21758737.560          45.900
        36.550
 110010910.855 7                  20615997.260                          43.100

 115860692.405 7  90113884.240 7  21666534.120    21666537.540          42.950
        44.600
 114630078.486 7  89156738.277 7  21421370.400    21421372.220          47.950
        45.050
 115323763.941 7  89696272.082 7  21581270.700    21581273.340          46.650
        43.650
 127071343.052 6                  23788021.420                          40.500

 127933341.374 6  99503748.682 6  23899028.140    23899032.600          40.200
        36.850
 19  2 26 15 17 43.0000000  0  9G21R05R10R06R20R21R11R12R07
 112238376.907 8  87458450.56047  21358253.560    21358247.440          49.600
        42.600
 112579378.516 8  87561748.701 7  21060301.500    21060303.900          49.100
        45.300
 115989614.489 7  90214167.639 6  21759357.760    21759363.640          46.250
        36.950
 110007984.602 7                  20615448.880                          43.050

 115861463.924 7  90114484.304 7  21666678.380    21666681.820          43.100
        44.600
 114629046.681 8  89155935.762 7  21421177.600    21421179.400          48.250
        45.050
 115323959.245 7  89696423.989 7  21581307.260    21581309.900          46.600
        44.150
 127068979.521 6                  23787578.940                          40.900

 127929013.806 6  99500382.809 5  23898219.700    23898224.160          40.550
        35.250
 19  2 26 15 17 44.0000000  0  9G21R05R10R06R20R21R11R12R07
 112240336.199 8  87459977.28647  21358626.400    21358620.300          49.550
        43.400
 112580454.448 8  87562585.546 7  21060502.780    21060505.200          49.100
        45.100
 115992952.172 7  90216763.614 6  21759983.920    21759989.800          45.950
        36.600
 110005058.848 7                  20614900.600                          42.900

 115862235.457 7  90115084.381 7  21666822.680    21666826.100          43.550
        45.450
 114628014.801 8  89155133.196 7  21420984.760    21420986.580          48.000
        45.000
 115324155.287 7  89696576.468 7  21581343.940    21581346.580          46.350
        44.250
 127066616.602 6                  23787136.620                          40.250

 127924686.099 6  99497016.825 5  23897411.240    23897415.700          40.200
        34.650
 19  2 26 15 17 45.0000000  0  9G21R05R10R06R20R21R11R12R07
 112242295.382 8  87461503.92547  21358999.220    21358993.120          49.800
        43.100
 112581530.892 8  87563422.788 7  21060704.160    21060706.580          49.100
        44.650
 115996290.112 7  90219359.793 5  21760610.120    21760615.980          45.900
        35.600
 110002133.452 7                  20614352.400                          42.950

 115863006.706 7  90115684.248 7  21666966.920    21666970.340          43.200
        45.050
 114626982.666 7  89154330.427 7  21420791.880    21420793.700          47.800
        44.900
 115324352.010 7  89696729.479 7  21581380.740    21581383.400          46.450
        44.150
 127064254.123 6                  23786694.360                          41.050

 127920358.219 6  99493650.702 6  23896602.760    23896607.220          40.350
        36.100
 19  2 26 15 17 46.0000000  0  9G21R05R10R06R20R21R11R12R07
 112244254.651 8  87463030.63247  21359372.060    21359365.960          49.750
        43.250
 112582608.145 8  87564260.644 7  21060905.680    21060908.080          49.100
        44.750
 115999628.084 7  90221955.998 5  21761236.320    21761242.160          45.800
        35.800
 109999208.552 7                  20613804.300                          43.150

 115863777.961 7  90116284.121 7  21667111.160    21667114.580          43.550
        45.050
 114625950.315 7  89153527.498 7  21420598.960    21420600.780          47.900
        44.950
 115324549.213 7  89696882.861 7  21581417.660    21581420.300          46.300
        44.000
 127061892.007 6                  23786252.180                          40.500

 127916030.006 6  99490284.318 6  23895794.260    23895798.680          40.200
        36.700
 19  2 26 15 17 47.0000000  0  9G21R05R10R06R20R21R11R12R07
 112246213.825 8  87464557.26047  21359744.880    21359738.780          49.950
        43.700
 112583685.997 8  87565098.967 7  21061107.320    21061109.720          49.000
        45.300
 116002966.128 7  90224552.256 5  21761862.540    21761868.360          45.350
        35.700
 109996283.940 7                  20613256.240                          43.200

 115864548.993 7  90116883.813 7  21667255.340    21667258.780          43.250
        45.100
 114624917.701 8  89152724.356 7  21420406.000    21420407.800          48.250
        45.100
 115324746.992 7  89697036.687 7  21581454.660    21581457.320          46.300
        44.350
 127059530.303 6                  23785810.060                          40.500

 127911701.424 6  99486917.645 6  23894985.660    23894990.060          40.400
        36.650
 19  2 26 15 17 48.0000000  0  9G21R05R10R06R20R21R11R12R07
 112248173.068 8  87466083.93847  21360117.720    21360111.600          50.000
        43.700
 112584764.600 8  87565937.880 7  21061309.100    21061311.500          49.100
        45.350
 116006304.345 7  90227148.647 5  21762488.780    21762494.600          45.500
        35.950
 109993359.699 7                  20612708.240                          43.400

 115865319.935 7  90117483.426 7  21667399.500    21667402.960          43.150
        45.500
 114623885.000 8  89151921.139 7  21420213.020    21420214.820          48.300
        45.200
 115324945.454 7  89697191.046 7  21581491.800    21581494.460          46.050
        44.150
 127057169.205 6                  23785368.020                          40.350

 127907372.529 6  99483550.718 6  23894177.000    23894181.380          39.850
        37.000
 19  2 26 15 17 49.0000000  0  9G21R05R10R06R20R21R11R12R07
 112250132.534 8  87467610.79347  21360490.580    21360484.460          49.850
        43.600
 112585844.144 8  87566777.521 7  21061511.060    21061513.440          48.800
        44.850
 116009642.876 7  90229745.282 6  21763115.100    21763120.900          46.000
        36.850
 109990436.098 7                  20612160.360                          43.300

 115866090.992 7  90118083.137 7  21667543.700    21667547.140          43.300
        45.100
 114622852.330 7  89151117.948 7  21420020.020    21420021.840          47.850
        45.450
 115325144.696 7  89697346.011 7  21581529.060    21581531.760          46.100
        44.100
 127054808.748 6                  23784926.100                          39.700

 127903043.481 6  99480183.673 6  23893368.320    23893372.680          39.700
        36.600
 19  2 26 15 17 50.0000000  0  9G21R05R10R06R20R21R11R12R07
 112252092.365 8  87469137.93047  21360863.540    21360857.400          49.650
        42.800
 112586924.685 8  87567617.946 7  21061713.180    21061715.580          48.800
        45.100
 116012981.852 7  90232342.266 6  21763741.480    21763747.300          46.250
        36.650
 109987513.079 7                  20611612.580                          43.250

 115866862.281 7  90118683.020 7  21667687.920    21667691.380          43.050
        44.850
 114621819.888 7  89150314.933 7  21419827.100    21419828.900          47.700
        45.150
 115325344.967 7  89697501.779 7  21581566.560    21581569.240          46.250
        43.950
 127052449.194 6                  23784484.380                          39.750

 127898714.395 6  99476816.605 6  23892559.640    23892563.960          40.650
        36.000
 19  2 26 15 17 51.0000000  0  9G21R05R10R06R20R21R11R12R07
 112254052.446 8  87470665.26847  21361236.520    21361230.380          49.750
        43.200
 112588006.220 8  87568459.150 7  21061915.500    21061917.920          48.850
        45.300
 116016321.527 7  90234939.787 6  21764368.000    21764373.820          46.450
        37.200
 109984591.109 7                  20611065.020                          43.300

 115867633.680 7  90119282.997 7  21667832.180    21667835.640          43.250
        44.850
 114620787.414 7  89149511.906 7  21419634.160    21419635.960          47.900
        45.100
 115325546.195 7  89697658.294 7  21581604.220    21581606.900          46.650
        44.050
 127050090.264 6                  23784042.800                          39.200

 127894385.680 6  99473449.830 6  23891750.980    23891755.320          40.100
        36.300
 19  2 26 15 17 52.0000000  0  9G21R05R10R06R20R21R11R12R07
 112256012.871 8  87472192.87247  21361609.580    21361603.440          49.900
        43.150
 112589088.749 8  87569301.122 7  21062118.020    21062120.440          48.800
        45.050
 116019661.645 7  90237537.652 6  21764994.600    21765000.400          46.250
        36.300
 109981669.680 7                  20610517.560                          43.400

 115868405.280 7  90119883.126 7  21667976.460    21667979.960          43.200
        44.900
 114619755.172 7  89148709.058 7  21419441.260    21419443.060          47.850
        45.550
 115325748.473 7  89697815.621 7  21581642.060    21581644.760          46.450
        44.250
 127047732.211 6                  23783601.340                          39.400

 127890056.916 6  99470083.019 5  23890942.300    23890946.680          39.550
        35.600
 19  2 26 15 17 53.0000000  0  9G21R05R10R06R20R21R11R12R07
 112257973.688 8  87473720.78347  21361982.720    21361976.580          49.700
        43.000
 112590172.369 8  87570143.937 7  21062320.740    21062323.140          48.750
        45.250
 116023002.252 7  90240135.894 6  21765621.300    21765627.080          46.400
        36.600
 109978749.054 7                  20609970.240                          43.300

 115869177.155 7  90120483.471 7  21668120.800    21668124.300          43.150
        44.650
 114618723.123 8  89147906.353 7  21419248.400    21419250.200          48.000
        44.950
 115325951.734 7  89697973.710 7  21581680.080    21581682.800          46.700
        44.150
 127045374.997 6                  23783160.040                          40.100

 127885728.237 6  99466716.274 5  23890133.620    23890138.040          39.650
        35.600
 19  2 26 15 17 54.0000000  0  9G21R05R10R06R20R21R11R12R07
 112259934.791 8  87475248.91547  21362355.900    21362349.760          49.600
        42.950
 112591256.938 8  87570987.486 7  21062523.620    21062526.040          48.800
        44.800
 116026343.316 7  90242734.495 6  21766248.060    21766253.880          46.450
        36.800
 109975829.055 7                  20609423.040                          43.550

 115869949.179 7  90121083.935 7  21668265.180    21668268.680          43.200
        44.550
 114617691.248 7  89147103.783 7  21419055.580    21419057.360          47.950
        45.050
 115326155.991 7  89698132.579 7  21581718.300    21581721.020          46.350
        44.000
 127043018.642 6                  23782718.940                          39.950

 127881399.524 6  99463349.491 5  23889324.940    23889329.400          39.850
        35.500
 19  2 26 15 17 55.0000000  0  9G21R05R10R06R20R21R11R12R07
 112261896.133 8  87476777.23447  21362729.140    21362722.980          49.600
        42.550
 112592342.474 8  87571831.794 7  21062726.700    21062729.120          48.850
        44.750
 116029684.747 7  90245333.377 6  21766874.920    21766880.720          46.400
        37.000
 109972909.740 7                  20608875.980                          43.700

 115870721.338 7  90121684.500 7  21668409.580    21668413.080          43.200
        44.400
 114616659.371 7  89146301.214 7  21418862.760    21418864.540          47.950
        45.050
 115326361.021 7  89698292.047 7  21581756.660    21581759.400          46.950
        44.000
 127040662.926 6                  23782277.960                          39.950

 127877070.768 6  99459982.689 5  23888516.260    23888520.740          40.000
        35.650
 19  2 26 15 17 56.0000000  0  9G21R05R10R06R20R21R11R12R07
 112263857.515 8  87478305.58347  21363102.380    21363096.220          49.750
        42.900
 112593428.782 8  87572676.701 7  21062929.920    21062932.340          48.850
        44.750
 116033026.527 7  90247932.540 6  21767501.840    21767507.620          46.300
        36.650
 109969990.955 7                  20608329.000                          43.550

 115871493.408 7  90122284.997 7  21668553.940    21668557.460          43.100
        44.750
 114615627.335 8  89145498.526 7  21418669.920    21418671.680          48.000
        44.850
 115326566.777 7  89698452.079 7  21581795.160    21581797.900          46.800
        43.950
 127038307.725 6                  23781837.060                          38.050

 127872741.966 6  99456615.849 5  23887707.600    23887712.080          39.400
        35.900
 19  2 26 15 17 57.0000000  0  9G21R05R10R06R20R21R11R12R07
 112265819.167 8  87479834.14147  21363475.660    21363469.500          49.850
        42.800
 112594516.067 8  87573522.365 7  21063133.300    21063135.740          48.850
        44.700
 116036368.676 7  90250531.980 6  21768128.820    21768134.580          46.150
        36.950
 109967072.800 7                  20607782.120                          43.750

 115872265.628 7  90122885.614 7  21668698.360    21668701.880          43.150
        44.900
 114614595.385 8  89144695.905 7  21418477.060    21418478.820          48.000
        45.200
 115326773.402 7  89698612.786 7  21581833.820    21581836.560          46.650
        43.900
 127035953.331 6                  23781396.340                          38.650

 127868413.058 6  99453248.929 5  23886898.900    23886903.400          39.950
        33.600
 19  2 26 15 17 58.0000000  0  9G21R05R10R06R20R21R11R12R07
 112267781.226 8  87481363.01547  21363849.040    21363842.860          49.550
        42.450
 112595604.318 8  87574368.787 7  21063336.880    21063339.320          48.750
        44.900
 116039710.850 7  90253131.447 6  21768755.800    21768761.580          45.800
        37.050
 109964154.989 7                  20607235.320                          43.900

 115873038.120 7  90123486.444 7  21668842.820    21668846.360          42.900
        44.400
 114613563.724 7  89143893.510 7  21418284.280    21418286.020          47.800
        44.750
 115326980.924 7  89698774.188 7  21581872.660    21581875.400          46.900
        44.000
 127033599.960 6                  23780955.820                          38.550

 127864083.737 6  99449881.689 5  23886090.160    23886094.640          40.300
        34.750
 19  2 26 15 17 59.0000000  0  9G21R05R10R06R20R21R11R12R07
 112269743.315 8  87482891.91547  21364222.400    21364216.240          49.250
        42.450
 112596693.396 8  87575215.849 7  21063540.600    21063543.060          48.800
        44.500
 116043053.508 7  90255731.290 6  21769382.880    21769388.640          46.050
        37.300
 109961238.005 7                  20606688.660                          43.600

 115873810.525 7  90124087.213 7  21668987.260    21668990.800          42.950
        44.250
 114612531.777 7  89143090.889 7  21418091.420    21418093.180          47.200
        44.350
 115327189.104 7  89698936.103 7  21581911.620    21581914.360          47.150
        43.800
 127031246.797 6                  23780515.280                          40.100

 127859754.582 6  99446514.557 5  23885281.440    23885285.900          39.800
        35.850
 19  2 26 15 18  0.0000000  0  9G21R05R10R06R20R21R11R12R07
 112271704.773 8  87484420.32747  21364595.660    21364589.500          49.750
        42.350
 112597782.487 8  87576062.920 7  21063744.360    21063746.800          49.000
        45.250
 116046396.650 7  90258331.514 6  21770010.040    21770015.800          46.400
        37.150
 109958321.339 7                  20606142.080                          43.800

 115874582.076 7  90124687.313 7  21669131.540    21669135.100          43.250
        44.650
 114611499.177 8  89142287.759 7  21417898.460    21417900.200          48.100
        44.850
 115327397.839 7  89699098.453 7  21581950.680    21581953.420          46.850
        43.700
 127028893.726 6                  23780074.780                          40.100

 127855425.443 6  99443147.432 5  23884472.700    23884477.180          39.900
        34.100
 19  2 26 15 18  1.0000000  0  9G21R05R10R06R20R21R11R12R07
 112273666.435 8  87485948.89447  21364968.960    21364962.800          49.900
        42.650
 112598872.495 8  87576910.708 7  21063948.260    21063950.700          49.050
        45.250
 116049739.683 7  90260931.653 6  21770637.160    21770642.940          46.250
        36.450
 109955405.049 7                  20605595.560                          43.600

 115875353.726 7  90125287.485 7  21669275.860    21669279.400          43.350
        44.600
 114610466.521 8  89141484.584 7  21417705.480    21417707.220          48.250
        45.600
 115327607.131 7  89699261.237 7  21581989.840    21581992.580          46.700
        43.850
 127026541.223 6                  23779634.380                          40.100

 127851095.798 6  99439779.926 5  23883663.900    23883668.340          39.200
        34.400
 19  2 26 15 18  2.0000000  0  9G21R05R10R06R20R21R11R12R07
 112275628.363 8  87487477.67147  21365342.300    21365336.120          49.900
        43.000
 112599963.473 8  87577759.249 7  21064152.360    21064154.780          49.000
        44.800
 116053082.924 7  90263531.953 6  21771264.360    21771270.140          46.100
        36.750
 109952489.255 7                  20605049.160                          43.650

 115876125.545 7  90125887.785 7  21669420.180    21669423.740          43.100
        44.550
 114609433.966 8  89140681.486 7  21417512.520    21417514.280          48.000
        45.300
 115327817.258 7  89699424.672 7  21582029.160    21582031.900          46.800
        43.750
 127024189.494 6                  23779194.120                          39.100

 127846765.902 6  99436412.229 5  23882855.020    23882859.480          39.000
        33.950
 19  2 26 15 18  3.0000000  0  9G21R05R10R06R20R21R11R12R07
 112277590.552 8  87489006.64546  21365715.700    21365709.520          49.250
        41.600
 112601055.360 8  87578608.492 7  21064356.620    21064359.040          48.650
        44.650
 116056425.923 7  90266132.063 6  21771891.500    21771897.260          46.350
        37.100
 109949573.584 7                  20604502.780                          43.750

 115876897.492 7  90126488.182 7  21669564.520    21669568.100          42.450
        44.000
 114608401.406 7  89139878.382 7  21417319.560    21417321.320          47.600
        44.700
 115328027.917 7  89699588.520 7  21582068.580    21582071.320          47.000
        43.700
 127021838.417 6                  23778754.000                          38.000

 127842435.259 6  99433043.964 5  23882046.000    23882050.460          40.050
        34.950
 19  2 26 15 18  4.0000000  0  9G21R05R10R06R20R21R11R12R07
 112279553.118 8  87490535.91746  21366089.160    21366083.000          48.650
        40.300
 112602148.340 7  87579458.587 7  21064561.080    21064563.500          47.850
        43.400
 116059768.892 7  90268732.144 6  21772518.640    21772524.420          47.150
        38.900
 109946658.428 7                  20603956.480                          44.150

 115877669.768 6  90127088.841 7  21669708.940    21669712.520          40.950
        43.750
 114607368.884 7  89139075.309 7  21417126.620    21417128.360          46.950
        43.600
 115328239.242 7  89699752.885 7  21582108.140    21582110.860          46.650
        43.600
 127019488.032 6                  23778314.000                          40.600

 127838104.215 6  99429675.365 6  23881236.880    23881241.380          41.450
        36.900
 19  2 26 15 18  5.0000000  0  9G21R05R10R06R20R21R11R12R07
 112281514.807 8  87492064.51046  21366462.460    21366456.280          48.650
        41.050
 112603241.266 7  87580308.637 7  21064765.540    21064767.940          47.700
        43.050
 116063113.175 7  90271333.253 6  21773146.000    21773151.820          47.300
        37.800
 109943744.339 7                  20603410.380                          43.650

 115878440.967 6  90127688.664 7  21669853.160    21669856.740          41.200
        43.400
 114606335.441 7  89138271.520 7  21416933.520    21416935.220          46.900
        44.100
 115328451.314 7  89699917.839 7  21582147.820    21582150.560          47.350
        43.900
 127017137.340 6                  23777873.960                          40.750

 127833774.292 6  99426307.637 6  23880428.020    23880432.500          41.200
        36.500
 19  2 26 15 18  6.0000000  0  9G21R05R10R06R20R21R11R12R07
 112283477.150 8  87493593.61147  21366835.880    21366829.700          49.550
        43.250
 112604335.443 8  87581159.658 7  21064970.220    21064972.640          48.650
        44.650
 116066458.015 7  90273934.794 6  21773773.500    21773779.320          45.600
        37.600
 109940831.021 7                  20602864.400                          43.300

 115879212.681 7  90128288.882 7  21669997.480    21670001.060          42.900
        44.600
 114605302.582 7  89137468.181 7  21416740.500    21416742.220          47.950
        45.200
 115328664.680 7  89700083.797 7  21582187.760    21582190.480          46.850
        44.600
 127014787.874 6                  23777434.120                          39.350

 127829444.387 6  99422939.921 5  23879619.200    23879623.640          38.500
        32.050
 19  2 26 15 18  7.0000000  0  9G21R05R10R06R20R21R11R12R07
 112285439.835 8  87495122.97447  21367209.360    21367203.200          49.600
        42.900
 112605430.572 8  87582011.431 7  21065175.080    21065177.500          48.850
        44.950
 116069802.885 7  90276536.348 6  21774400.980    21774406.800          45.600
        36.950
 109937917.978 7                  20602318.520                          43.250

 115879984.652 7  90128889.290 7  21670141.840    21670145.420          42.800
        44.950
 114604269.944 7  89136665.018 7  21416547.520    21416549.240          47.800
        45.600
 115328878.869 7  89700250.386 7  21582227.860    21582230.560          47.050
        44.550
 127012439.393 6                  23776994.480                          40.050

 127825113.926 6  99419571.781 5  23878810.300    23878814.660          38.600
        32.650
 19  2 26 15 18  8.0000000  0  9G21R05R10R06R20R21R11R12R07
 112287402.722 8  87496652.49847  21367582.900    21367576.720          49.850
        43.050
 112606526.637 8  87582863.931 7  21065380.140    21065382.540          48.750
        44.850
 116073147.954 7  90279138.063 6  21775028.520    21775034.320          45.550
        36.600
 109935005.519 7                  20601772.760                          42.950

 115880756.714 7  90129489.772 7  21670286.200    21670289.800          42.600
        44.450
 114603237.237 8  89135861.806 7  21416354.540    21416356.260          48.000
        45.400
 115329093.710 7  89700417.484 7  21582268.060    21582270.780          46.650
        44.650
 127010091.479 6                  23776554.960                          39.350

 127820783.313 6  99416203.524 5  23878001.340    23878005.660          38.100
        31.750
 19  2 26 15 18  9.0000000  0  9G21R05R10R06R20R21R11R12R07
 112289365.397 8  87498181.85947  21367956.380    21367950.220          49.800
        43.000
 112607623.142 8  87583716.773 7  21065585.260    21065587.660          48.950
        45.000
 116076493.247 7  90281739.955 6  21775656.080    21775661.900          45.700
        36.650
 109932093.381 7                  20601227.020                          43.250

 115881528.370 7  90130089.949 7  21670430.480    21670434.120          42.850
        44.850
 114602204.230 8  89135058.365 7  21416161.500    21416163.220          48.050
        45.550
 115329309.256 7  89700585.131 7  21582308.400    21582311.100          46.700
        44.300
 127007743.949 6                  23776115.500                          38.950

 127816452.394 6  99412835.038 5  23877192.300    23877196.600          38.350
        32.450
 19  2 26 15 18 10.0000000  0  9G21R05R10R06R20R21R11R12R07
 112291328.344 8  87499711.42447  21368329.900    21368323.740          49.850
        42.600
 112608720.684 8  87584570.417 7  21065790.580    21065792.980          48.900
        45.200
 116079838.732 7  90284341.995 6  21776283.700    21776289.520          45.450
        36.400
 109929181.885 7                  20600681.440                          43.150

 115882300.215 7  90130690.275 7  21670574.840    21670578.460          42.600
        45.200
 114601171.173 7  89134254.875 7  21415968.460    21415970.160          47.950
        45.650
 115329525.464 7  89700753.289 7  21582348.860    21582351.560          46.700
        44.400
 127005396.972 6                  23775676.180                          39.950

 127812121.390 6  99409466.489 5  23876383.220    23876387.520          38.550
        32.350
 19  2 26 15 18 11.0000000  0  9G21R05R10R06R20R21R11R12R07
 112293291.596 8  87501241.23147  21368703.480    21368697.340          49.700
        43.000
 112609819.178 8  87585424.801 7  21065996.080    21065998.480          48.950
        45.000
 116083184.695 7  90286944.410 6  21776911.400    21776917.240          45.450
        36.250
 109926271.019 7                  20600135.940                          43.600

 115883072.213 7  90131290.724 7  21670719.200    21670722.840          42.750
        44.850
 114600138.351 8  89133451.567 7  21415775.460    21415777.160          48.000
        45.450
 115329742.704 7  89700922.249 7  21582389.520    21582392.220          46.750
        43.950
 127003050.954 6                  23775237.020                          40.000

 127807790.332 6  99406097.909 5  23875574.160    23875578.420          39.000
        33.900
 19  2 26 15 18 12.0000000  0  9G21R05R10R06R20R21R11R12R07
 112295255.330 8  87502771.41347  21369077.180    21369071.020          49.800
        42.600
 112610918.843 8  87586280.102 7  21066201.800    21066204.200          49.100
        45.050
 116086531.432 7  90289547.433 5  21777539.260    21777545.060          45.100
        35.600
 109923361.127 7                  20599590.620                          43.600

 115883844.545 7  90131891.435 7  21670863.620    21670867.280          42.950
        45.000
 114599105.839 7  89132648.500 7  21415582.520    21415584.220          47.950
        45.600
 115329961.141 7  89701092.143 7  21582430.380    21582433.080          46.400
        43.850
 127000705.930 6                  23774798.060                          39.600

 127803459.630 6  99402729.608 5  23874765.160    23874769.400          37.900
        33.650
 19  2 26 15 18 13.0000000  0  9G21R05R10R06R20R21R11R12R07
 112297219.257 8  87504301.75047  21369450.900    21369444.760          49.800
        43.150
 112612019.405 8  87587136.097 7  21066407.680    21066410.080          49.000
        45.650
 116089878.485 7  90292150.704 6  21778167.160    21778172.980          44.800
        36.000
 109920451.873 7                  20599045.420                          43.400

 115884616.968 7  90132492.211 7  21671008.080    21671011.720          42.750
        44.950
 114598073.241 7  89131845.369 7  21415389.540    21415391.260          47.900
        45.400
 115330180.316 7  89701262.605 7  21582471.420    21582474.100          46.550
        43.850
 126998361.493 6                  23774359.160                          39.550

 127799128.899 6  99399361.270 5  23873956.140    23873960.380          37.650
        33.900
 19  2 26 15 18 14.0000000  0  9G21R05R10R06R20R21R11R12R07
 112299183.117 8  87505832.02847  21369824.600    21369818.460          49.700
        42.700
 112613120.594 8  87587992.575 7  21066613.680    21066616.080          48.900
        45.650
 116093225.481 7  90294753.923 6  21778795.060    21778800.860          44.900
        36.600
 109917542.899 7                  20598500.300                          42.800

 115885389.204 7  90133092.843 7  21671152.520    21671156.140          42.600
        44.700
 114597040.347 8  89131042.007 7  21415196.520    21415198.240          48.100
        45.300
 115330399.952 7  89701433.430 7  21582512.520    21582515.200          46.750
        44.100
 126996017.414 6                  23773920.360                          39.550

 127794797.683 6  99395992.545 5  23873147.040    23873151.280          37.550
        34.000
 19  2 26 15 18 15.0000000  0  9G21R05R10R06R20R21R11R12R07
 112301147.084 8  87507362.39447  21370198.340    21370192.180          49.450
        42.400
 112614222.549 8  87588849.643 7  21066819.840    21066822.220          48.950
        45.450
 116096572.829 7  90297357.416 5  21779423.040    21779428.800          45.300
        35.750
 109914634.381 7                  20597955.240                          42.950

 115886161.437 7  90133693.473 7  21671296.920    21671300.560          42.950
        44.800
 114596007.477 8  89130238.667 7  21415003.500    21415005.220          48.000
        45.600
 115330620.423 7  89701604.905 7  21582553.800    21582556.460          46.800
        44.100
 126993673.986 6                  23773481.680                          39.350

 127790466.314 6  99392623.701 5  23872337.920    23872342.140          38.150
        33.800
 19  2 26 15 18 16.0000000  0  9G21R05R10R06R20R21R11R12R07
 112303111.035 8  87508892.74247  21370572.060    21370565.920          49.800
        42.550
 112615325.132 8  87589707.206 7  21067026.120    21067028.480          48.950
        45.500
 116099920.519 7  90299961.171 5  21780051.060    21780056.820          45.400
        35.550
 109911726.237 7                  20597410.260                          43.300

 115886933.494 7  90134293.965 7  21671441.300    21671444.940          43.200
        45.000
 114594974.601 7  89129435.322 7  21414810.480    21414812.220          47.800
        45.350
 115330841.775 7  89701777.065 7  21582595.220    21582597.880          46.250
        43.700
 126991331.310 6                  23773043.140                          39.400

 127786134.767 6  99389254.721 5  23871528.740    23871532.980          38.100
        34.250
 19  2 26 15 18 17.0000000  0  9G21R05R10R06R20R21R11R12R07
 112305075.254 8  87510423.29447  21370945.840    21370939.680          49.800
        42.850
 112616428.704 8  87590565.542 7  21067232.560    21067234.920          49.050
        45.450
 116103268.669 7  90302565.281 5  21780679.160    21780684.940          43.950
        35.200
 109908818.839 7                  20596865.420                          42.950

 115887705.682 7  90134894.550 7  21671585.700    21671589.340          43.150
        45.000
 114593941.774 7  89128632.012 7  21414617.460    21414619.200          47.600
        45.100
 115331064.083 7  89701949.974 7  21582636.820    21582639.480          45.800
        43.450
 126988989.343 6                  23772604.720                          40.300

 127781803.259 6  99385885.765 5  23870719.580    23870723.840          37.000
        34.300
 19  2 26 15 18 18.0000000  0  9G21R05R10R06R20R21R11R12R07
 112307040.002 8  87511954.25647  21371319.720    21371313.560          49.700
        43.200
 112617533.631 8  87591424.931 7  21067439.260    21067441.620          48.950
        45.700
 116106616.971 7  90305169.510 5  21781307.280    21781313.040          44.450
        35.650
 109905912.344 7                  20596320.760                          43.450

 115888478.316 7  90135495.477 7  21671730.160    21671733.820          43.300
        44.950
 114592908.847 8  89127828.620 7  21414424.440    21414426.180          48.000
        45.300
 115331286.846 7  89702123.227 7  21582678.520    21582681.160          46.450
        43.800
 126986647.714 6                  23772166.340                          40.250

 127777471.757 6  99382516.802 5  23869910.420    23869914.700          37.850
        34.000
 19  2 26 15 18 19.0000000  0  9G21R05R10R06R20R21R11R12R07
 112309004.878 8  87513485.32447  21371693.620    21371687.460          49.750
        42.400
 112618639.307 8  87592284.904 7  21067646.120    21067648.460          49.050
        45.650
 116109965.871 7  90307774.206 5  21781935.540    21781941.280          44.650
        35.550
 109903006.430 7                  20595776.180                          43.450

 115889250.926 7  90136096.394 7  21671874.680    21671878.300          43.200
        45.100
 114591876.140 7  89127025.403 7  21414231.440    21414233.200          47.900
        45.400
 115331510.760 7  89702297.383 7  21582720.420    21582723.060          46.600
        44.050
 126984307.128 6                  23771728.180                          40.950

 127773140.303 6  99379147.887 5  23869101.280    23869105.560          38.100
        34.250
 19  2 26 15 18 20.0000000  0  9G21R05R10R06R20R21R11R12R07
 112310969.672 8  87515016.33947  21372067.500    21372061.360          49.750
        42.800
 112619745.549 8  87593145.314 7  21067853.060    21067855.420          49.100
        45.400
 116113314.799 7  90310378.922 5  21782563.800    21782569.520          44.550
        35.700
 109900100.799 7                  20595231.660                          43.250

 115890023.349 7  90136697.174 7  21672019.120    21672022.760          43.150
        45.250
 114590843.195 7  89126222.004 7  21414038.420    21414040.160          47.750
        45.300
 115331735.267 7  89702472.000 7  21582762.420    21582765.080          46.850
        43.800
 126981966.970 6                  23771290.120                          40.900

 127768808.381 6  99375778.618 5  23868292.060    23868296.340          37.900
        33.350
 19  2 26 15 18 21.0000000  0  9G21R05R10R06R20R21R11R12R07
 112312934.546 8  87516547.41747  21372441.400    21372435.260          49.900
        42.800
 112620852.532 8  87594006.305 7  21068060.160    21068062.500          49.000
        45.150
 116116663.984 7  90312983.839 5  21783192.080    21783197.820          44.400
        35.600
 109897195.680 7                  20594687.260                          43.500

 115890795.719 7  90137297.906 7  21672163.560    21672167.200          43.000
        45.400
 114589810.135 7  89125418.512 7  21413845.360    21413847.120          47.750
        45.350
 115331960.493 7  89702647.176 7  21582804.560    21582807.240          46.400
        43.600
 126979627.354 6                  23770852.140                          40.300

 127764476.316 6  99372409.233 5  23867482.820    23867487.080          38.600
        33.200
 19  2 26 15 18 22.0000000  0  9G21R05R10R06R20R21R11R12R07
 112314899.588 8  87518078.62147  21372815.340    21372809.200          50.000
        43.150
 112621960.381 8  87594867.971 7  21068267.400    21068269.740          48.900
        45.150
 116120013.574 7  90315589.073 6  21783820.460    21783826.200          44.550
        36.000
 109894291.186 7                  20594142.960                          43.400

 115891568.129 7  90137898.669 7  21672308.020    21672311.640          43.150
        45.450
 114588777.117 7  89124615.054 7  21413652.320    21413654.060          47.950
        45.300
 115332186.617 7  89702823.054 7  21582846.900    21582849.560          46.200
        43.400
 126977288.457 6                  23770414.340                          40.350

 127760144.215 6  99369039.824 5  23866673.520    23866677.800          37.500
        34.550
 19  2 26 15 18 23.0000000  0  9G21R05R10R06R20R21R11R12R07
 112316864.971 8  87519610.09047  21373189.360    21373183.200          50.050
        43.250
 112623069.314 8  87595730.471 7  21068474.860    21068477.200          48.900
        45.350
 116123363.638 7  90318194.677 5  21784448.900    21784454.660          44.450
        35.650
 109891387.500 7                  20593598.820                          43.150

 115892340.779 7  90138499.619 7  21672452.520    21672456.140          43.100
        45.600
 114587744.145 8  89123811.632 7  21413459.280    21413461.040          48.050
        45.400
 115332413.594 7  89702999.589 7  21582889.360    21582892.020          46.150
        43.650
 126974950.214 6                  23769976.600                          41.050

 127755812.273 6  99365670.543 5  23865864.340    23865868.580          37.050
        34.600
 19  2 26 15 18 24.0000000  0  9G21R05R10R06R20R21R11R12R07
 112318830.478 8  87521141.65447  21373563.380    21373557.220          50.000
        43.050
 112624179.045 8  87596593.593 7  21068682.460    21068684.780          48.700
        45.350
 116126713.918 7  90320800.456 5  21785077.420    21785083.160          44.400
        35.850
 109888484.305 7                  20593054.760                          43.250

 115893113.402 7  90139100.552 7  21672597.000    21672600.620          42.700
        45.600
 114586711.117 8  89123008.170 7  21413266.240    21413268.000          48.050
        45.500
 115332641.299 7  89703176.693 7  21582931.980    21582934.640          46.200
        43.800
 126972612.623 6                  23769539.040                          40.850

 127751480.035 6  99362301.029 5  23865055.040    23865059.300          36.550
        34.700
 19  2 26 15 18 25.0000000  0  9G21R05R10R06R20R21R11R12R07
 112320796.040 8  87522673.26347  21373937.420    21373931.260          49.800
        42.950
 112625289.563 8  87597457.325 7  21068890.220    21068892.540          48.350
        45.600
 116130064.542 7  90323406.501 5  21785705.980    21785711.720          44.700
        35.900
 109885581.659 7                  20592510.800                          42.900

 115893885.994 7  90139701.455 7  21672741.500    21672745.100          42.950
        45.450
 114585677.950 8  89122204.599 7  21413073.160    21413074.920          48.100
        45.750
 115332869.726 7  89703354.363 7  21582974.720    21582977.400          46.500
        44.250
 126970275.568 6                  23769101.520                          41.150

 127747147.762 6  99358931.485 5  23864245.760    23864250.000          37.000
        35.600
 19  2 26 15 22 10.0000000  3  0
 19  2 26 15 22 10.0000000  0 17G21G20G10G26G27G29G15G31G32R05R10R06
                                R20R21R11R12R07
 112766925.636 7  87870306.71346  21458833.260    21458827.100          47.750
        38.850
 106383659.413 8  82896334.95147  20244137.600    20244131.340          48.650
        45.850
 107205370.751 8  83536641.10947  20400503.920    20400500.920          50.750
        47.400
 107962672.357 8  84126748.52147  20544613.360    20544611.140          50.750
        47.350
 122939381.336 7  95796906.96847  23394585.980    23394583.160          47.850
        42.800
 126970474.142 6  98938016.99245  24161677.640    24161675.940          40.450
        31.100
 132534611.307 7 103273712.95145  25220498.360    25220495.260          42.400
        32.300
 130617042.361 7 101779490.38045  24855596.240    24855593.420          44.550
        33.000
 132527375.459 6 103268073.00946  25219121.900    25219122.020          41.850
        40.150
 112896568.530 7  87808452.250 7  21119638.640    21119640.860          47.150
        43.700
 116891584.345 7  90915699.186 6  21928565.780    21928571.860          47.600
        39.600
 109247189.935 7                  20472875.960                          43.250

 116068546.228 6  90275548.256 7  21705404.020    21705407.560          40.600
        43.200
 114352588.966 8  88940913.448 7  21369514.920    21369516.540          48.000
        43.850
 115404372.320 8  89758967.554 7  21596355.580    21596358.420          48.750
        45.100
 126460870.969 7                  23673740.240                          45.050

 126769911.145 6  98598858.979 6  23681689.900    23681694.300          41.000
        40.950
 19  2 26 15 22 11.0000000  0  9G21G20G10G26G27G29G15G31G32
 112768798.465 7  87871766.05646  21459189.660    21459183.480          47.600
        39.700
 106384283.982 8  82896821.62847  20244256.460    20244250.200          48.600
        45.900
 107203722.018 8  83535356.38047  20400190.160    20400187.180          50.700
        47.150
 107963047.420 8  84127040.77347  20544684.740    20544682.540          50.750
        47.350
 122936576.863 7  95794721.66247  23394052.320    23394049.500          47.900
        43.400
 126972493.448 6  98939590.46345  24162061.940    24162060.480          39.450
        31.950
 132534816.477 7 103273872.81446  25220537.400    25220534.540          43.550
        36.750
 130619213.085 7 101781181.82945  24856009.300    24856006.500          44.650
        33.300
 132524751.481 6 103266028.35146  25218622.800    25218622.920          40.750
        38.750
 19  2 26 15 22 12.0000000  0  9G21G20G10G26G27G29G15G31G32
 112770634.759 7  87873196.93246  21459539.100    21459532.920          47.750
        39.250
 106384872.467 8  82897280.18247  20244368.420    20244362.160          48.450
        45.400
 107202037.228 8  83534043.55647  20399869.560    20399866.560          50.850
        47.150
 107963386.503 8  84127304.99047  20544749.260    20544747.060          50.750
        47.400
 122933735.707 7  95792507.77447  23393511.680    23393508.800          47.900
        42.750
 126974476.257 6  98941135.48845  24162439.240    24162437.800          39.700
        31.350
 132534985.366 7 103274004.39945  25220569.560    25220566.960          43.750
        33.750
 130621346.961 7 101782844.57945  24856415.380    24856412.680          44.650
        34.300
 132522090.567 6 103263954.90746  25218116.540    25218116.680          41.750
        39.550
 19  2 26 15 22 13.0000000  0  9G21G20G10G26G27G29G15G31G32
 112772448.374 7  87874610.13846  21459884.220    21459878.040          47.950
        40.800
 106385438.700 8  82897721.39847  20244476.160    20244469.900          48.700
        45.450
 107200330.208 8  83532713.40947  20399544.720    20399541.720          50.800
        47.000
 107963703.408 8  84127551.92947  20544809.560    20544807.380          50.650
        47.250
 122930871.731 8  95790276.10347  23392966.720    23392963.780          48.000
        42.450
 126976436.492 6  98942662.92645  24162812.120    24162810.700          40.100
        31.400
 132535131.855 7 103274118.54045  25220597.440    25220594.960          43.650
        33.400
 130623457.785 7 101784489.38545  24856817.040    24856814.260          44.750
        32.000
 132519406.550 6 103261863.46346  25217605.940    25217605.840          41.800
        37.550
 19  2 26 15 22 14.0000000  0  9G21G20G10G26G27G29G15G31G32
 112774251.347 7  87876015.04746  21460227.320    21460221.120          47.750
        39.250
 106385994.696 8  82898154.63947  20244581.960    20244575.700          48.750
        45.600
 107198612.965 8  83531375.29547  20399217.920    20399214.920          50.900
        47.200
 107964010.124 8  84127790.92447  20544867.900    20544865.720          50.450
        47.000
 122927996.861 8  95788035.94847  23392419.680    23392416.700          48.250
        42.800
 126978386.095 6  98944182.09345  24163183.060    24163181.840          38.800
        32.300
 132535268.008 7 103274224.63345  25220623.380    25220620.860          44.350
        32.150
 130625557.539 7 101786125.55945  24857216.620    24857213.920          44.250
        32.500
 132516711.356 6 103259763.31046  25217093.120    25217093.260          40.150
        38.300
 19  2 26 15 22 15.0000000  0  9G21G20G10G26G27G29G15G31G32
 112776053.286 7  87877419.15346  21460570.200    21460564.000          47.900
        39.200
 106386550.111 8  82898587.43947  20244687.640    20244681.380          48.700
        45.550
 107196895.154 8  83530036.74147  20398891.020    20398888.040          50.800
        47.100
 107964316.282 8  84128029.49147  20544926.160    20544924.000          50.600
        47.550
 122925120.673 8  95785794.76047  23391872.360    23391869.340          48.150
        43.400
 126980334.828 6  98945700.57845  24163553.840    24163552.740          39.850
        31.200
 132535403.427 7 103274330.15545  25220649.180    25220646.400          43.400
        32.650
 130627655.907 7 101787760.64745  24857615.920    24857613.240          43.900
        34.650
 132514014.823 6 103257662.11646  25216579.860    25216580.140          38.900
        36.450
 19  2 26 15 22 16.0000000  0  9G21G20G10G26G27G29G15G31G32
 112777861.234 7  87878827.94746  21460914.240    21460908.040          47.950
        39.050
 106387111.990 8  82899025.26647  20244794.560    20244788.280          48.650
        45.600
 107195183.852 8  83528703.26147  20398565.380    20398562.380          50.800
        47.000
 107964628.999 8  84128273.16847  20544985.640    20544983.500          50.600
        47.050
 122922250.333 8  95783558.13247  23391326.180    23391323.160          48.000
        42.900
 126982289.593 6  98947223.74145  24163925.740    24163924.820          41.100
        30.800
 132535545.090 7 103274440.53645  25220676.160    25220673.300          43.450
        34.900
 130629759.939 7 101789400.14645  24858016.320    24858013.540          44.450
        32.350
 132511323.838 6 103255565.24846  25216067.620    25216067.940          39.250
        38.000
 19  2 26 15 22 17.0000000  0  9G21G20G10G26G27G29G15G31G32
 112779678.837 7  87880244.26046  21461260.120    21461253.920          47.950
        39.700
 106387684.011 8  82899470.99547  20244903.420    20244897.120          48.700
        45.800
 107193482.763 8  83527377.73947  20398241.660    20398238.660          50.750
        46.950
 107964951.955 8  84128524.82347  20545047.100    20545044.940          50.550
        47.100
 122919389.455 8  95781328.87847  23390781.760    23390778.760          48.300
        42.750
 126984254.175 6  98948754.60845  24164299.540    24164298.480          39.600
        30.200
 132535696.766 7 103274558.74145  25220705.040    25220701.720          43.200
        33.550
 130631873.469 7 101791047.05145  24858418.480    24858415.760          43.800
        33.550
 132508642.317 6 103253475.77446  25215557.280    25215557.840          39.300
        39.000
 19  2 26 15 22 18.0000000  0  9G21G20G10G26G27G29G15G31G32
 112781507.490 8  87881669.17446  21461608.100    21461601.880          48.000
        40.850
 106388267.480 8  82899925.64247  20245014.440    20245008.160          48.700
        45.850
 107191793.119 8  83526061.13247  20397920.140    20397917.120          50.650
        47.150
 107965286.472 8  84128785.48147  20545110.780    20545108.580          50.550
        47.300
 122916539.536 8  95779108.15847  23390239.460    23390236.400          48.400
        43.200
 126986229.808 6  98950294.06745  24164675.480    24164674.440          40.000
        31.800
 132535859.722 7 103274685.72045  25220736.040    25220732.800          44.100
        34.650
 130633997.615 7 101792702.22145  24858822.660    24858819.800          43.550
        33.000
 132505971.308 6 103251394.47746  25215049.080    25215049.420          40.100
        38.300
 19  2 26 15 22 19.0000000  0  9G21G20G10G26G27G29G15G31G32
 112783347.459 8  87883102.91046  21461958.220    21461952.020          48.000
        40.200
 106388862.621 8  82900389.38847  20245127.700    20245121.460          48.750
        45.750
 107190115.134 8  83524753.60947  20397600.820    20397597.800          50.700
        46.800
 107965632.661 8  84129055.23447  20545176.640    20545174.460          50.450
        47.500
 122913700.650 8  95776896.03647  23389699.240    23389696.140          48.300
        43.000
 126988216.740 6  98951842.33345  24165053.580    24165051.980          40.150
        33.000
 132536034.223 7 103274821.68546  25220769.280    25220765.920          44.350
        36.650
 130636132.510 7 101794365.77645  24859228.920    24859226.100          43.050
        32.050
 132503310.989 6 103249321.50646  25214542.820    25214542.780          39.800
        37.700
 19  2 26 15 22 20.0000000  0  9G21G20G10G26G27G29G15G31G32
 112785200.046 7  87884546.48646  21462310.760    21462304.560          47.950
        40.150
 106389470.855 8  82900863.33947  20245243.420    20245237.200          48.700
        45.900
 107188450.291 8  83523456.33347  20397284.020    20397280.960          50.650
        46.650
 107965992.013 8  84129335.24947  20545245.000    20545242.840          50.450
        47.300
 122910874.124 8  95774693.54847  23389161.400    23389158.320          48.300
        43.000
 126990216.428 6  98953400.52245  24165434.140    24165432.640          39.600
        33.300
 132536221.681 7 103274967.75645  25220804.980    25220801.620          44.850
        34.700
 130638279.796 7 101796038.99845  24859637.560    24859634.700          43.250
        33.750
 132500663.053 6 103247258.18446  25214038.980    25214038.920          40.350
        37.550
 19  2 26 15 22 21.0000000  0  9G21G20G10G26G27G29G15G31G32
 112787067.785 8  87886001.86746  21462666.180    21462659.960          48.050
        40.000
 106390094.672 8  82901349.43047  20245362.120    20245355.880          48.700
        45.600
 107186801.040 8  83522171.20647  20396970.180    20396967.120          50.600
        47.050
 107966367.005 8  84129627.45547  20545316.360    20545314.220          50.450
        47.200
 122908062.570 8  95772502.72647  23388626.380    23388623.320          48.300
        43.000
 126992231.324 6  98954970.56345  24165817.560    24165815.820          38.750
        32.950
 132536424.552 7 103275125.82845  25220843.600    25220840.360          44.100
        34.150
 130640441.799 7 101797723.67845  24860048.960    24860046.060          43.000
        34.300
 132498029.794 6 103245206.28346  25213537.980    25213537.980          40.100
        39.200
 19  2 26 15 22 22.0000000  0  9G21G20G10G26G27G29G15G31G32
 112788948.607 8  87887467.44146  21463024.080    21463017.860          48.050
        39.750
 106390732.032 8  82901846.07647  20245483.400    20245477.180          48.650
        45.750
 107185165.382 8  83520896.66947  20396658.940    20396655.880          50.650
        46.950
 107966755.617 8  84129930.26747  20545390.320    20545388.160          50.400
        47.450
 122905263.909 8  95770321.95647  23388093.820    23388090.760          48.400
        43.250
 126994259.460 6  98956550.92045  24166203.480    24166201.560          39.800
        30.750
 132536640.804 7 103275294.33745  25220884.760    25220881.400          44.350
        32.550
 130642616.612 7 101799418.34145  24860462.820    24860459.880          43.000
        30.300
 132495409.242 6 103243164.29546  25213039.380    25213039.660          40.250
        38.900
 19  2 26 15 22 23.0000000  0  9G21G20G10G26G27G29G15G31G32
 112790841.705 8  87888942.58246  21463384.320    21463378.100          48.100
        40.250
 106391382.101 8  82902352.62347  20245607.140    20245600.860          48.700
        45.600
 107183542.456 8  83519632.05047  20396350.120    20396347.060          50.700
        47.200
 107967157.057 8  84130243.07847  20545466.720    20545464.540          50.450
        47.150
 122902477.405 8  95768150.65647  23387563.580    23387560.520          48.450
        43.900
 126996299.801 6  98958140.77845  24166591.680    24166589.940          40.000
        30.350
 132536869.593 7 103275472.61245  25220928.280    25220924.940          44.150
        33.600
 130644803.376 7 101801122.32245  24860878.940    24860875.840          43.000
        34.650
 132492800.595 6 103241131.58346  25212543.020    25212543.140          40.200
        37.650
 19  2 26 15 22 24.0000000  0  9G21G20G10G26G27G29G15G31G32
 112792746.847 7  87890427.10646  21463746.860    21463740.640          47.900
        40.400
 106392044.445 8  82902868.73647  20245733.180    20245726.920          48.650
        46.000
 107181931.651 8  83518376.87547  20396043.580    20396040.560          50.850
        47.650
 107967570.747 8  84130565.43147  20545545.460    20545543.240          50.550
        47.300
 122899702.862 7  95765988.67247  23387035.600    23387032.580          47.650
        43.100
 126998351.911 6  98959739.83145  24166982.160    24166980.040          39.900
        32.950
 132537110.657 6 103275660.45044  25220974.160    25220970.880          41.800
        29.250
 130647001.269 7 101802834.95145  24861297.180    24861293.840          42.950
        35.000
 132490202.849 6 103239107.36146  25212048.600    25212048.840          41.100
        38.900
 19  2 26 15 22 25.0000000  0  9G21G20G10G26G27G29G15G31G32
 112794663.172 7  87891920.35046  21464111.520    21464105.320          47.700
        39.600
 106392718.821 8  82903394.22247  20245861.520    20245855.260          48.650
        45.800
 107180333.258 8  83517131.37647  20395739.400    20395736.400          50.750
        47.000
 107967996.662 8  84130897.32047  20545626.500    20545624.300          50.500
        47.050
 122896939.000 8  95763835.01347  23386509.640    23386506.660          48.250
        43.400
 127000416.155 6  98961348.35745  24167374.820    24167372.900          39.700
        35.500
 132537363.348 7 103275857.37245  25221022.280    25221019.420          42.700
        33.000
 130649211.058 7 101804556.86745  24861717.700    24861714.560          43.050
        34.700
 132487617.214 6 103237092.58946  25211556.560    25211556.800          39.700
        39.250
 19  2 26 15 22 26.0000000  0 13G21G20G10G26G16G27G29G15G31G32R10R21
                                R11
 112796591.352 7  87893422.82446  21464478.440    21464472.240          47.950
        39.750
 106393405.271 8  82903929.11547  20245992.180    20245985.880          48.700
        45.900
 107178746.797 8  83515895.17547  20395437.520    20395434.500          50.650
        47.000
 107968434.664 8  84131238.62047  20545709.840    20545707.640          50.350
        47.200
                                  21371949.680                          48.650

 122894186.975 8  95761690.58047  23385985.960    23385982.980          48.050
        43.250
 127002491.820 6  98962965.75645  24167769.700    24167768.180          39.650
        33.900
 132537628.084 7 103276063.65445  25221072.620    25221069.680          42.800
        34.650
 130651431.773 7 101806287.29845  24862140.260    24862137.160          42.900
        34.700
 132485042.302 6 103235086.16846  25211066.580    25211066.640          41.050
        37.050
                                  21938302.180                          46.400

                                  21365880.940                          47.300

                                  21597058.880                          47.400

 19  2 26 15 22 27.0000000  0  9G21G20G10G26G27G29G15G31G32
 112798527.388 7  87894931.42046  21464846.860    21464840.660          47.950
        40.300
 106394100.105 8  82904470.54447  20246124.400    20246118.120          48.650
        45.750
 107177168.807 8  83514665.57247  20395137.260    20395134.220          50.600
        46.750
 107968881.166 8  84131586.54347  20545794.820    20545792.600          50.400
        47.300
 122891442.598 7  95759552.10147  23385463.720    23385460.680          47.950
        43.400
 127004575.576 6  98964589.43545  24168166.160    24168164.740          40.750
        30.800
 132537900.959 7 103276276.27445  25221124.560    25221121.660          43.050
        30.800
 130653660.279 7 101808023.82245  24862564.320    24862561.340          42.350
        34.350
 132482475.204 6 103233085.82846  25210578.120    25210578.060          41.250
        38.700
 19  2 26 15 22 28.0000000  0 15G21G20G10G26G16G27G29G15G31G32R10R20
                                R21R11R07
 112800472.740 8  87896447.27446  21465217.040    21465210.840          48.500
        41.700
 106394804.855 8  82905019.70047  20246258.520    20246252.240          48.850
        46.400
 107175600.936 8  83513443.85647  20394838.900    20394835.860          50.450
        46.950
 107969337.815 8  84131942.37047  20545881.740    20545879.500          50.250
        46.850
                                  21371242.400                          49.150

 122888707.447 8  95757420.81247  23384943.240    23384940.220          48.450
        44.250
 127006668.951 7  98966220.63945  24168564.560    24168563.200          43.400
        34.150
 132538183.525 7 103276496.45945  25221178.320    25221175.460          44.550
        34.350
 130655898.251 6 101809767.72045  24862990.180    24862987.280          40.300
        34.200
 132479917.355 6 103231092.68246  25210091.340    25210091.400          37.650
        36.650
                                  21939586.560                          45.400

                                  21707507.580                          40.400

                                  21365495.960                          47.800

                                  21597220.860                          47.150

                                  23666531.360                          38.850

 19  2 26 15 22 29.0000000  0 11G21G20G10G26G16G27G29G15G31G32R12
 112802425.687 8  87897969.05346  21465588.660    21465582.480          48.700
        41.550
 106395517.304 8  82905574.84947  20246394.080    20246387.840          48.650
        45.900
 107174040.453 8  83512227.88847  20394541.940    20394538.920          50.500
        47.150
 107969801.961 8  84132304.03847  20545970.060    20545967.840          50.250
        47.100
                                  21370877.720                          49.250

 122885979.589 8  95755295.21347  23384424.160    23384421.120          48.150
        43.600
 127008769.507 7  98967857.43145  24168964.380    24168962.780          42.600
        35.800
 132538473.839 7 103276722.67245  25221233.580    25221230.760          43.750
        35.200
 130658142.454 6 101811516.43645  24863417.260    24863414.620          41.000
        34.700
 132477365.791 6 103229104.45145  25209605.800    25209605.880          40.300
        34.600
                                  23665449.500                          45.250

 19  2 26 15 22 30.0000000  0 11G21G20G10G26G16G27G29G15G31G32R05
 112804384.362 8  87899495.29746  21465961.400    21465955.180          48.650
        40.950
 106396235.985 8  82906134.86147  20246530.820    20246524.600          48.500
        45.850
 107172486.287 8  83511016.84547  20394246.180    20394243.180          50.500
        47.250
 107970272.397 8  84132670.61147  20546059.600    20546057.360          50.300
        46.900
                                  21370520.420                          49.450

 122883257.166 8  95753173.84847  23383906.100    23383903.040          48.150
        43.650
 127010876.006 7  98969498.84945  24169365.300    24169363.840          42.450
        33.300
 132538770.268 7 103276953.65945  25221289.980    25221287.160          42.750
        34.300
 130660392.147 6 101813269.44544  24863845.360    24863842.460          40.800
        29.900
 132474819.752 6 103227120.53146  25209121.360    25209121.400          40.650
        37.250
                                  21124224.040                          44.800

 19  2 26 15 22 31.0000000  0 16G21G20G10G26G16G27G29G15G31G32R10R20
                                R21R11R12R07
 112806356.146 8  87901031.75446  21466336.620    21466330.400          48.450
        40.400
 106396968.151 8  82906705.38147  20246670.140    20246663.920          48.400
        45.950
 107170945.574 8  83509816.28947  20393953.000    20393950.000          50.450
        46.950
 107970756.399 8  84133047.75847  20546151.720    20546149.480          50.350
        46.900
 112300861.927 8                  21370170.040                          49.750

 122880547.735 8  95751062.60547  23383390.500    23383387.420          48.450
        44.250
 127012995.554 6  98971150.45345  24169768.660    24169767.020          41.750
        33.400
 132539080.047 7 103277195.05445  25221348.900    25221346.180          43.200
        33.750
 130662654.438 7 101815032.25245  24864275.820    24864272.940          42.400
        30.200
 132472286.187 6 103225146.32246  25208639.260    25208639.480          38.900
        37.800
                                  21941515.340                          45.900

                                  21707937.000                          41.250

                                  21364906.940                          48.300

                                  21597451.760                          48.150

                                  23664637.340                          45.350

                                  23664090.400                          40.350

 19  2 26 15 22 32.0000000  0 11G21G20G10G26G16G27G29G15G31G32R12
 112808326.464 8  87902567.06946  21466711.540    21466705.320          48.300
        40.300
 106397699.462 8  82907275.23947  20246809.280    20246803.100          48.650
        45.550
 107169404.217 8  83508615.23647  20393659.680    20393656.700          50.450
        47.000
 107971239.786 8  84133424.42347  20546243.720    20546241.440          50.350
        46.750
 112298948.839 8                  21369809.960                          49.750

 122877836.802 8  95748950.18847  23382874.620    23382871.560          48.100
        43.900
 127015113.900 7  98972801.12745  24170171.800    24170170.200          42.950
        32.750
 132539388.652 7 103277435.53345  25221407.640    25221405.020          44.800
        34.150
 130664915.487 6 101816794.12145  24864706.060    24864703.660          41.100
        33.450
 132469751.281 6 103223171.06046  25208156.780    25208157.120          38.350
        37.000
                                  23664241.460                          45.650

 19  2 26 15 22 33.0000000  0 17G21G20G10G26G16G27G29G15G31G32R05R10
                                R20R21R11R12R07
 112810305.739 8  87904109.36546  21467088.200    21467081.960          48.350
        39.700
 106398440.133 8  82907852.38747  20246950.220    20246944.040          48.850
        45.850
 107167872.242 8  83507421.49447  20393368.140    20393365.160          50.600
        46.950
 107971732.614 8  84133808.44947  20546337.520    20546335.220          50.200
        46.850
 112297045.116 8  87504244.59747  21369448.840    21369440.100          49.850
        42.900
 122875134.636 7  95746844.60647  23382360.400    23382357.340          47.900
        44.000
 127017241.291 7  98974458.84245  24170576.720    24170575.160          42.950
        30.900
 132539706.466 7 103277683.17245  25221468.080    25221465.420          45.400
        33.300
 130667185.164 6 101818562.72245  24865137.960    24865135.760          40.600
        31.500
 132467224.765 5 103221202.33645  25207675.920    25207676.320          35.950
        35.350
                                  21124960.400                          44.850

                                  21942806.880                          45.850

                                  21708247.360                          41.650

                                  21364534.860                          48.350

                                  21597624.400                          47.800

                                  23663836.480                          45.200

                                  23662464.800                          41.150

 19  2 26 15 22 34.0000000  0 15G21G20G10G26G16G27G29G15G31R10R20R21
                                R11R12R07
 112812290.636 8  87905656.03146  21467465.900    21467459.680          49.050
        41.600
 106399186.926 8  82908434.30047  20247092.300    20247086.160          49.200
        46.350
 107166346.456 8  83506232.56347  20393077.800    20393074.840          50.550
        46.250
 107972231.721 8  84134197.35647  20546432.480    20546430.220          50.050
        46.100
 112295147.578 8  87502766.02047  21369088.400    21369082.200          49.700
        43.800
 122872438.046 7  95744743.36747  23381847.260    23381844.220          47.550
        43.550
 127019374.223 7  98976120.84545  24170982.600    24170981.040          44.750
        33.200
 132540030.152 7 103277935.39145  25221529.680    25221527.100          46.000
        34.500
 130669460.265 6 101820335.53344  24865570.900    24865568.820          40.650
        28.950
                                  21943457.500                          45.800

                                  21708399.540                          42.350

                                  21364345.540                          48.350

                                  21597713.980                          47.600

                                  23663426.660                          44.650

                                  23661660.780                          39.800

 19  2 26 15 22 35.0000000  0 15G21G20G10G26G16G27G29G15G31R10R20R21
                                R11R12R07
 112814272.560 8  87907200.37246  21467843.060    21467836.820          49.000
        41.800
 106399931.229 8  82909014.26747  20247233.940    20247227.800          49.250
        46.100
 107164818.315 8  83505041.79447  20392787.000    20392784.040          50.600
        46.550
 107972728.632 8  84134584.54947  20546527.060    20546524.760          50.050
        46.150
 112293247.767 8  87501285.66047  21368727.100    21368720.940          49.450
        43.650
 122869738.555 7  95742639.87047  23381333.560    23381330.540          46.450
        43.150
 127021504.278 7  98977780.58945  24171387.920    24171386.320          44.700
        35.500
 132540351.072 7 103278185.45745  25221590.740    25221588.240          46.000
        34.600
 130671732.406 7 101822106.01845  24866003.280    24866001.220          42.000
        33.650
                                  21944095.580                          45.900

                                  21708542.180                          42.250

                                  21364148.160                          48.250

                                  21597790.420                          47.050

 126403439.524 7                  23663015.200                          43.950

                                  23660844.900                          40.700

 19  2 26 15 22 36.0000000  0 17G21G20G10G26G16G27G29G15G31G32R05R10
                                R20R21R11R12R07
 112816254.701 8  87908744.88847  21468220.240    21468214.000          49.450
        42.400
 106400676.138 8  82909594.71047  20247375.700    20247369.560          49.300
        46.600
 107163290.585 8  83503851.34247  20392496.300    20392493.340          50.500
        46.150
 107973225.701 8  84134971.86047  20546621.640    20546619.360          49.650
        45.450
 112291347.977 8  87499805.30247  21368365.700    21368360.180          49.250
        43.950
 122867038.374 7  95740535.84147  23380819.740    23380816.760          46.300
        43.800
 127023634.833 7  98979440.74745  24171793.380    24171791.860          44.500
        34.800
 132540672.659 7 103278436.04045  25221651.920    25221649.400          46.550
        35.500
 130674003.612 6 101823875.75645  24866435.440    24866433.440          40.650
        32.600
                                  25206234.700                          35.500

                                  21125686.900                          46.300

                                  21944734.060    21944727.580          45.600
        35.400
                                  21708684.800                          43.150

                                  21363951.180    21363944.420          48.400
        44.200
                                  21597867.000    21597856.840          46.250
        42.600
 126401244.087 7                  23662604.860                          44.400

                                  23660028.600    23660015.460          38.850
        35.600
 19  2 26 15 22 37.0000000  0 16G21G20G10G26G16G27G29G15G31G32R10R20
                                R21R11R12R07
 112818238.661 8  87910290.82547  21468597.780    21468591.540          49.550
        42.650
 106401423.160 8  82910176.79247  20247517.860    20247511.720          49.300
        46.250
 107161764.861 8  83502662.45247  20392205.960    20392203.000          50.250
        45.750
 107973724.806 8  84135360.75947  20546716.620    20546714.320          49.800
        45.800
 112289450.218 8  87498326.52347  21368004.700    21367998.820          49.200
        43.900
 122864339.677 7  95738432.95847  23380306.180    23380303.220          47.250
        44.150
 127025767.168 7  98981102.29945  24172199.180    24172197.660          45.850
        34.950
 132540996.417 7 103278688.31045  25221713.520    25221711.000          46.200
        34.500
 130676275.865 6 101825646.29044  24866867.840    24866865.940          40.150
        27.900
 132457147.764 5 103213355.84255  25205757.360    25205755.820          35.850
        34.950
 116981104.778 7                  21945373.180    21945376.720          46.000
        36.550
 116086776.694 7                  21708827.580                          43.450

 114321679.648 8                  21363752.820                          48.450

 115412759.038 7                  21597943.120    21597943.660          47.600
        44.550
 126399050.869 7                  23662194.700                          44.600

 126649505.294 6                  23659212.060                          37.700

 19  2 26 15 22 38.0000000  0 16G21G20G10G26G16G27G29G15G31G32R10R20
                                R21R11R12R07
 112820224.636 8  87911838.33447  21468975.700    21468969.460          49.600
        42.800
 106402172.932 8  82910761.02347  20247660.540    20247654.380          49.350
        46.000
 107160242.315 8  83501476.05047  20391916.220    20391913.240          50.150
        45.950
 107974227.353 8  84135752.34647  20546812.260    20546809.960          49.650
        45.850
 112287555.696 8  87496850.27447  21367644.100    21367638.100          49.450
        44.350
 122861643.533 7  95736332.05647  23379793.120    23379790.200          47.100
        44.650
 127027901.646 7  98982765.52245  24172605.360    24172603.780          44.000
        31.500
 132541322.279 7 103278942.22146  25221775.540    25221772.960          45.750
        37.350
 130678551.146 6 101827419.22345  24867300.800    24867298.820          39.000
        32.500
 132454626.517 5 103211391.29545  25205275.180    25205272.720          34.400
        31.550
 116984512.396 7                  21946012.360    21946018.160          45.900
        36.500
 116087540.117 7                  21708970.400    21708973.380          43.350
        45.000
 114320622.571 8                  21363555.420    21363557.140          48.700
        45.800
 115413169.629 7                  21598019.800    21598022.100          46.950
        43.900
 126396860.981 7                  23661784.280                          44.050

 126645133.277 6                  23658395.720    23658397.760          38.300
        38.000
 19  2 26 15 22 39.0000000  0 17G21G20G10G26G16G27G29G15G31G32R05R10
                                R20R21R11R12R07
 112822213.268 8  87913387.90847  21469354.120    21469347.900          49.850
        43.350
 106402925.674 8  82911347.56847  20247803.800    20247797.620          49.200
        45.950
 107158722.598 8  83500291.85547  20391627.020    20391624.040          50.200
        45.800
 107974732.711 8  84136146.12547  20546908.420    20546906.160          49.650
        45.150
 112285663.968 8  87495376.19047  21367284.120    21367278.320          49.300
        43.700
 122858949.608 7  95734232.89047  23379280.480    23379277.600          46.200
        43.950
 127030038.829 7  98984430.86245  24173012.060    24173010.440          44.050
        34.050
 132541651.142 7 103279198.47146  25221838.120    25221835.580          45.050
        38.350
 130680828.113 6 101829193.45143  24867734.060    24867732.160          38.900
        22.900
 132452107.032 5 103209428.06045  25204796.140    25204792.440          34.850
        35.700
                                  21126413.800                          46.200

 116987922.299 7  90990640.549 6  21946652.300    21946658.660          45.650
        36.400
 116088306.164 7                  21709113.020    21709117.140          43.700
        45.100
 114319567.857 8                  21363358.480    21363360.080          48.450
        45.650
 115413583.162 7  89766155.344 7  21598097.140    21598099.760          47.150
        43.900
 126394674.056 7                  23661374.680                          43.800

 126640763.292 6                  23657578.720    23657581.920          38.250
        37.500
 19  2 26 15 22 40.0000000  0 16G21G20G10G26G16G27G29G15G31G32R10R20
                                R21R11R12R07
 112824204.690 8  87914939.65647  21469733.080    21469726.860          49.900
        43.300
 106403681.479 8  82911936.50647  20247947.620    20247941.460          49.300
        46.150
 107157205.797 8  83499109.93147  20391338.380    20391335.420          50.250
        46.100
 107975241.044 8  84136542.22347  20547005.160    20547002.920          49.450
        45.450
 112283775.284 8  87493904.48247  21366924.740    21366918.800          49.300
        43.750
 122856258.197 7  95732135.68647  23378768.320    23378765.500          46.400
        43.750
 127032178.619 7  98986098.22145  24173419.260    24173417.760          44.200
        33.750
 132541983.063 7 103279457.10946  25221901.280    25221898.780          45.550
        37.150
 130683107.099 6 101830969.33144  24868167.700    24868165.680          38.750
        27.400
 132449589.552 5 103207466.40645  25204318.280    25204314.680          34.950
        32.750
 116991334.693 7  90993294.631 6  21947292.280    21947298.500          45.800
        36.300
 116089074.964 7                  21709256.880    21709260.980          43.400
        45.400
 114318515.808 8                  21363161.900    21363163.380          48.600
        45.450
 115413999.919 7  89766479.489 7  21598175.380    21598177.800          46.900
        43.900
 126392490.445 7                  23660966.300                          44.000

 126636395.397 6                  23656762.480    23656765.960          37.650
        37.950
 19  2 26 15 22 41.0000000  0 16G21G20G10G26G16G27G29G15G31G32R10R20
                                R21R11R12R07
 112826197.791 8  87916492.71947  21470112.360    21470106.160          49.850
        43.300
 106404439.421 8  82912527.10847  20248091.860    20248085.680          49.250
        46.700
 107155691.204 8  83497929.72647  20391050.180    20391047.200          50.300
        46.100
 107975751.589 8  84136940.05047  20547102.320    20547100.100          49.500
        45.200
 112281888.703 8  87492434.41747  21366565.820    21366559.860          49.150
        43.900
 122853568.236 7  95730039.61547  23378256.440    23378253.620          46.600
        44.350
 127034320.246 7  98987767.03745  24173826.840    24173825.320          44.750
        34.850
 132542317.007 7 103279717.33246  25221964.820    25221962.320          45.400
        37.250
 130685387.448 6 101832746.21845  24868601.600    24868599.560          37.600
        31.700
 132447073.357 6 103205505.76945  25203839.360    25203838.480          36.800
        33.400
 116994748.953 7  90995950.162 6  21947932.940    21947939.320          45.750
        36.550
 116089845.397 7  90292175.555 7  21709401.160    21709405.080          43.850
        45.350
 114317465.274 8  88913649.111 7  21362965.360    21362967.160          48.600
        45.800
 115414419.012 7  89766805.450 7  21598253.840    21598256.300          47.000
        43.650
 126390309.009 7                  23660557.920                          44.700

 126632029.105 6  98491667.094 6  23655947.500    23655950.600          37.700
        38.050
 19  2 26 15 22 42.0000000  0 17G21G20G10G26G16G27G29G15G31G32R05R10
                                R20R21R11R12R07
 112828192.374 8  87918046.93847  21470491.920    21470485.720          49.900
        42.700
 106405199.265 8  82913119.19047  20248236.460    20248230.300          49.300
        46.600
 107154178.505 8  83496751.00447  20390762.320    20390759.340          50.450
        46.150
 107976264.102 8  84137339.41347  20547199.860    20547197.620          49.550
        45.350
 112280004.021 8  87490965.83447  21366207.140    21366201.240          49.050
        43.800
 122850879.594 7  95727944.56947  23377744.780    23377742.020          46.400
        44.150
 127036463.394 7  98989437.02045  24174234.680    24174233.240          45.100
        33.900
 132542652.686 7 103279978.89946  25222028.700    25222026.220          46.300
        37.350
 130687668.856 6 101834523.94944  24869035.780    24869033.440          37.750
        29.550
 132444558.260 5 103203545.96845  25203359.960    25203359.220          35.950
        34.650
                                  21127171.460                          46.250

 116998164.828 7  90998606.950 6  21948573.620    21948580.000          45.800
        36.950
 116090617.200 7  90292775.842 7  21709545.500    21709549.440          43.600
        45.300
 114316416.072 8  88912833.065 7  21362769.420    21362771.100          48.600
        45.400
 115414840.261 7  89767133.088 7  21598332.820    21598335.320          46.950
        43.900
 126388129.605 7                  23660149.940                          44.750

 126627664.071 6  98488272.074 6  23655131.540    23655134.880          38.000
        38.000
 19  2 26 15 22 43.0000000  0 16G21G20G10G26G16G27G29G15G31G32R10R20
                                R21R11R12R07
 112830188.741 8  87919602.54847  21470871.820    21470865.620          49.800
        42.600
 106405961.321 8  82913713.00247  20248381.460    20248375.320          49.300
        46.600
 107152668.059 8  83495574.03547  20390474.880    20390471.920          50.450
        46.100
 107976778.856 8  84137740.52247  20547297.820    20547295.580          49.450
        45.000
 112278121.497 8  87489498.93247  21365848.920    21365843.100          49.150
        43.400
 122848192.471 7  95725850.70747  23377233.440    23377230.700          46.250
        43.600
 127038608.449 7  98991108.49245  24174642.900    24174641.420          45.450
        34.500
 132542990.495 7 103280242.13246  25222092.980    25222090.540          45.650
        37.200
 130689951.680 6 101836302.80545  24869470.200    24869468.020          39.000
        30.000
 132442044.527 5 103201587.19944  25202881.700    25202882.260          34.550
        29.950
 117001582.558 7  91001265.177 6  21949214.960    21949221.400          45.500
        36.700
 116091390.711 7  90293377.457 7  21709690.060    21709694.080          43.350
        45.500
 114315368.477 8  88912018.273 7  21362573.580    21362575.280          48.700
        45.550
 115415263.848 7  89767462.545 7  21598411.880    21598414.580          46.800
        43.650
 126385952.487 7                  23659742.380                          45.000

 126623300.552 6  98484878.215 6  23654315.700    23654319.680          37.600
        38.250
 19  2 26 15 22 44.0000000  0 16G21G20G10G26G16G27G29G15G31G32R10R20
                                R21R11R12R07
 112832186.858 8  87921159.52447  21471252.060    21471245.860          49.750
        42.950
 106406725.640 8  82914308.58147  20248526.900    20248520.780          49.350
        46.200
 107151159.971 8  83494398.90447  20390187.920    20390184.920          50.400
        46.100
 107977295.981 8  84138143.47647  20547396.220    20547393.980          49.550
        44.850
 112276241.171 8  87488033.74347  21365491.120    21365485.320          49.150
        43.800
 122845506.875 7  95723758.03747  23376722.380    23376719.660          46.200
        44.300
 127040755.470 7  98992781.49845  24175051.500    24175049.960          45.250
        33.900
 132543330.341 7 103280506.94645  25222157.620    25222155.180          45.200
        35.700
 130692236.104 6 101838082.87445  24869904.920    24869903.140          36.450
        31.300
 132439532.279 5 103199629.58444  25202402.180    25202401.900          32.200
        29.750
 117005002.368 7  91003925.020 6  21949856.380    21949862.760          45.700
        36.800
 116092165.904 7  90293980.381 7  21709835.520    21709838.960          43.400
        45.050
 114314322.441 8  88911204.689 7  21362378.100    21362379.780          48.650
        45.300
 115415689.839 7  89767793.867 7  21598491.580    21598494.300          46.850
        43.750
 126383777.573 7                  23659335.320                          44.950

 126618938.832 6  98481485.760 6  23653500.920    23653504.800          37.150
        38.550
 19  2 26 15 22 45.0000000  0 17G21G20G10G26G16G27G29G15G31G32R05R10
                                R20R21R11R12R07
 112834186.719 8  87922717.86247  21471632.620    21471626.420          49.650
        42.900
 106407492.132 8  82914905.85147  20248672.760    20248666.640          49.300
        46.250
 107149654.051 8  83493225.46447  20389901.340    20389898.360          50.300
        46.000
 107977815.315 8  84138548.15247  20547495.040    20547492.820          49.450
        45.300
 112274362.998 8  87486570.23347  21365133.700    21365128.000          49.200
        44.100
 122842822.800 7  95721666.55647  23376211.600    23376208.920          46.550
        43.850
 127042904.244 7  98994455.86645  24175460.440    24175458.880          44.800
        33.350
 132543672.215 7 103280773.34045  25222222.680    25222220.300          45.150
        35.850
 130694521.829 6 101839863.94645  24870339.860    24870337.820          37.900
        34.700
 132437021.323 5 103197672.95445  25201925.200    25201922.180          33.050
        30.800
                                  21127906.400                          46.350

 117008423.995 7  91006586.287 6  21950498.200    21950504.740          45.750
        36.350
 116092942.752 7  90294584.594 7  21709980.800    21709984.260          43.450
        44.950
 114313278.017 8  88910392.360 7  21362182.960    21362184.500          48.850
        45.600
 115416118.270 7  89768127.089 7  21598571.760    21598574.480          46.750
        43.950
 126381604.972 7                  23658928.640                          44.900

 126614578.575 6  98478094.449 6  23652686.000    23652690.320          37.600
        38.400
 19  2 26 15 22 46.0000000  0 16G21G20G10G26G16G27G29G15G31G32R10R20
                                R21R11R12R07
 112836187.487 8  87924276.90647  21472013.360    21472007.180          49.800
        43.650
 106408259.976 8  82915504.17847  20248818.880    20248812.760          49.150
        46.750
 107148149.545 8  83492053.13247  20389615.040    20389612.040          50.100
        45.400
 107978336.115 8  84138953.97747  20547594.160    20547591.940          49.400
        45.400
 112272486.202 8  87485107.79747  21364776.560    21364770.760          49.250
        43.900
 122840139.518 7  95719575.69547  23375700.980    23375698.300          46.700
        44.400
 127045054.029 7  98996131.02445  24175869.540    24175867.940          44.650
        34.750
 132544015.287 7 103281040.66946  25222287.960    25222285.640          44.550
        36.800
 130696808.219 6 101841645.51844  24870774.940    24870772.780          38.100
        26.950
 132434510.900 5 103195716.84045  25201448.420    25201443.920          35.100
        30.750
 117011846.738 7  91009248.425 6  21951140.320    21951147.120          45.500
        36.750
 116093720.424 7  90295189.458 7  21710126.220    21710129.680          43.350
        45.300
 114312234.356 8  88909580.630 7  21361987.980    21361989.500          48.950
        45.650
 115416548.331 7  89768461.581 7  21598652.080    21598654.860          46.700
        43.550
 126379433.826 7                  23658522.100                          45.000

 126610219.130 6  98474703.778 6  23651871.460    23651876.160          37.600
        37.750
 19  2 26 15 22 47.0000000  0 17G21G20G10G26G16G27G29G15G31G32R05R10
                                R20R21R11R12R07
 112838188.497 8  87925836.13747  21472394.140    21472387.960          49.700
        43.300
 106409028.449 8  82916102.99247  20248965.100    20248959.000          49.150
        46.650
 107146645.656 8  83490881.27447  20389328.860    20389325.860          50.100
        45.950
 107978857.596 8  84139360.33047  20547693.380    20547691.160          49.350
        45.300
 112270610.028 8  87483645.84947  21364419.500    21364413.780          49.050
        44.350
 122837456.234 7  95717484.82547  23375190.360    23375187.720          46.500
        43.950
 127047204.058 7  98997806.36945  24176278.700    24176277.080          45.000
        33.300
 132544358.870 7 103281308.39346  25222353.340    25222351.060          43.800
        37.500
 130699094.354 6 101843426.92245  24871209.960    24871208.260          38.300
        32.500
 132432000.236 5 103193760.56044  25200971.000    25200968.180          33.350
        26.500
                                  21128402.200                          45.450

 117015269.743 7  91011910.767 6  21951782.580    21951789.260          45.450
        36.850
 116094498.221 7  90295794.418 7  21710271.500    21710275.120          43.550
        45.700
 114311190.770 8  88908768.954 7  21361792.820    21361794.420          48.700
        45.700
 115416979.207 7  89768796.706 7  21598732.720    21598735.540          46.450
        43.750
 126377263.439 7                  23658115.680                          44.850

 126605859.671 6  98471313.092 6  23651057.180    23651061.700          36.550
        38.000
 19  2 26 15 22 48.0000000  0 16G21G20G10G26G16G27G29G15G31G32R10R20
                                R21R11R12R07
 112840189.473 8  87927395.33947  21472774.920    21472768.740          49.600
        42.950
 106409797.358 8  82916702.14247  20249111.420    20249105.320          49.100
        46.750
 107145142.228 8  83489709.77347  20389042.760    20389039.780          50.150
        45.900
 107979379.573 8  84139767.06547  20547792.720    20547790.480          49.450
        45.250
 112268734.251 8  87482184.20747  21364062.540    21364056.700          49.200
        43.650
 122834772.732 7  95715393.78847  23374679.720    23374677.060          46.300
        44.250
 127049354.145 7  98999481.75245  24176687.900    24176686.200          45.050
        32.900
 132544702.712 7 103281576.31646  25222418.760    25222416.480          44.900
        38.600
 130701380.150 6 101845208.04345  24871644.900    24871642.860          38.150
        32.800
 132429489.296 5 103191803.98445  25200493.480    25200489.840          35.800
        32.100
 117018692.841 7  91014573.172 6  21952424.780    21952431.400          45.950
        36.350
 116095275.938 7  90296399.313 7  21710416.920    21710420.680          43.600
        45.450
 114310146.989 8  88907957.124 7  21361597.880    21361599.320          48.950
        45.850
 115417410.654 7  89769132.275 7  21598813.380    21598816.320          46.900
        43.650
 126375093.511 7                  23657709.600                          45.000

 126601499.932 6  98467922.194 6  23650242.640    23650247.420          36.550
        38.400
 19  2 26 15 22 49.0000000  0 16G21G20G10G26G16G27G29G15G31G32R10R20
                                R21R11R12R07
 112842190.440 8  87928954.53447  21473155.680    21473149.520          49.600
        43.200
 106410566.677 8  82917301.61347  20249257.820    20249251.740          49.350
        46.300
 107143639.269 8  83488538.63347  20388756.760    20388753.800          50.150
        45.850
 107979902.063 8  84140174.20047  20547892.160    20547889.920          49.450
        45.150
 112266858.936 8  87480722.92147  21363705.700    21363699.860          49.300
        44.000
 122832089.082 7  95713302.63547  23374169.040    23374166.420          46.350
        43.600
 127051504.296 7  99001157.18745  24177097.060    24177095.360          44.600
        33.400
 132545046.825 7 103281844.45446  25222484.220    25222481.880          44.750
        37.000
 130703665.596 6 101846988.91745  24872079.820    24872077.800          39.100
        31.350
 132426977.896 6 103189847.00645  25200015.680    25200013.700          36.800
        35.700
 117022116.102 7  91017235.706 6  21953067.020    21953073.540          45.300
        36.100
 116096053.503 7  90297004.079 7  21710562.460    21710566.120          43.800
        45.500
 114309103.060 8  88907145.177 7  21361402.900    21361404.280          48.800
        45.600
 115417842.783 7  89769468.373 7  21598894.260    21598897.140          46.750
        43.300
 126372924.193 7                  23657303.540                          45.000

 126597140.013 5  98464531.148 6  23649428.000    23649432.920          35.750
        38.550
 19  2 26 15 22 50.0000000  0 17G21G20G10G26G16G27G29G15G31G32R05R10
                                R20R21R11R12R07
 112844191.800 8  87930514.03147  21473536.540    21473530.380          49.550
        43.100
 106411336.821 8  82917901.72147  20249404.360    20249398.300          49.250
        46.350
 107142137.138 8  83487368.14147  20388470.900    20388467.940          50.200
        45.900
 107980425.436 8  84140582.01947  20547991.740    20547989.500          49.400
        45.550
 112264984.436 8  87479262.27547  21363348.980    21363343.120          49.300
        44.050
 122829405.633 7  95711211.64147  23373658.380    23373655.820          46.650
        43.900
 127053654.898 7  99002832.98945  24177506.340    24177504.720          44.100
        32.900
 132545391.571 7 103282113.09645  25222549.800    25222547.480          43.900
        35.200
 130705950.995 6 101848769.74545  24872514.680    24872512.700          37.900
        33.000
 132424466.281 6 103187889.88245  25199537.420    25199536.560          36.350
        31.850
                                  21129146.340                          45.700

 117025539.829 7  91019898.599 6  21953709.200    21953715.820          45.300
        36.700
 116096831.370 7  90297609.087 7  21710707.880    21710711.560          43.400
        45.450
 114308059.348 8  88906333.406 7  21361207.900    21361209.280          48.800
        45.350
 115418275.929 7  89769805.260 7  21598975.240    21598978.160          46.750
        43.650
 126370755.777 7                  23656897.520                          44.250

 126592780.166 6  98461140.154 6  23648613.220    23648618.460          36.250
        38.750
 19  2 26 15 22 51.0000000  0 16G21G20G10G26G16G27G29G15G31G32R10R20
                                R21R11R12R07
 112846193.760 8  87932073.99847  21473917.500    21473911.340          49.850
        43.150
 106412108.021 8  82918502.65647  20249551.120    20249545.080          49.350
        46.200
 107140636.121 8  83486198.52047  20388185.280    20388182.320          50.300
        45.950
 107980949.959 8  84140990.73847  20548091.560    20548089.320          49.400
        45.450
 112263110.977 8  87477802.43747  21362992.480    21362986.680          49.250
        43.900
 122826722.606 7  95709120.97547  23373147.820    23373145.220          46.450
        43.900
 127055806.202 7  99004509.33645  24177915.740    24177914.080          44.400
        33.100
 132545737.258 7 103282382.48045  25222615.540    25222613.280          44.050
        34.400
 130708236.736 6 101850550.84045  24872949.640    24872947.580          38.900
        33.150
 132421955.042 5 103185933.08945  25199059.440    25199057.180          34.400
        31.400
 117028964.343 7  91022562.105 6  21954351.560    21954358.360          45.100
        36.700
 116097609.763 7  90298214.498 7  21710853.580    21710857.120          43.650
        45.250
 114307016.067 8  88905521.969 7  21361012.920    21361014.300          48.750
        45.450
 115418710.361 7  89770143.143 7  21599056.460    21599059.340          46.750
        43.800
 126368588.478 7                  23656491.780                          44.750

 126588420.806 5  98457749.543 6  23647798.560    23647804.020          35.900
        38.350
 19  2 26 15 22 52.0000000  0 17G21G20G10G26G16G27G29G15G31G32R05R10
                                R20R21R11R12R07
 112848196.431 8  87933634.52147  21474298.580    21474292.440          49.650
        43.100
 106412880.317 8  82919104.44347  20249698.100    20249692.020          49.300
        46.350
 107139136.166 8  83485029.72147  20387899.860    20387896.880          50.450
        45.850
 107981475.613 8  84141400.34147  20548191.600    20548189.360          49.450
        45.450
 112261238.628 8  87476343.46247  21362636.180    21362630.260          49.150
        43.400
 122824040.092 7  95707030.70047  23372637.340    23372634.760          46.350
        42.800
 127057958.186 7  99006186.20545  24178325.300    24178323.520          45.000
        33.600
 132546083.935 7 103282652.62045  25222681.520    25222679.220          45.000
        35.950
 130710522.695 6 101852332.16444  24873384.720    24873382.000          38.350
        29.600
 132419443.947 5 103183976.44245  25198581.180    25198580.760          34.850
        32.850
                                  21129650.680                          45.450

 117032389.565 7  91025226.163 6  21954994.060    21955000.900          45.300
        36.450
 116098388.734 7  90298820.354 7  21710999.160    21711002.760          43.650
        44.750
 114305973.369 8  88904710.980 7  21360818.100    21360819.420          48.600
        45.650
 115419146.108 7  89770482.055 7  21599138.000    21599140.840          46.550
        43.250
 126366422.455 7                  23656086.300                          44.900

 126584061.800 6  98454359.203 6  23646984.540    23646989.800          36.000
        38.700
 19  2 26 15 22 53.0000000  0 16G21G20G10G26G16G27G29G15G31G32R10R20
                                R21R11R12R07
 112850199.955 8  87935195.71347  21474679.840    21474673.700          49.600
        42.900
 106413653.895 8  82919707.23147  20249845.300    20249839.200          49.450
        46.550
 107137637.554 8  83483861.96947  20387614.680    20387611.700          50.700
        46.400
 107982002.677 8  84141811.03447  20548291.900    20548289.680          49.550
        45.850
 112259367.615 8  87474885.53447  21362280.140    21362274.200          49.150
        43.350
 122821358.316 7  95704940.99647  23372127.000    23372124.460          45.750
        42.950
 127060111.098 7  99007863.79545  24178735.000    24178733.260          45.000
        34.900
 132546431.729 7 103282923.63346  25222747.680    25222745.480          44.700
        38.250
 130712809.282 6 101854113.94845  24873819.880    24873816.940          39.350
        31.800
 132416933.314 5 103182020.09545  25198102.820    25198102.800          33.600
        31.200
 117035815.853 7  91027891.054 5  21955636.900    21955643.480          44.800
        35.950
 116099168.472 7  90299426.815 7  21711144.960    21711148.600          43.150
        44.800
 114304931.440 8  88903900.588 7  21360623.460    21360624.700          48.250
        45.400
 115419583.463 7  89770822.228 7  21599219.880    21599222.700          46.350
        43.850
 126364257.896 7                  23655681.180                          43.750

 126579703.458 5  98450969.385 6  23646170.320    23646175.600          35.900
        38.500
 19  2 26 15 22 54.0000000  0 16G21G20G10G26G16G27G29G15G31G32R10R20
                                R21R11R12R07
 112852204.486 8  87936757.68747  21475061.280    21475055.160          49.600
        42.700
 106414428.902 8  82920311.13347  20249992.780    20249986.680          49.450
        46.000
 107136140.294 8  83482695.27147  20387329.760    20387326.780          50.500
        46.000
 107982530.887 8  84142222.62247  20548392.420    20548390.220          49.750
        45.750
 112257497.537 8  87473428.33447  21361924.260    21361918.360          49.650
        43.750
 122818676.747 7  95702851.45847  23371616.700    23371614.180          46.950
        42.800
 127062265.379 7  99009542.44145  24179144.980    24179143.240          44.650
        32.000
 132546781.034 7 103283195.81446  25222814.140    25222811.960          45.700
        36.950
 130715095.979 6 101855895.76645  24874255.040    24874252.280          38.900
        31.500
 132414423.249 5 103180064.19644  25197624.460    25197625.720          32.200
        27.100
 117039242.824 7  91030556.480 6  21956279.740    21956286.340          45.000
        36.350
 116099949.165 7  90300034.020 7  21711290.980    21711294.580          42.950
        44.300
 114303889.898 8  88903090.493 7  21360428.880    21360430.040          48.600
        45.750
 115420021.758 7  89771163.129 7  21599301.800    21599304.740          46.950
        43.550
 126362094.229 7                  23655276.100                          43.850

 126575345.843 6  98447580.140 6  23645356.520    23645361.520          37.700
        38.400
 19  2 26 15 22 55.0000000  0 16G21G20G10G26G16G27G29G15G31R05R10R20
                                R21R11R12R07
 112854210.659 8  87938320.93646  21475443.060    21475436.920          48.900
        41.000
 106415205.538 8  82920916.31047  20250140.580    20250134.460          49.100
        45.900
 107134644.235 8  83481529.51847  20387045.060    20387042.080          50.450
        46.100
 107983060.182 8  84142635.06247  20548493.140    20548490.920          50.100
        46.750
 112255628.773 8  87471972.15247  21361568.640    21361562.760          50.000
        44.350
 122815996.051 7  95700762.60247  23371106.580    23371104.040          47.750
        42.750
 127064421.099 7  99011222.20745  24179555.220    24179553.500          44.350
        33.550
 132547132.406 7 103283469.59746  25222881.020    25222878.860          44.400
        36.350
 130717382.547 6 101857677.48745  24874690.160    24874687.560          40.150
        31.950
                                  21130391.640                          44.250

 117042670.077 7  91033222.117 6  21956922.700    21956929.100          46.050
        37.500
 116100731.526 7  90300642.525 7  21711437.340    21711440.820          42.200
        43.150
 114302849.466 8  88902281.260 7  21360234.460    21360235.620          48.450
        45.200
 115420461.293 8  89771504.998 7  21599384.080    21599386.980          48.000
        44.350
 126359932.242 7                  23654871.280                          45.500

 126570988.250 6  98444190.905 6  23644542.480    23644547.440          39.200
        36.900
 19  2 26 15 22 56.0000000  0 15G21G20G10G26G16G27G29G15G31R10R20R21
                                R11R12R07
 112856216.524 8  87939883.95646  21475824.760    21475818.640          48.800
        40.900
 106415982.874 8  82921522.03647  20250288.500    20250282.360          49.150
        45.900
 107133149.638 8  83480364.91047  20386760.660    20386757.680          50.800
        46.800
 107983591.634 8  84143049.19947  20548594.280    20548592.060          50.200
        46.550
 112253761.972 8  87470517.51447  21361213.400    21361207.540          50.000
        43.650
 122813316.661 7  95698674.76847  23370596.700    23370594.200          46.950
        42.450
 127066576.381 7  99012901.64745  24179965.340    24179963.460          42.750
        31.500
 132547483.212 7 103283742.94546  25222947.760    25222945.600          44.600
        36.750
 130719671.021 7 101859460.71545  24875125.660    24875123.060          42.100
        34.050
 117046099.762 7  91035889.657 6  21957566.000    21957572.440          45.850
        38.150
 116101513.275 6  90301250.563 7  21711583.540    21711586.960          41.800
        43.350
 114301809.867 8  88901472.691 7  21360040.220    21360041.360          48.400
        44.600
 115420903.708 7  89771849.111 7  21599466.880    21599469.800          47.550
        44.400
 126357772.279 7                  23654466.860                          43.900

 126566632.049 6  98440802.740 6  23643728.800    23643733.500          39.900
        39.950
 19  2 26 15 22 57.0000000  0 16G21G20G10G26G16G27G29G15G31R05R10R20
                                R21R11R12R07
 112858223.138 8  87941447.56046  21476206.600    21476200.480          49.150
        41.950
 106416761.536 8  82922128.80147  20250436.660    20250430.540          49.350
        45.850
 107131656.419 8  83479201.37247  20386476.500    20386473.540          51.050
        46.450
 107984124.229 8  84143464.22447  20548695.620    20548693.420          49.850
        45.850
 112251895.985 8  87469063.51147  21360858.360    21360852.400          49.550
        43.000
 122810637.295 7  95696586.96446  23370086.840    23370084.340          45.950
        41.200
 127068732.869 7  99014582.02145  24180375.720    24180373.900          46.200
        33.600
 132547835.210 7 103284017.23246  25223014.740    25223012.600          44.600
        37.400
 130721959.859 6 101861244.22844  24875561.240    24875558.680          41.250
        29.800
                                  21130904.900                          44.250

 117049530.280 7  91038557.838 6  21958209.480    21958215.980          45.250
        36.850
 116102295.706 7  90301859.126 7  21711729.940    21711733.260          42.650
        43.700
 114300770.422 7  88900664.243 7  21359846.040    21359847.120          47.700
        44.300
 115421347.013 7  89772193.912 7  21599549.880    21599552.800          46.950
        44.350
 126355612.979 6                  23654062.480                          41.400

 126562276.693 6  98437415.239 6  23642915.140    23642919.940          38.200
        38.400
 19  2 26 15 22 58.0000000  0 15G21G20G10G26G16G27G29G15G31R10R20R21
                                R11R12R07
 112860229.824 8  87943011.20546  21476588.460    21476582.360          49.300
        41.800
 106417540.711 8  82922735.95047  20250584.940    20250578.800          49.600
        46.500
 107130163.818 8  83478038.30247  20386192.480    20386189.500          50.800
        46.600
 107984657.705 8  84143879.91147  20548797.140    20548794.940          49.850
        45.850
 112250030.949 8  87467610.23247  21360503.480    21360497.440          49.250
        43.400
 122807958.348 7  95694499.47847  23369577.040    23369574.500          45.400
        42.000
 127070889.194 7  99016262.26645  24180786.060    24180784.220          46.550
        33.650
 132548187.363 7 103284291.63545  25223081.720    25223079.580          45.000
        35.700
 130724248.732 6 101863027.74645  24875996.760    24875994.260          39.800
        33.450
 117052961.310 7  91041226.409 6  21958853.120    21958859.640          45.000
        36.100
 116103078.065 7  90302467.625 7  21711876.180    21711879.560          42.400
        44.600
 114299731.275 7  88899856.018 7  21359651.880    21359652.940          47.900
        44.400
 115421791.588 7  89772539.684 7  21599633.100    21599636.040          46.600
        44.050
 126353454.806 6                  23653658.420                          40.700

 126557921.150 6  98434027.599 6  23642101.580    23642106.380          37.950
        38.950
 19  2 26 15 22 59.0000000  0 15G21G20G10G26G16G27G29G15G31R10R20R21
                                R11R12R07
 112862237.019 8  87944575.24947  21476970.440    21476964.320          49.050
        42.000
 106418320.658 8  82923343.68847  20250733.360    20250727.220          49.650
        46.400
 107128671.814 8  83476875.68747  20385908.560    20385905.580          51.050
        46.650
 107985191.561 8  84144295.89147  20548898.720    20548896.520          49.700
        45.800
 112248166.158 8  87466157.14047  21360148.620    21360142.600          48.800
        42.650
 122805279.000 7  95692411.67046  23369067.160    23369064.600          44.350
        41.050
 127073046.391 7  99017943.20545  24181196.580    24181194.720          46.800
        34.700
 132548540.606 7 103284566.87346  25223148.960    25223146.760          45.150
        38.250
 130726536.974 6 101864810.79245  24876432.220    24876429.760          40.500
        30.250
 117056392.193 7  91043894.861 6  21959496.820    21959503.300          45.050
        36.450
 116103860.915 6  90303076.499 7  21712022.600    21712025.960          41.950
        44.700
 114298691.967 7  88899047.659 7  21359457.600    21359458.700          47.250
        43.950
 115422236.424 7  89772885.653 7  21599716.300    21599719.300          45.750
        43.650
 126351296.975 6                  23653254.380                          40.300

 126553565.482 6  98430639.869 6  23641288.120    23641292.580          38.300
        38.750
 19  2 26 15 23  0.0000000  0 16G21G20G10G26G16G27G29G15G31R05R10R20
                                R21R11R12R07
 112864243.635 8  87946138.83847  21477352.280    21477346.160          49.700
        43.100
 106419100.579 8  82923951.40447  20250881.760    20250875.640          49.550
        46.400
 107127179.831 8  83475713.09447  20385624.640    20385621.660          50.800
        46.050
 107985725.360 8  84144711.82447  20549000.300    20548998.100          49.650
        45.950
 112246301.080 8  87464703.81847  21359793.720    21359787.700          49.200
        43.650
 122802598.656 7  95690323.08247  23368557.100    23368554.520          45.600
        42.100
 127075203.234 7  99019623.84945  24181607.040    24181605.180          46.350
        34.250
 132548893.579 7 103284841.90646  25223216.100    25223213.940          44.600
        37.550
 130728824.283 6 101866593.09145  24876867.480    24876865.200          39.950
        31.950
                                  21131644.820                          45.100

 117059822.650 7  91046562.988 5  21960140.320    21960146.820          44.050
        35.350
 116104643.089 7  90303684.846 7  21712168.880    21712172.220          42.550
        44.850
 114297651.694 8  88898238.549 7  21359263.240    21359264.260          48.300
        45.100
 115422681.121 7  89773231.518 7  21599799.460    21599802.520          46.600
        44.050
 126349138.725 6                  23652850.360                          41.800

 126549209.216 6  98427251.667 6  23640474.320    23640478.740          36.850
        38.000
 19  2 26 15 23  1.0000000  0 15G21G20G10G26G16G27G29G15G31R10R20R21
                                R11R12R07
 112866249.863 8  87947702.12247  21477734.060    21477727.940          49.650
        42.850
 106419880.431 8  82924559.07447  20251030.180    20251024.020          49.350
        46.200
 107125687.787 8  83474550.46547  20385340.720    20385337.720          50.800
        46.000
 107986259.305 8  84145127.87747  20549101.900    20549099.720          49.650
        46.150
 112244436.254 8  87463250.69747  21359438.840    21359432.900          49.050
        43.350
 122799918.063 7  95688234.29947  23368046.980    23368044.420          45.700
        42.250
 127077359.506 7  99021304.04545  24182017.380    24182015.520          46.300
        34.100
 132549246.378 7 103285116.79746  25223283.220    25223281.040          44.150
        38.150
 130731110.854 6 101868374.84745  24877302.640    24877300.420          39.650
        33.450
 117063252.819 7  91049230.889 5  21960783.760    21960790.360          44.550
        35.800
 116105424.753 7  90304292.796 7  21712314.940    21712318.400          42.600
        44.800
 114296611.136 8  88897429.233 7  21359068.760    21359069.800          48.350
        44.900
 115423126.355 7  89773577.811 7  21599882.840    21599885.860          46.300
        44.300
 126346981.049 7                  23652446.400                          42.100

 126544852.113 6  98423862.800 6  23639660.360    23639664.780          37.300
        38.000
 19  2 26 15 23  2.0000000  0 16G21G20G10G26G16G27G29G15G31R05R10R20
                                R21R11R12R07
 112868255.574 8  87949265.00947  21478115.740    21478109.620          49.500
        42.850
 106420660.242 8  82925166.71847  20251178.560    20251172.420          49.400
        46.200
 107124195.722 8  83473387.81747  20385056.780    20385053.800          50.750
        46.400
 107986793.217 8  84145543.91047  20549203.500    20549201.340          49.650
        45.800
 112242571.282 8  87461797.46547  21359083.940    21359078.020          49.000
        42.850
 122797236.670 7  95686144.89747  23367536.740    23367534.200          45.800
        42.550
 127079515.406 7  99022983.95345  24182427.640    24182425.800          45.850
        34.400
 132549598.944 7 103285391.51546  25223350.320    25223348.140          45.250
        36.950
 130733396.519 6 101870155.89845  24877737.520    24877735.420          39.450
        30.900
                                  21132151.240                          44.900

 117066682.565 7  91051898.465 5  21961427.260    21961433.760          44.750
        35.750
 116106205.791 7  90304900.268 7  21712460.960    21712464.460          43.250
        44.700
 114295569.817 8  88896619.321 7  21358874.160    21358875.180          48.550
        44.850
 115423571.576 7  89773924.094 7  21599966.140    21599969.140          46.150
        44.200
 126344823.239 7                  23652042.360                          42.400

 126540494.279 6  98420473.374 6  23638846.320    23638850.700          37.000
        37.850
 19  2 26 15 23  3.0000000  0 16G21G20G10G26G16G27G29G15G31G32R10R20
                                R21R11R12R07
 112870261.258 8  87950827.88047  21478497.400    21478491.280          49.450
        42.550
 106421440.415 8  82925774.64547  20251327.020    20251320.880          49.300
        46.300
 107122704.033 8  83472225.47047  20384772.920    20384769.940          50.600
        46.450
 107987327.554 8  84145960.27747  20549305.180    20549303.020          49.600
        45.750
 112240706.685 8  87460344.53347  21358729.100    21358723.160          49.050
        43.550
 122794555.057 7  95684055.32647  23367026.440    23367023.900          45.300
        42.550
 127081671.310 7  99024663.88245  24182837.920    24182836.040          45.700
        32.900
 132549951.809 7 103285666.48746  25223417.440    25223415.320          45.500
        36.600
 130735681.758 6 101871936.61845  24878172.360    24878170.400          39.400
        34.550
                                  25193327.020    25193327.600          37.100
        32.850
 117070112.331 7  91054566.061 6  21962070.620    21962077.320          44.600
        36.200
 116106986.671 7  90305507.619 7  21712606.960    21712610.520          43.150
        44.850
 114294528.280 8  88895809.239 7  21358679.540    21358680.520          48.300
        44.900
 115424017.376 7  89774270.834 7  21600049.520    21600052.560          46.000
        43.850
 126342665.926 7                  23651638.520                          42.300

 126536136.148 6  98417083.714 6  23638032.120    23638036.620          36.800
        38.150
 19  2 26 15 23  4.0000000  0 16G21G20G10G26G16G27G29G15G31G32R10R20
                                R21R11R12R07
 112872267.066 8  87952390.85147  21478879.100    21478872.980          49.600
        43.100
 106422221.140 8  82926383.00447  20251475.580    20251469.480          49.350
        46.800
 107121212.906 8  83471063.55547  20384489.180    20384486.180          50.450
        46.550
 107987862.485 8  84146377.10647  20549406.980    20549404.820          49.700
        45.650
 112238842.595 8  87458891.99547  21358374.380    21358368.440          48.900
        43.400
 122791873.339 7  95681965.67347  23366516.120    23366513.580          45.050
        42.750
 127083827.425 7  99026343.97045  24183248.220    24183246.400          46.150
        34.650
 132550305.081 7 103285941.77946  25223484.660    25223482.600          46.050
        36.400
 130737966.731 6 101873717.13545  24878607.200    24878605.520          39.300
        31.650
                                  25192846.980                          36.200

 117073542.282 7  91057233.797 5  21962714.080    21962720.820          44.650
        35.950
 116107767.572 7  90306114.991 7  21712752.960    21712756.560          43.050
        45.150
 114293486.693 8  88894999.116 7  21358484.860    21358485.840          48.200
        45.100
 115424463.912 7  89774618.150 7  21600133.120    21600136.120          46.150
        44.200
 126340509.211 7                  23651234.840                          42.850

 126531777.854 6  98413693.940 6  23637217.900    23637222.480          37.100
        38.500
 19  2 26 15 23  5.0000000  0 17G21G20G10G26G16G27G29G15G31G32R05R10
                                R20R21R11R12R07
 112874273.299 8  87953954.15046  21479260.880    21479254.760          49.400
        41.650
 106423002.540 8  82926991.88747  20251624.280    20251618.160          49.350
        46.100
 107119722.292 8  83469902.03747  20384205.520    20384202.520          50.650
        46.100
 107988397.769 8  84146794.21047  20549508.840    20549506.680          49.600
        45.600
 112236978.804 8  87457439.69547  21358019.720    21358013.780          49.150
        44.050
 122789191.285 7  95679875.76947  23366005.740    23366003.200          46.350
        42.850
 127085984.163 7  99028024.54845  24183658.640    24183656.840          45.150
        35.200
 132550659.258 7 103286217.75445  25223552.060    25223550.040          45.450
        34.850
 130740250.935 6 101875497.05944  24879041.880    24879039.800          41.300
        26.850
                                  25192369.100    25192373.500          35.450
        33.400
                                  21132900.140                          44.950

 117076972.049 7  91059901.387 6  21963357.500    21963364.200          45.850
        36.950
 116108548.872 7  90306722.675 7  21712899.040    21712902.640          43.000
        43.950
 114292444.969 8  88894188.890 7  21358290.200    21358291.180          48.450
        44.700
 115424910.749 7  89774965.692 7  21600216.760    21600219.720          46.700
        43.900
 126338352.916 6                  23650831.200                          41.950

 126527419.334 6  98410303.991 5  23636403.760    23636408.260          37.900
        35.950
 19  2 26 15 23  6.0000000  0 16G21G20G10G26G16G27G29G15G31G32R10R20
                                R21R11R12R07
 112876279.388 8  87955517.34246  21479642.620    21479636.500          49.100
        41.800
 106423784.381 8  82927601.12547  20251773.060    20251766.940          49.250
        45.700
 107118232.302 8  83468741.01347  20383921.980    20383919.000          50.750
        46.250
 107988933.874 8  84147211.96547  20549610.860    20549608.700          49.900
        45.600
 112235115.758 8  87455987.98147  21357665.200    21357659.280          49.650
        43.500
 122786509.372 7  95677785.96947  23365495.380    23365492.860          46.300
        42.700
 127088140.711 7  99029704.96645  24184069.060    24184067.200          45.300
        34.550
 132551013.421 7 103286493.71946  25223619.460    25223617.420          44.750
        36.300
 130742535.315 7 101877277.08744  24879476.600    24879474.440          43.000
        29.900
                                  25191889.520    25191890.360          34.850
        35.300
 117080402.394 7  91062569.431 6  21964001.040    21964007.640          46.350
        37.300
 116109329.883 7  90307330.136 7  21713045.040    21713048.660          42.900
        43.350
 114291403.256 8  88893378.677 7  21358095.500    21358096.520          48.350
        44.250
 115425358.639 7  89775314.051 7  21600300.560    21600303.500          47.300
        44.200
 126336197.430 6                  23650427.780                          41.100

 126523060.783 6  98406914.017 5  23635589.680    23635594.020          38.500
        35.800
 19  2 26 15 23  7.0000000  0 17G21G20G10G26G16G27G29G15G31G32R05R10
                                R20R21R11R12R07
 112878285.513 8  87957080.56346  21480024.360    21480018.240          49.150
        41.850
 106424566.756 8  82928210.77847  20251921.940    20251915.820          49.200
        45.050
 107116742.952 8  83467580.48447  20383638.560    20383635.580          50.800
        46.100
 107989470.673 8  84147630.26047  20549713.020    20549710.840          50.000
        45.950
 112233253.284 8  87454536.71547  21357310.760    21357304.860          49.600
        43.750
 122783827.370 7  95675696.10247  23364985.000    23364982.520          46.050
        43.050
 127090297.414 7  99031385.50345  24184479.500    24184477.660          45.150
        31.800
 132551367.899 7 103286769.94046  25223686.920    25223684.840          44.600
        36.000
 130744819.597 7 101879057.01945  24879911.280    24879909.080          42.700
        32.400


                                  21133401.460                          44.750

 117083833.085 7  91065237.740 6  21964644.660    21964651.140          45.750
        37.500
 116110110.824 7  90307937.537 7  21713191.100    21713194.700          42.600
        43.350
 114290361.441 8  88892568.381 7  21357900.800    21357901.880          48.350
        44.700
 115425807.365 7  89775663.060 7  21600384.520    21600387.460          47.150
        44.200
 126334042.569 6                  23650024.340                          41.200

 126518702.291 6  98403524.085 5  23634775.480    23634779.900          38.650
        34.650
 19  2 26 15 23  8.0000000  0 15G21G20G10G26G16G27G29G15G31R10R20R21
                                R11R12R07
 112880292.057 8  87958644.10346  21480406.200    21480400.060          48.950
        40.950
 106425349.977 8  82928821.08247  20252070.980    20252064.860          49.300
        45.700
 107115254.502 8  83466420.65547  20383355.320    20383352.340          50.750
        46.600
 107990008.505 8  84148049.35447  20549815.360    20549813.180          49.850
        46.100
 112231391.816 8  87453086.22947  21356956.500    21356950.620          49.500
        43.700
 122781145.794 7  95673606.57047  23364474.720    23364472.220          46.150
        42.450
 127092454.522 7  99033066.35945  24184890.000    24184888.160          45.050
        33.550
 132551722.998 7 103287046.63646  25223754.500    25223752.320          44.200
        36.850
 130747104.045 7 101880837.10245  24880346.000    24880343.760          42.850
        32.750
 117087264.454 7  91067906.584 6  21965288.400    21965294.780          46.300
        36.750
 116110892.047 7  90308545.156 7  21713337.220    21713340.760          42.800
        43.050
 114289320.065 8  88891758.422 7  21357706.180    21357707.300          48.150
        44.600
 115426257.385 7  89776013.069 7  21600468.740    21600471.680          46.900
        44.050
 126331888.886 6                  23649621.120                          41.500

 126514344.042 6  98400134.340 5  23633961.380    23633965.760          37.800
        35.300
 19  2 26 15 23  9.0000000  0 15G21G20G10G26G16G27G29G15G31R10R20R21
                                R11R12R07
 112882299.131 8  87960208.05346  21480788.140    21480782.000          49.050
        41.250
 106426134.099 8  82929432.08647  20252220.200    20252214.060          49.550
        46.000
 107113766.854 8  83465261.44747  20383072.220    20383069.260          50.600
        46.550
 107990547.196 8  84148469.11547  20549917.860    20549915.680          49.750
        45.700
 112229531.211 8  87451636.40847  21356602.440    21356596.540          49.600
        43.350
 122778464.486 7  95671517.24547  23363964.480    23363961.960          46.000
        42.550
 127094612.074 7  99034747.56245  24185300.560    24185298.680          45.450
        34.250
 132552078.882 7 103287323.95746  25223822.220    25223820.000          44.300
        36.100
 130749388.351 7 101882617.06845  24880780.700    24880778.500          43.750
        30.650
 117090696.193 7  91070575.713 6  21965932.200    21965938.520          46.800
        36.700
 116111673.713 7  90309153.115 7  21713483.340    21713486.820          42.800
        43.450
 114288279.018 8  88890948.711 7  21357511.660    21357512.760          48.100
        44.600
 115426708.403 7  89776363.849 7  21600553.160    21600556.060          47.050
        44.050
 126329736.154 6                  23649218.100                          41.400

 126509985.809 6  98396744.618 6  23633147.240    23633151.640          39.400
        36.050
 19  2 26 15 23 10.0000000  0 16G21G20G10G26G16G27G29G15G31R05R10R20
                                R21R11R12R07
 112884306.465 8  87961772.20847  21481170.120    21481163.980          49.700
        42.600
 106426919.139 8  82930043.80547  20252369.580    20252363.420          49.200
        45.850
 107112280.289 8  83464103.08447  20382789.340    20382786.360          50.200
        45.200
 107991086.980 8  84148889.72647  20550020.580    20550018.380          49.400
        45.000
 112227671.461 8  87450187.25147  21356248.540    21356242.660          49.400
        44.200
 122775783.290 7  95669428.00847  23363454.260    23363451.760          46.750
        43.600
 127096770.020 7  99036429.09545  24185711.220    24185709.440          45.200
        33.950
 132552435.244 7 103287601.65246  25223890.040    25223887.820          44.800
        36.950
 130751672.828 6 101884397.16845  24881215.420    24881213.080          41.500
        30.300
                                  21134167.240                          45.400

 117094128.614 7  91073245.365 5  21966576.140    21966582.400          44.950
        35.500
 116112455.502 7  90309761.171 7  21713629.560    21713632.980          43.050
        44.100
 114287238.065 8  88890139.076 7  21357317.100    21357318.220          48.650
        45.800
 115427160.504 7  89776715.475 7  21600637.780    21600640.660          46.800
        43.350
 126327584.180 7                  23648815.200                          42.900

 126505627.908 6  98393355.133 5  23632333.020    23632337.560          37.750
        35.050
 19  2 26 15 23 11.0000000  0 15G21G20G10G26G16G27G29G15G31R10R20R21
                                R11R12R07
 112886313.825 8  87963336.38046  21481552.100    21481545.960          49.600
        41.900
 106427704.456 8  82930655.73547  20252519.020    20252512.860          49.300
        46.550
 107110794.052 8  83462944.97547  20382506.520    20382503.540          50.600
        46.200
 107991627.122 8  84149310.61447  20550123.360    20550121.160          49.350
        45.550
 112225812.054 8  87448738.35547  21355894.720    21355888.840          49.400
        43.350
 122773101.956 7  95667338.65247  23362944.020    23362941.520          46.350
        43.600
 127098928.269 7  99038110.85945  24186121.920    24186120.000          45.400
        31.700
 132552792.137 7 103287879.75046  25223957.940    25223955.700          45.350
        36.350
 130753957.182 6 101886177.18845  24881650.120    24881647.740          40.400
        33.950
 117097561.238 7  91075915.188 5  21967220.120    21967226.340          45.100
        35.700
 116113237.283 7  90310369.221 7  21713775.740    21713779.140          42.900
        43.950
 114286196.951 8  88889329.329 7  21357122.540    21357123.660          48.450
        44.850
 115427613.249 7  89777067.605 7  21600722.480    21600725.360          46.400
        42.900
 126325432.871 6                  23648412.480                          41.700

 126501270.015 6  98389965.648 6  23631518.940    23631523.460          38.050
        37.150
 19  2 26 15 23 12.0000000  0 16G21G20G10G26G16G27G29G15G31R05R10R20
                                R21R11R12R07
 112888321.346 8  87964900.67847  21481934.120    21481927.980          49.600
        42.600
 106428490.518 8  82931268.24847  20252668.620    20252662.440          49.650
        46.750
 107109308.679 8  83461787.53847  20382223.860    20382220.880          50.650
        46.700
 107992168.532 8  84149732.48847  20550226.380    20550224.180          49.450
        45.550
 112223953.999 8  87447290.51947  21355541.140    21355535.260          48.950
        42.950
 122770421.362 7  95665249.87446  23362433.960    23362431.420          44.900
        40.950
 127101086.147 7  99039792.32445  24186532.540    24186530.640          46.650
        33.450
 132553148.970 7 103288157.79246  25224025.840    25224023.560          43.350
        38.800
 130756241.714 6 101887957.36145  24882084.840    24882082.480          41.400
        31.650
                                  21134669.840                          45.800

 117100994.696 7  91078585.653 5  21967864.220    21967870.500          43.950
        34.200
 116114018.965 7  90310977.187 7  21713921.900    21713925.320          43.100
        44.750
 114285156.442 7  88888520.040 7  21356928.080    21356929.200          47.900
        44.850
 115428067.666 7  89777421.041 7  21600807.560    21600810.420          45.900
        42.750
 126323282.999 7                  23648009.920                          42.200

 126496911.954 6  98386576.033 6  23630704.840    23630709.260          36.700
        36.000
 19  2 26 15 23 13.0000000  0 16G21G20G10G26G16G27G29G15G31G32R10R20
                                R21R11R12R07
 112890329.655 8  87966465.58047  21482316.300    21482310.140          49.650
        42.750
 106429277.667 8  82931881.59747  20252818.400    20252812.240          49.550
        46.100
 107107824.232 8  83460630.81847  20381941.380    20381938.400          50.650
        46.800
 107992710.292 8  84150154.62047  20550329.480    20550327.280          49.300
        45.700
 112222095.924 8  87445842.66047  21355187.580    21355181.680          48.950
        42.850
 122767740.009 7  95663160.49247  23361923.700    23361921.160          45.450
        42.850
 127103245.738 7  99041475.11845  24186943.500    24186941.480          45.900
        33.100
 132553507.542 7 103288437.19446  25224094.080    25224091.780          44.050
        38.550
 130758525.807 6 101889737.15145  24882519.500    24882517.340          40.900
        31.800


 117104428.010 7  91081255.992 5  21968508.360    21968514.560          44.600
        35.000
 116114801.535 7  90311585.847 7  21714068.320    21714071.660          43.150
        44.650
 114284115.526 8  88887710.426 7  21356733.580    21356734.700          48.000
        44.750
 115428521.963 7  89777774.377 7  21600892.600    21600895.440          45.900
        42.900
 126321133.023 6                  23647607.400                          41.900

 126492554.393 6  98383186.806 6  23629890.740    23629895.180          36.800
        36.600
 19  2 26 15 23 14.0000000  0 16G21G20G10G26G16G27G29G15G31G32R10R20
                                R21R11R12R07
 112892337.699 8  87968030.28947  21482698.420    21482692.260          49.650
        42.700
 106430065.000 8  82932495.09747  20252968.240    20252962.060          49.550
        46.200
 107106340.044 8  83459474.30847  20381658.940    20381655.980          50.700
        46.900
 107993252.725 8  84150577.28947  20550432.700    20550430.500          49.300
        45.350
 112220238.658 8  87444395.43547  21354834.140    21354828.180          48.800
        42.750
 122765058.935 7  95661071.33446  23361413.520    23361410.980          45.450
        41.400
 127105404.603 7  99043157.35546  24187354.320    24187352.260          45.900
        36.050
 132553865.757 7 103288716.32546  25224162.220    25224159.880          44.250
        38.700
 130760809.593 6 101891516.72345  24882954.080    24882952.020          40.650
        35.100


 117107861.655 7  91083926.603 5  21969152.480    21969158.780          44.000
        35.000
 116115583.647 7  90312194.156 7  21714214.540    21714217.920          43.000
        44.650
 114283074.765 8  88886900.944 7  21356539.040    21356540.220          48.000
        45.150
 115428977.452 7  89778128.648 7  21600977.780    21600980.720          45.850
        43.000
 126318984.084 6                  23647205.120                          41.750

 126488196.171 6  98379797.074 5  23629076.500    23629081.100          36.400
        35.950
 19  2 26 15 23 15.0000000  0 17G21G20G10G26G16G27G29G15G31G32R05R10
                                R20R21R11R12R07
 112894346.231 8  87969595.37946  21483080.620    21483074.480          48.600
        41.600
 106430852.977 8  82933109.10347  20253118.200    20253112.020          49.400
        46.550
 107104856.301 8  83458318.14447  20381376.600    20381373.620          51.050
        46.850
 107993795.497 8  84151000.22047  20550536.000    20550533.780          49.950
        46.150
 112218381.780 8  87442948.51447  21354480.800    21354474.820          48.850
        42.950
 122762377.734 7  95658982.08946  23360903.320    23360900.780          44.650
        40.100
 127107564.079 7  99044840.05945  24187765.260    24187763.280          46.450
        35.300
 132554224.970 7 103288996.23946  25224230.580    25224228.320          44.350
        37.850
 130763092.659 6 101893295.73145  24883388.520    24883386.540          40.600
        33.700
 132361644.573 6 103138962.00446  25187584.600    25187589.140          38.300
        37.600
                                  21135434.260                          44.650

 117111295.028 7  91086596.997 6  21969796.580    21969802.880          45.800
        36.700
 116116366.236 7  90312802.832 7  21714360.920    21714364.280          42.000
        44.100
 114282034.018 7  88886091.463 7  21356344.580    21356345.720          47.100
        44.100
 115429433.389 7  89778483.260 7  21601063.100    21601066.100          45.950
        43.900
 126316835.815 6                  23646803.020                          40.050

 126483837.694 6  98376407.150 6  23628262.260    23628266.840          40.150
        37.850
 19  2 26 15 23 16.0000000  0 16G21G20G10G26G16G27G29G15G31G32R10R20
                                R21R11R12R07
 112896354.627 8  87971160.35946  21483462.800    21483456.660          48.600
        41.550
 106431641.579 8  82933723.59447  20253268.260    20253262.100          49.450
        46.650
 107103373.485 8  83457162.69947  20381094.420    20381091.460          51.100
        47.000
 107994339.277 8  84151423.94347  20550639.480    20550637.260          49.950
        45.650
 112216525.613 8  87441502.14347  21354127.600    21354121.600          49.050
        42.950
 122759696.471 7  95656892.80546  23360393.100    23360390.520          44.750
        40.850
 127109723.609 7  99046522.78045  24188176.200    24188174.160          46.150
        35.200
 132554584.220 7 103289276.18746  25224298.940    25224296.660          44.900
        38.250
 130765376.098 6 101895075.05345  24883823.040    24883820.980          40.350
        32.100
 132359129.647 6 103137002.36146  25187105.780    25187108.600          38.950
        39.000
 117114729.264 7  91089268.062 6  21970440.880    21970447.140          46.250
        36.350
 116117148.506 7  90313411.254 7  21714507.220    21714510.600          42.000
        44.050
 114280993.132 7  88885281.873 7  21356150.080    21356151.240          47.100
        44.250
 115429890.321 7  89778838.638 7  21601148.600    21601151.640          46.100
        43.550
 126314688.077 6                  23646400.880                          39.800

 126479479.678 6  98373017.573 6  23627448.140    23627452.680          40.100
        38.650
 19  2 26 15 23 17.0000000  0 16G21G20G10G26G16G27G29G15G31G32R10R20
                                R21R11R12R07
 112898363.601 8  87972725.78746  21483845.100    21483838.940          48.900
        41.550
 106432431.140 8  82934338.83747  20253418.500    20253412.360          49.600
        46.700
 107101891.607 8  83456007.98747  20380812.440    20380809.460          51.000
        46.750
 107994883.914 8  84151848.33147  20550743.120    20550740.920          50.000
        45.900
 112214670.186 8  87440056.35047  21353774.520    21353768.500          49.150
        42.700
 122757015.288 7  95654803.57246  23359882.900    23359880.280          45.000
        40.250
 127111883.915 7  99048206.11045  24188587.280    24188585.200          46.550
        34.300
 132554944.400 7 103289556.84046  25224367.500    25224365.140          44.400
        36.450
 130767659.618 6 101896854.44845  24884257.560    24884255.480          41.000
        35.200
 132356614.850 6 103135042.83246  25186628.320    25186628.660          38.750
        38.050
 117118163.943 7  91091939.475 6  21971085.260    21971091.500          45.700
        36.250
 116117931.293 7  90314020.078 7  21714653.660    21714656.980          42.000
        44.100
 114279952.449 7  88884472.440 7  21355955.600    21355956.740          47.050
        44.450
 115430348.129 7  89779194.703 7  21601234.300    21601237.320          45.750
        43.650
 126312541.194 6                  23645998.960                          40.900

 126475121.909 6  98369628.186 6  23626634.080    23626638.600          38.700
        38.550
 19  2 26 15 23 18.0000000  0 16G21G20G10G26G16G27G29G15G31G32R10R20
                                R21R11R12R07
 112900372.661 8  87974291.29346  21484227.400    21484221.260          48.700
        41.900
 106433221.164 8  82934954.44347  20253568.840    20253562.700          49.350
        46.400
 107100410.165 8  83454853.61647  20380530.540    20380527.560          51.000
        47.000
 107995429.074 8  84152273.13147  20550846.860    20550844.660          50.000
        46.250
 112212815.284 8  87438610.97047  21353421.580    21353415.500          49.250
        42.750
 122754334.064 7  95652714.30946  23359372.680    23359370.040          45.000
        39.550
 127114044.239 7  99049889.46345  24188998.380    24188996.280          46.350
        32.950
 132555304.932 7 103289837.77246  25224436.080    25224433.760          43.900
        37.300
 130769942.658 6 101898633.43045  24884692.000    24884690.000          41.900
        34.350
 132354099.551 6 103133082.85045  25186149.180    25186150.960          37.950
        33.550
 117121598.694 7  91094610.947 5  21971729.580    21971735.780          45.600
        35.800
 116118714.063 7  90314628.897 7  21714800.020    21714803.380          42.000
        44.050
 114278911.712 7  88883662.972 7  21355761.120    21355762.240          47.100
        44.050
 115430806.671 7  89779551.343 7  21601320.080    21601323.120          46.150
        43.950
 126310394.960 6                  23645597.120                          40.800

 126470763.836 6  98366238.581 6  23625819.920    23625824.460          38.000
        37.600
 19  2 26 15 23 19.0000000  0 16G21G20G10G26G16G27G29G15G31G32R10R20
                                R21R11R12R07
 112902381.927 8  87975856.96246  21484609.760    21484603.620          48.600
        41.500
 106434011.810 8  82935570.53447  20253719.280    20253713.140          49.400
        46.200
 107098929.325 8  83453699.72147  20380248.720    20380245.740          51.000
        46.950
 107995974.844 8  84152698.41047  20550950.740    20550948.500          50.100
        46.250
 112210960.937 8  87437166.03047  21353068.720    21353062.640          49.200
        42.950
 122751652.798 7  95650625.01746  23358862.460    23358859.800          45.050
        40.900
 127116204.873 7  99051573.07245  24189409.580    24189407.460          46.250
        33.550
 132555666.040 7 103290119.16546  25224504.780    25224502.500          43.350
        36.300
 130772225.406 7 101900412.17245  24885126.400    24885124.340          42.550
        35.850
 132351583.950 6 103131122.63546  25185670.960    25185671.420          39.800
        38.200
 117125033.631 7  91097282.561 6  21972373.960    21972380.200          45.800
        36.550
 116119496.962 7  90315237.824 7  21714946.440    21714949.820          42.050
        43.750
 114277870.965 7  88882853.510 7  21355566.620    21355567.720          47.100
        43.800
 115431265.949 7  89779908.557 7  21601406.060    21601409.060          46.450
        43.800
 126308249.394 6                  23645195.420                          39.950

 126466405.614 6  98362848.851 6  23625005.660    23625010.320          38.750
        37.750
 19  2 26 15 23 20.0000000  0 16G21G20G10G26G16G27G29G15G31G32R10R20
                                R21R11R12R07
 112904391.092 8  87977422.55246  21484992.080    21484985.960          48.350
        40.700
 106434802.751 8  82936186.85147  20253869.800    20253863.660          49.300
        46.050
 107097448.779 8  83452546.05747  20379967.000    20379964.000          51.100
        46.900
 107996520.829 8  84153123.85947  20551054.640    20551052.400          50.200
        46.350
 112209106.667 8  87435721.14847  21352715.860    21352709.760          49.150
        43.300
 122748970.946 7  95648535.26646  23358352.100    23358349.420          45.050
        40.950
 127118365.631 7  99053256.78845  24189820.760    24189818.620          45.900
        32.800
 132556027.400 7 103290400.74446  25224573.560    25224571.260          43.900
        37.200
 130774507.560 7 101902190.47845  24885560.680    24885558.460          42.950
        34.850
 132349067.810 6 103129162.01546  25185192.440    25185192.940          41.150
        36.350
 117128468.374 7  91099954.026 6  21973018.340    21973024.560          45.950
        37.300
 116120279.673 6  90315846.606 7  21715092.960    21715096.220          41.300
        43.950
 114276829.720 7  88882043.657 7  21355372.020    21355373.120          46.800
        44.050
 115431725.443 7  89780265.947 7  21601492.000    21601495.020          46.800
        44.150
 126306103.977 6                  23644793.680                          39.450

 126462047.052 6  98359458.858 6  23624191.380    23624196.160          39.800
        38.350
 19  2 26 15 23 21.0000000  0 16G21G20G10G26G16G27G29G15G31G32R10R20
                                R21R11R12R07
 112906400.150 8  87978988.05046  21485374.400    21485368.280          48.450
        40.150
 106435593.731 8  82936803.20547  20254020.320    20254014.180          49.600
        46.300
 107095968.089 8  83451392.27747  20379685.220    20379682.240          51.150
        47.000
 107997067.492 8  84153549.83047  20551158.660    20551156.440          50.000
        46.150
 112207253.720 8  87434277.29847  21352363.240    21352357.140          48.700
        42.600
 122746290.237 7  95646446.40146  23357841.980    23357839.300          44.800
        41.600
 127120524.854 7  99054939.28945  24190231.660    24190229.500          45.650
        33.600
 132556388.245 6 103290681.90846  25224642.220    25224639.940          40.900
        38.150
 130776788.755 7 101903968.02445  24885994.760    24885992.460          43.200
        32.550
 132346549.899 6 103127200.00946  25184713.300    25184713.780          41.150
        40.250
 117131903.055 7  91102625.447 6  21973662.700    21973668.900          46.000
        36.050
 116121061.946 7  90316455.045 7  21715239.260    21715242.560          42.000
        44.650
 114275789.353 7  88881234.483 7  21355177.560    21355178.720          46.700
        43.800
 115432186.676 7  89780624.686 7  21601578.360    21601581.340          46.600
        43.700
 126303960.553 6                  23644392.480                          38.850

 126457687.042 6  98356067.747 6  23623376.860    23623381.680          41.550
        40.000
 19  2 26 15 23 22.0000000  0 16G21G20G10G26G16G27G29G15G31G32R10R20
                                R21R11R12R07
 112908409.526 8  87980553.78546  21485756.780    21485750.640          48.250
        41.850
 106436386.038 8  82937420.58347  20254171.100    20254164.980          49.550
        46.150
 107094489.204 8  83450239.89547  20379403.800    20379400.820          51.350
        47.100
 107997615.035 8  84153976.48147  20551262.860    20551260.640          50.050
        46.350
 112205400.571 8  87432833.27547  21352010.620    21352004.500          48.700
        42.000
 122743608.053 7  95644356.38046  23357331.580    23357328.780          44.800
        41.550
 127122686.523 7  99056623.70045  24190643.020    24190640.900          45.750
        31.850
 132556750.532 6 103290964.22446  25224711.200    25224708.900          41.700
        40.650
 130779071.057 7 101905746.42245  24886429.080    24886426.740          44.400
        33.700
 132344034.001 6 103125239.58345  25184234.440    25184234.540          41.450
        35.100
 117135338.848 7  91105297.718 6  21974307.240    21974313.400          46.750
        36.200
 116121844.711 6  90317063.862 7  21715385.640    21715388.940          41.700
        44.350
 114274747.867 7  88880424.428 7  21354982.900    21354984.100          46.900
        43.950
 115432647.714 7  89780983.261 7  21601664.660    21601667.640          46.750
        43.600
 126301816.141 6                  23643991.020                          38.900

 126453329.128 6  98352678.263 6  23622562.780    23622567.600          41.400
        39.550
 19  2 26 15 23 23.0000000  0 16G21G20G10G26G16G27G29G15G31G32R10R20
                                R21R11R12R07
 112910418.975 8  87982119.57746  21486139.160    21486133.040          48.850
        41.900
 106437178.647 8  82938038.18847  20254321.920    20254315.800          49.600
        46.550
 107093010.515 8  83449087.65847  20379122.420    20379119.440          51.050
        47.000
 107998163.409 8  84154403.77947  20551367.220    20551365.000          49.750
        45.400
 112203548.678 8  87431390.23047  21351658.200    21351652.060          48.850
        42.400
 122740926.816 7  95642267.09046  23356821.340    23356818.600          44.950
        41.750
 127124847.152 7  99058307.28745  24191054.200    24191052.020          46.050
        34.100
 132557112.657 7 103291246.39146  25224780.120    25224777.840          42.650
        40.700
 130781352.830 7 101907524.41345  24886863.280    24886860.840          43.750
        32.700
 132341516.836 6 103123278.15446  25183755.540    25183755.800          39.750
        37.700
 117138774.835 7  91107970.132 6  21974951.800    21974957.960          46.150
        36.300
 116122627.238 7  90317672.484 7  21715531.940    21715535.280          42.300
        45.600
 114273707.106 7  88879614.929 7  21354788.400    21354789.600          47.300
        44.550
 115433110.363 7  89781343.080 7  21601751.260    21601754.220          46.750
        43.250
 126299673.483 6                  23643589.840                          39.500

 126448970.181 6  98349287.968 6  23621748.480    23621753.300          41.400
        37.450
 19  2 26 15 23 24.0000000  0 16G21G20G10G26G16G27G29G15G31G32R10R20
                                R21R11R12R07
 112912428.869 8  87983685.70747  21486521.640    21486515.500          48.850
        42.200
 106437972.194 8  82938656.52247  20254472.920    20254466.820          49.600
        46.600
 107091532.839 8  83447936.21147  20378841.220    20378838.240          51.050
        46.700
 107998712.402 8  84154831.55447  20551471.700    20551469.460          49.850
        45.050
 112201696.996 8  87429947.34047  21351305.820    21351299.700          48.900
        42.250
 122738245.001 7  95640177.33947  23356310.980    23356308.260          45.650
        42.150
 127127009.152 7  99059991.96545  24191465.620    24191463.480          45.550
        34.100
 132557475.956 6 103291529.46146  25224849.280    25224846.920          40.950
        39.850
 130783634.732 7 101909302.51445  24887297.520    24887295.040          43.900
        32.800
 132339000.208 6 103121317.12445  25183276.480    25183277.740          40.700
        35.000
 117142211.175 7  91110642.823 6  21975596.420    21975602.640          46.300
        36.050
 116123410.300 7  90318281.520 7  21715678.340    21715681.720          42.100
        44.850
 114272665.936 7  88878805.117 7  21354593.820    21354595.040          47.650
        44.100
 115433573.306 7  89781703.139 7  21601837.900    21601840.840          46.750
        43.400
 126297530.913 6                  23643188.700                          39.900

 126444611.961 6  98345898.232 6  23620934.360    23620939.180          40.100
        37.500
 19  2 26 15 23 25.0000000  0 16G21G20G10G26G16G27G29G15G31G32R10R20
                                R21R11R12R07
 112914439.230 8  87985252.21946  21486904.220    21486898.080          48.100
        40.900
 106438766.508 8  82939275.46947  20254624.100    20254617.960          49.450
        46.550
 107090055.848 8  83446785.30547  20378560.160    20378557.180          51.400
        47.700
 107999262.562 8  84155260.24647  20551576.400    20551574.160          50.000
        45.900
 112199846.800 8  87428505.62547  21350953.740    21350947.620          48.600
        42.400
 122735564.320 7  95638088.49346  23355800.840    23355798.100          44.150
        38.950
 127129170.830 7  99061676.37845  24191877.000    24191874.780          45.650
        34.850
 132557839.573 6 103291812.78446  25224918.500    25224916.140          40.950
        39.800
 130785916.526 7 101911080.55446  24887731.740    24887729.320          44.550
        36.000
 132336482.991 6 103119355.66845  25182797.640    25182798.820          41.100
        34.550
 117145648.116 7  91113315.994 6  21976241.180    21976247.400          46.850
        36.850
 116124193.621 6  90318890.765 7  21715824.800    21715828.180          41.500
        44.600
 114271625.770 7  88877996.095 7  21354399.420    21354400.660          46.350
        44.250
 115434038.077 7  89782064.625 7  21601924.860    21601927.840          45.650
        43.300
 126295390.296 6                  23642787.920                          38.600

 126440253.415 6  98342508.253 6  23620120.160    23620125.000          41.400
        40.550
 19  2 26 15 23 26.0000000  0 17G21G20G10G26G16G27G29G15G31G32R05R10
                                R20R21R11R12R07
 112916449.360 8  87986818.55647  21487286.720    21487280.600          48.800
        42.250
 106439561.314 8  82939894.80047  20254775.340    20254769.220          49.650
        46.800
 107088579.648 8  83445635.02247  20378279.240    20378276.280          51.050
        47.400
 107999813.374 8  84155689.44647  20551681.200    20551678.960          49.650
        45.050
 112197996.836 8  87427064.10047  21350601.720    21350595.580          48.100
        42.400
 122732882.981 7  95635999.14846  23355290.600    23355287.880          44.250
        39.750
 127131332.806 7  99063361.03145  24192288.400    24192286.200          46.400
        34.750
 132558203.389 7 103292096.28246  25224987.740    25224985.420          42.900
        39.350
 130788198.436 7 101912858.65846  24888165.980    24888163.600          44.650
        36.700
 132333965.957 6 103117394.37345  25182318.680    25182319.420          41.350
        35.550
                                  21138226.560                          45.350

 117149085.572 7  91115989.569 6  21976886.020    21976892.260          45.750
        36.050
 116124976.584 7  90319499.740 7  21715971.220    21715974.620          42.100
        44.950
 114270585.038 7  88877186.631 7  21354204.920    21354206.200          46.300
        43.850
 115434503.307 7  89782426.477 7  21602011.940    21602014.920          46.600
        42.800
 126293249.682 6                  23642387.220                          38.750

 126435895.212 6  98339118.538 6  23619306.000    23619310.820          40.300
        38.150
 19  2 26 15 23 27.0000000  0 16G21G20G10G26G16G27G29G15G31G32R10R20
                                R21R11R12R07
 112918459.768 8  87988385.11846  21487669.300    21487663.180          48.450
        41.650
 106440356.456 8  82940514.39547  20254926.660    20254920.520          49.550
        46.800
 107087103.474 8  83444484.76147  20377998.340    20377995.380          51.150
        47.350
 108000364.273 8  84156118.72047  20551786.040    20551783.800          49.550
        45.500
 112196147.221 7  87425622.84446  21350249.740    21350243.620          47.950
        41.800
 122730201.570 7  95633909.74546  23354780.340    23354777.620          44.000
        39.600
 127133494.844 7  99065045.75445  24192699.820    24192697.600          45.050
        34.950
 132558567.750 7 103292380.18546  25225057.080    25225054.700          42.650
        41.000
 130790479.234 7 101914635.88345  24888600.000    24888597.620          44.600
        35.050
 132331447.865 6 103115432.21146  25181839.560    25181840.300          41.750
        37.600
 117152522.429 7  91118662.683 6  21977530.760    21977537.040          46.400
        36.900
 116125759.806 6  90320108.915 7  21716117.680    21716121.100          41.900
        44.550
 114269544.318 7  88876377.175 7  21354010.400    21354011.720          45.250
        43.300
 115434968.901 7  89782788.606 7  21602099.080    21602102.040          45.800
        42.400
 126291109.706 6                  23641986.580                          38.350

 126431536.131 6  98335728.152 6  23618491.700    23618496.500          41.550
        39.700
 19  2 26 15 23 28.0000000  0 16G21G20G10G26G16G27G29G15G31G32R10R20
                                R21R11R12R07
 112920470.571 7  87989951.98546  21488051.940    21488045.840          47.900
        40.450
 106441152.555 8  82941134.73847  20255078.160    20255072.020          49.600
        46.700
 107085628.415 8  83443335.37047  20377717.640    20377714.700          51.300
        47.850
 108000916.283 8  84156548.86547  20551891.100    20551888.860          49.650
        45.100
 112194298.497 7  87424182.28646  21349897.960    21349891.820          47.900
        40.600
 122727520.385 7  95631820.52346  23354270.140    23354267.380          42.850
        40.150
 127135657.488 7  99066730.95045  24193111.340    24193109.180          45.450
        35.200
 132558932.862 6 103292664.69446  25225126.520    25225124.140          41.700
        39.850
 130792760.427 7 101916413.43746  24889034.080    24889031.720          44.600
        37.000
 132328930.073 7 103113470.26646  25181360.460    25181360.980          42.000
        37.400
 117155960.117 7  91121336.443 6  21978175.620    21978181.960          46.650
        37.300
 116126543.320 6  90320718.319 7  21716264.220    21716267.620          41.300
        43.350
 114268503.771 7  88875567.870 7  21353815.900    21353817.260          44.600
        43.250
 115435435.673 7  89783151.663 7  21602186.340    21602189.420          44.800
        43.000
 126288970.721 6                  23641586.180                          36.900

 126427177.577 7  98332338.178 6  23617677.460    23617682.320          42.100
        41.100
 19  2 26 15 23 29.0000000  0 16G21G20G10G26G16G27G29G15G31G32R10R20
                                R21R11R12R07
 112922481.381 7  87991518.85046  21488434.600    21488428.480          47.800
        41.600
 106441949.186 8  82941755.49847  20255229.760    20255223.620          49.550
        46.750
 107084153.970 8  83442186.45248  20377437.080    20377434.120          51.300
        48.200
 108001468.923 8  84156979.50147  20551996.260    20551994.020          49.650
        45.450
 112192450.214 7  87422742.07046  21349546.240    21349540.120          47.900
        40.800
 122724838.977 7  95629731.12846  23353759.880    23353757.140          43.000
        39.650
 127137820.397 7  99068416.34645  24193522.920    24193520.780          45.700
        35.100
 132559298.328 6 103292949.47946  25225196.040    25225193.660          40.300
        39.800
 130795041.446 7 101918190.86346  24889468.140    24889465.820          44.650
        37.700
 132326412.183 7 103111508.27346  25180881.260    25180881.680          42.850
        37.100
 117159398.114 7  91124010.447 6  21978820.560    21978826.980          46.550
        37.550
 116127326.726 6  90321327.644 7  21716410.760    21716414.140          41.100
        43.600
 114267463.054 7  88874758.443 7  21353621.400    21353622.800          44.950
        43.100
 115435903.134 7  89783515.258 7  21602273.820    21602276.900          44.800
        43.250
 126286832.139 6                  23641185.700                          37.750

 126422819.071 7  98328948.245 6  23616863.280    23616868.120          42.350
        40.800
 19  2 26 15 23 30.0000000  0 16G21G20G10G26G16G27G29G15G31G32R10R20
                                R21R11R12R07
 112924491.729 8  87993085.35546  21488817.160    21488811.040          48.050
        41.700
 106442745.892 8  82942376.30847  20255381.360    20255375.220          49.550
        47.000
 107082679.751 8  83441037.71247  20377156.540    20377153.600          51.250
        47.800
 108002021.798 8  84157410.31447  20552101.460    20552099.240          49.650
        45.400
 112190602.031 7  87421301.93746  21349194.540    21349188.400          47.650
        40.000
 122722156.959 7  95627641.24446  23353249.500    23353246.780          43.450
        39.650
 127139983.023 7  99070101.50545  24193934.440    24193932.320          45.500
        34.550
 132559663.519 6 103293234.03946  25225265.500    25225263.100          39.850
        39.650
 130797322.000 7 101919967.93046  24889902.100    24889899.820          45.050
        37.250
 132323893.636 6 103109545.75745  25180401.740    25180402.200          41.350
        35.300
 117162836.055 7  91126684.401 6  21979465.500    21979471.940          46.400
        36.850
 116128109.545 6  90321936.504 7  21716557.120    21716560.540          41.400
        44.300
 114266421.723 7  88873948.532 7  21353426.820    21353428.220          45.000
        42.750
 115436370.924 7  89783879.099 7  21602361.360    21602364.460          45.100
        43.050
 126284693.651 6                  23640785.340                          36.900

 126418460.177 7  98325557.999 6  23616049.080    23616053.880          42.350
        40.300
 19  2 26 15 23 31.0000000  0 16G21G20G10G26G16G27G29G15G31G32R10R20
                                R21R11R12R07
 112926502.224 7  87994651.96946  21489199.740    21489193.620          47.900
        41.350
 106443542.957 8  82942997.39947  20255533.040    20255526.900          49.300
        46.750
 107081205.717 8  83439889.11347  20376876.020    20376873.100          51.350
        47.900
 108002574.837 8  84157841.25447  20552206.700    20552204.480          49.900
        46.150
 112188754.046 8  87419861.95146  21348842.900    21348836.760          48.250
        41.300
 122719474.587 7  95625551.08846  23352739.040    23352736.280          43.150
        40.600
 127142145.833 7  99071786.79745  24194346.000    24194343.920          45.700
        35.150
 132560029.272 6 103293519.05046  25225335.060    25225332.660          40.150
        40.400
 130799601.702 7 101921744.31846  24890335.940    24890333.620          44.700
        36.750
 132321374.388 7 103107582.70946  25179922.160    25179922.780          42.200
        37.550
 117166273.625 7  91129358.056 6  21980110.360    21980116.840          46.750
        38.200
 116128892.457 6  90322545.434 7  21716703.520    21716706.960          41.150
        44.200
 114265380.154 7  88873138.429 7  21353232.140    21353233.560          44.950
        43.000
 115436838.994 7  89784243.152 7  21602449.000    21602452.060          45.700
        43.350
 126282555.563 6                  23640384.980                          37.600

 126414100.751 7  98322167.329 6  23615234.680    23615239.480          42.850
        40.150
 19  2 26 15 23 32.0000000  0 17G21G20G10G26G16G27G29G15G31G32R05R10
                                R20R21R11R12R07
 112928513.090 7  87996218.87546  21489582.400    21489576.280          47.650
        40.350
 106444340.953 8  82943619.21447  20255684.900    20255678.760          49.200
        46.650
 107079732.743 8  83438741.34848  20376595.740    20376592.800          51.400
        48.200
 108003129.010 8  84158273.08147  20552312.160    20552309.940          49.900
        46.000
 112186907.082 8  87418422.75646  21348491.440    21348485.280          48.300
        40.900
 122716792.603 7  95623461.23346  23352228.660    23352225.920          42.950
        40.300
 127144309.024 7  99073472.38645  24194757.660    24194755.500          45.800
        34.100
 132560395.719 6 103293804.62546  25225404.800    25225402.360          39.650
        39.250
 130801881.726 7 101923520.96646  24890769.820    24890767.520          45.550
        37.550
 132318855.324 7 103105619.81446  25179442.560    25179443.200          42.100
        37.500
                                  21139759.280                          44.400

 117169711.998 7  91132032.342 6  21980755.380    21980761.880          47.100
        37.600
 116129675.596 6  90323154.542 7  21716849.980    21716853.420          40.700
        43.700
 114264338.931 7  88872328.595 7  21353037.480    21353038.980          44.500
        42.950
 115437308.345 7  89784608.210 7  21602536.840    21602539.900          45.600
        43.400
 126280418.504 6                  23639984.960                          38.250

 126409741.656 7  98318776.918 6  23614420.380    23614425.160          43.550
        40.050
 19  2 26 15 23 33.0000000  0 16G21G20G10G26G16G27G29G15G31G32R10R20
                                R21R11R12R07
 112930524.142 7  87997785.93146  21489965.100    21489958.960          47.800
        41.150
 106445139.716 8  82944241.63147  20255836.900    20255830.760          49.300
        46.550
 107078260.692 8  83437594.30448  20376315.620    20376312.680          51.400
        48.150
 108003684.126 8  84158705.64047  20552417.800    20552415.580          49.700
        45.800
 112185060.825 8  87416984.11246  21348140.120    21348133.920          48.250
        41.550
 122714110.607 7  95621371.35546  23351718.280    23351715.520          44.250
        39.400
 127146472.734 7  99075158.39045  24195169.400    24195167.340          45.550
        35.750
 132560762.573 7 103294090.49846  25225474.600    25225472.200          43.200
        39.900
 130804161.980 7 101925297.79545  24891203.740    24891201.400          44.000
        35.900
 132316336.464 7 103103657.07446  25178963.100    25178964.180          42.800
        37.000
 117173151.027 7  91134707.140 6  21981400.540    21981407.000          46.800
        37.500
 116130458.824 6  90323763.721 7  21716996.400    21716999.900          41.700
        43.950
 114263297.715 7  88871518.763 7  21352842.900    21352844.380          45.800
        43.350
 115437778.635 7  89784973.994 7  21602624.860    21602627.900          45.950
        42.750
 126278282.128 6                  23639585.040                          38.250

 126405382.974 7  98315386.834 6  23613606.140    23613610.920          42.250
        39.100
 19  2 26 15 23 34.0000000  0 16G21G20G10G26G16G27G29G15G31G32R10R20
                                R21R11R12R07
 112932535.357 7  87999353.11146  21490347.820    21490341.680          47.900
        41.850
 106445939.083 8  82944864.51247  20255989.020    20255982.880          49.550
        46.700
 107076789.311 8  83436447.77748  20376035.620    20376032.700          51.300
        48.000
 108004239.880 8  84159138.69247  20552523.560    20552521.340          49.700
        46.200
 112183215.081 8  87415545.86647  21347788.900    21347782.660          48.450
        42.450
 122711428.492 7  95619281.39546  23351207.900    23351205.120          44.850
        40.000
 127148636.771 7  99076844.63646  24195581.220    24195579.160          45.950
        36.200
 132561129.989 7 103294376.79246  25225544.560    25225542.060          43.300
        39.650
 130806442.085 7 101927074.50746  24891637.640    24891635.260          43.550
        38.050
 132313817.463 7 103101694.22746  25178483.920    25178484.680          42.550
        37.000
 117176590.375 7  91137382.187 6  21982045.760    21982052.240          46.950
        37.550
 116131242.148 7  90324372.971 7  21717142.840    21717146.380          42.050
        44.250
 114262256.433 7  88870708.868 7  21352648.280    21352649.780          46.250
        44.000
 115438249.629 7  89785340.314 7  21602713.020    21602716.040          46.100
        43.350
 126276146.324 6                  23639185.260                          38.700

 126401024.291 7  98311996.746 6  23612791.920    23612796.700          42.350
        38.000
 19  2 26 15 23 35.0000000  0 16G21G20G10G26G16G27G29G15G31G32R10R20
                                R21R11R12R07
 112934546.756 7  88000920.43746  21490730.580    21490724.440          47.700
        41.650
 106446738.857 8  82945487.71347  20256141.220    20256135.080          49.350
        46.700
 107075318.154 8  83435301.41848  20375755.680    20375752.760          51.300
        48.250
 108004796.049 8  84159572.06647  20552629.400    20552627.180          49.650
        46.100
 112181369.982 8  87414108.12547  21347437.780    21347431.580          48.450
        42.350
 122708746.563 7  95617191.57746  23350697.540    23350694.760          44.500
        40.300
 127150800.600 7  99078530.71045  24195993.000    24195990.960          46.100
        34.150
 132561497.716 7 103294663.32246  25225614.540    25225612.020          43.750
        38.350
 130808721.396 7 101928850.59545  24892071.380    24892069.020          44.050
        35.950
 132311297.521 7 103099730.63846  25178004.540    25178005.180          42.350
        37.650
 117180029.510 7  91140057.068 6  21982690.960    21982697.380          46.950
        37.550
 116132025.495 6  90324982.231 7  21717289.360    21717292.880          41.900
        44.000
 114261215.333 7  88869899.115 7  21352453.720    21352455.220          46.050
        43.800
 115438721.442 7  89785707.270 7  21602801.280    21602804.360          46.050
        43.050
 126274011.508 6                  23638785.520                          39.100

 126396664.945 7  98308606.145 6  23611977.620    23611982.360          42.650
        38.350
 19  2 26 15 23 36.0000000  0 16G21G20G10G26G16G27G29G15G31G32R10R20
                                R21R11R12R07
 112936557.790 8  88002487.47447  21491113.260    21491107.140          48.750
        42.250
 106447539.078 8  82946111.26447  20256293.500    20256287.380          49.450
        47.200
 107073847.821 8  83434155.70747  20375475.880    20375472.960          50.950
        47.050
 108005352.933 8  84160006.00047  20552735.380    20552733.160          49.850
        45.800
 112179525.097 8  87412670.55647  21347086.720    21347080.540          48.700
        42.800
 122706063.962 7  95615101.23446  23350187.060    23350184.280          45.400
        40.350
 127152964.700 7  99080217.00945  24196404.820    24196402.820          46.200
        34.750
 132561865.437 7 103294949.84646  25225684.500    25225681.960          44.050
        38.000
 130811000.999 7 101930626.91345  24892505.180    24892502.820          42.900
        35.600
 132308777.866 7 103097767.27045  25177525.060    25177525.820          42.450
        35.300
 117183469.266 7  91142732.427 6  21983336.280    21983342.640          46.200
        36.950
 116132808.421 7  90325591.167 7  21717435.780    21717439.280          42.450
        44.900
 114260173.547 7  88869088.831 7  21352259.060    21352260.540          47.200
        44.100
 115439193.761 7  89786074.625 7  21602889.640    21602892.760          46.150
        44.050
 126271876.583 6                  23638385.920                          39.300

 126392306.086 6  98305215.921 6  23611163.380    23611168.080          41.650
        37.150
 19  2 26 15 23 37.0000000  0 16G21G20G10G26G16G27G29G15G31G32R10R20
                                R21R11R12R07
 112938569.194 8  88004054.80247  21491496.020    21491489.880          48.800
        42.400
 106448339.811 8  82946735.21247  20256445.880    20256439.740          49.450
        47.150
 107072377.788 8  83433010.22447  20375196.140    20375193.220          50.900
        47.250
 108005910.298 8  84160440.31047  20552841.440    20552839.220          49.900
        46.600
 112177680.969 8  87411233.56947  21346735.780    21346729.620          48.850
        42.550
 122703381.708 7  95613011.16446  23349676.660    23349673.860          45.000
        40.950
 127155128.750 7  99081903.28446  24196816.620    24196814.720          46.000
        36.050
 132562233.720 7 103295236.79946  25225754.580    25225752.020          43.550
        38.250
 130813279.895 7 101932402.68745  24892938.840    24892936.520          42.600
        32.050
 132306257.361 6 103095803.26346  25177045.400    25177046.200          41.200
        36.200
 117186908.868 7  91145407.665 6  21983981.520    21983987.940          45.600
        37.150
 116133591.608 7  90326200.309 7  21717582.260    21717585.760          42.800
        44.750
 114259132.131 7  88868278.843 7  21352064.440    21352065.880          47.400
        43.750
 115439666.978 7  89786442.671 7  21602978.220    21602981.300          46.450
        43.800
 126269742.822 6                  23637986.440                          40.000

 126387946.539 6  98301825.171 6  23610349.000    23610353.700          40.900
        37.900
 19  2 26 15 23 38.0000000  0 16G21G20G10G26G16G27G29G15G31G32R10R20
                                R21R11R12R07
 112940581.255 8  88005622.64447  21491878.920    21491872.780          48.600
        42.700
 106449141.538 8  82947359.93647  20256598.440    20256592.320          49.400
        47.000
 107070908.651 8  83431865.44647  20374916.560    20374913.660          51.100
        47.650
 108006468.816 8  84160875.52347  20552947.740    20552945.520          49.650
        45.900
 112175838.143 8  87409797.60747  21346385.100    21346378.960          48.300
        42.100
 122700700.247 7  95610921.71846  23349166.380    23349163.600          44.250
        39.200
 127157293.089 7  99083589.79645  24197228.480    24197226.580          46.650
        34.600
 132562602.813 7 103295524.40446  25225824.820    25225822.220          45.000
        38.050
 130815558.817 7 101934178.47245  24893372.500    24893370.160          43.300
        35.000
 132303736.631 7 103093839.07046  25176565.720    25176566.740          42.200
        39.300
 117190349.106 7  91148083.404 5  21984626.900    21984633.320          46.250
        35.500
 116134375.293 6  90326809.847 7  21717728.760    21717732.300          41.650
        44.500
 114258091.499 7  88867469.471 7  21351869.980    21351871.400          46.050
        43.450
 115440141.704 7  89786811.897 7  21603067.060    21603070.120          46.400
        43.000
 126267610.645 6                  23637587.240                          39.250

 126383586.989 6  98298434.416 6  23609534.560    23609539.320          41.700
        39.350
 19  2 26 15 23 39.0000000  0 16G21G20G10G26G16G27G29G15G31G32R10R20
                                R21R11R12R07
 112942593.676 8  88007190.76746  21492261.860    21492255.740          48.900
        41.850
 106449944.197 8  82947985.38747  20256751.200    20256745.040          49.550
        47.250
 107069440.625 8  83430721.53647  20374637.200    20374634.300          51.000
        47.600
 108007028.046 8  84161311.29147  20553054.140    20553051.940          49.850
        45.950
 112173995.557 8  87408361.83447  21346034.440    21346028.360          48.200
        42.450
 122698018.198 7  95608831.82246  23348656.020    23348653.220          44.350
        40.600
 127159458.739 7  99085277.32845  24197640.580    24197638.700          46.550
        35.900
 132562972.912 7 103295812.80746  25225895.240    25225892.680          44.900
        37.850
 130817837.958 6 101935954.41645  24893806.220    24893803.940          41.650
        34.550
 132301216.511 7 103091875.33546  25176086.140    25176087.080          42.100
        38.700
 117193789.822 7  91150759.514 5  21985272.400    21985278.760          44.650
        35.550
 116135159.350 7  90327419.677 7  21717875.380    21717878.920          42.800
        44.750
 114257050.425 7  88866659.755 7  21351675.420    21351676.860          46.400
        44.350
 115440616.788 7  89787181.419 7  21603155.960    21603159.020          46.150
        43.300
 126265478.513 6                  23637188.120                          39.250

 126379228.197 6  98295044.253 6  23608720.320    23608725.000          41.100
        38.350
 19  2 26 15 23 40.0000000  0 16G21G20G10G26G16G27G29G15G31G32R10R20
                                R21R11R12R07
 112944605.955 8  88008758.77847  21492644.780    21492638.660          48.750
        42.100
 106450747.183 8  82948611.09047  20256904.000    20256897.840          49.600
        47.000
 107067972.980 8  83429577.91947  20374357.920    20374355.020          50.900
        47.150
 108007587.863 8  84161747.51047  20553160.680    20553158.460          49.700
        45.900
 112172153.572 8  87406926.52947  21345683.920    21345677.860          48.500
        43.000
 122695336.157 7  95606741.93046  23348145.640    23348142.860          44.800
        40.150
 127161624.016 7  99086964.55345  24198052.640    24198050.720          46.700
        34.400
 132563342.980 7 103296101.18046  25225965.680    25225963.120          45.500
        36.850
 130820116.775 6 101937730.12845  24894239.860    24894237.560          41.550
        32.950
 132298695.851 6 103089911.17946  25175606.440    25175607.320          41.650
        38.750
 117197230.756 7  91153435.804 6  21985917.880    21985924.280          44.750
        36.350
 116135943.114 7  90328029.272 7  21718022.000    21718025.480          42.900
        44.900
 114256009.330 7  88865850.027 7  21351480.880    21351482.300          47.050
        44.050
 115441092.759 7  89787551.621 7  21603245.040    21603248.100          46.000
        43.250
 126263347.103 6                  23636789.120                          40.550

 126374869.137 6  98291653.875 6  23607905.980    23607910.640          41.550
        38.400
 19  2 26 15 23 41.0000000  0 17G21G20G10G26G16G27G29G15G31G32R05R10
                                R20R21R11R12R07
 112946618.329 8  88010326.86647  21493027.740    21493021.620          48.950
        42.300
 106451550.672 8  82949237.19247  20257056.900    20257050.740          49.600
        47.050
 107066505.885 8  83428434.73247  20374078.740    20374075.820          51.000
        47.150
 108008148.252 8  84162184.17847  20553267.320    20553265.100          49.750
        45.600
 112170312.092 8  87405491.61847  21345333.500    21345327.420          48.850
        42.950
 122692654.044 7  95604651.98046  23347635.240    23347632.500          45.600
        40.400
 127163789.498 7  99088651.94945  24198464.720    24198462.740          46.300
        35.300
 132563713.460 7 103296389.87846  25226036.180    25226033.640          45.050
        37.000
 130822395.293 6 101939505.60245  24894673.460    24894671.180          41.850
        34.500
 132296174.843 6 103087946.75946  25175126.720    25175127.400          40.950
        39.850
                                  21142064.980                          45.650

 117200671.872 7  91156112.225 6  21986563.460    21986569.840          45.150
        36.350
 116136726.842 7  90328638.834 7  21718168.580    21718172.040          42.950
        44.850
 114254968.125 7  88865040.207 7  21351286.300    21351287.720          47.050
        44.350
 115441569.430 7  89787922.365 7  21603334.240    21603337.300          45.900
        43.350
 126261216.296 6                  23636390.220                          39.250

 126370509.922 6  98288263.377 6  23607091.640    23607096.280          40.750
        38.500
 19  2 26 15 23 42.0000000  0 16G21G20G10G26G16G27G29G15G31G32R10R20
                                R21R11R12R07
 112948630.753 8  88011894.99247  21493410.680    21493404.560          49.250
        42.750
 106452354.787 8  82949863.77747  20257209.920    20257203.760          49.600
        46.950
 107065039.530 8  83427292.11847  20373799.700    20373796.780          50.750
        46.900
 108008709.356 8  84162621.40447  20553374.100    20553371.880          49.450
        45.500
 112168471.104 8  87404057.08747  21344983.180    21344977.080          48.850
        42.900
 122689971.654 7  95602561.80447  23347124.800    23347122.040          44.950
        42.800
 127165955.313 7  99090339.60846  24198876.860    24198874.840          47.000
        36.300
 132564084.357 7 103296678.88946  25226106.760    25226104.240          45.300
        36.900
 130824673.818 6 101941281.09545  24895107.060    24895104.720          40.500
        30.250
 132293653.824 6 103085982.33746  25174646.900    25174647.580          39.650
        37.600
 117204113.366 7  91158788.939 5  21987209.140    21987215.460          43.850
        33.850
 116137510.578 7  90329248.400 7  21718315.100    21718318.600          43.500
        44.250
 114253926.709 8  88864230.223 7  21351091.700    21351093.060          48.100
        44.700
 115442046.734 7  89788293.600 7  21603423.560    21603426.600          47.000
        43.150
 126259085.959 6                  23635991.420                          41.800

 126366150.862 6  98284872.986 6  23606277.340    23606282.000          40.050
        37.100
 19  2 26 15 23 43.0000000  0 16G21G20G10G26G16G27G29G15G31G32R10R20
                                R21R11R12R07
 112950643.045 8  88013463.01047  21493793.620    21493787.500          49.400
        43.050
 106453159.097 8  82950490.51047  20257362.960    20257356.800          49.650
        46.850
 107063573.315 8  83426149.60847  20373520.700    20373517.780          50.600
        46.400
 108009270.672 8  84163058.79847  20553480.900    20553478.680          49.200
        45.250
 112166630.359 8  87402622.73147  21344632.880    21344626.780          48.950
        43.150
 122687288.984 7  95600471.41046  23346614.300    23346611.500          45.000
        41.850
 127168120.895 7  99092027.07045  24199288.960    24199286.940          47.000
        35.300
 132564455.365 7 103296967.98046  25226177.360    25226174.800          44.900
        36.900
 130826951.569 6 101943056.01344  24895540.520    24895538.100          39.200
        27.700
 132291131.977 6 103084017.27745  25174167.020    25174167.920          39.750
        34.850
 117207554.662 7  91161465.505 5  21987854.640    21987861.000          42.400
        34.000
 116138294.054 7  90329857.770 7  21718461.540    21718465.100          43.500
        44.400
 114252885.025 8  88863420.029 7  21350897.060    21350898.400          48.400
        45.400
 115442524.503 7  89788665.196 7  21603513.000    21603516.000          46.900
        43.250
 126256956.037 7                  23635592.760                          42.250

 126361791.173 6  98281482.101 5  23605462.940    23605467.580          39.650
        35.900
 19  2 26 15 23 44.0000000  0 16G21G20G10G26G16G27G29G15G31G32R10R20
                                R21R11R12R07
 112952655.471 8  88015031.12547  21494176.560    21494170.440          49.450
        43.350
 106453963.919 8  82951117.63547  20257516.120    20257509.960          49.650
        46.650
 107062107.596 8  83425007.48847  20373241.780    20373238.860          50.600
        46.200
 108009832.627 8  84163496.67947  20553587.840    20553585.600          49.150
        44.950
 112164790.288 8  87401188.90347  21344282.720    21344276.620          49.000
        43.450
 122684606.431 7  95598381.11047  23346103.820    23346101.000          45.000
        42.700
 127170286.500 7  99093714.55545  24199701.080    24199699.000          47.500
        34.800
 132564826.731 7 103297257.35046  25226248.020    25226245.440          45.450
        38.100
 130829228.951 6 101944830.60343  24895973.920    24895971.140          37.550
        22.550
 132288609.681 6 103082051.84045  25173687.040    25173688.260          40.850
        35.300
 117210996.122 7  91164142.206 5  21988500.180    21988506.600          42.850
        33.850
 116139077.562 7  90330467.166 7  21718608.040    21718611.620          43.150
        44.950
 114251843.473 8  88862609.935 7  21350702.400    21350703.740          48.600
        45.250
 115443003.213 7  89789037.521 7  21603602.600    21603605.580          46.800
        42.900
 126254826.971 7                  23635194.240                          42.100

 126357431.233 6  98278091.040 6  23604648.500    23604653.140          39.200
        36.550
 19  2 26 15 23 45.0000000  0 16G21G20G10G26G16G27G29G15G31G32R10R20
                                R21R11R12R07
 112954668.337 8  88016599.58947  21494559.600    21494553.480          49.600
        43.150
 106454769.568 8  82951745.40847  20257669.440    20257663.280          49.650
        46.950
 107060642.723 8  83423866.02447  20372963.020    20372960.100          50.650
        46.450
 108010395.473 8  84163935.26047  20553694.940    20553692.680          49.350
        44.850
 112162951.083 8  87399755.75447  21343932.700    21343926.640          49.050
        43.250
 122681924.163 7  95596291.03047  23345593.400    23345590.580          45.650
        42.350
 127172452.579 7  99095402.40846  24200113.280    24200111.240          47.750
        36.200
 132565198.806 7 103297547.26646  25226318.820    25226316.240          45.800
        37.300
 130831506.386 6 101946605.21744  24896407.320    24896404.420          37.700
        28.750
 132286087.332 6 103080086.35145  25173207.100    25173207.880          40.600
        35.850
 117214438.101 7  91166819.307 5  21989145.900    21989152.360          43.700
        33.600
 116139861.394 7  90331076.811 7  21718754.580    21718758.200          43.550
        44.900
 114250802.201 8  88861800.057 7  21350507.820    21350509.140          48.450
        44.850
 115443482.960 7  89789410.657 7  21603692.400    21603695.340          46.750
        42.850
 126252698.900 6                  23634795.840                          41.700

 126353071.432 6  98274700.086 6  23603834.020    23603838.720          39.450
        36.700
 19  2 26 15 23 46.0000000  0 16G21G20G10G26G16G27G29G15G31G32R10R20
                                R21R11R12R07
 112956681.880 8  88018168.58147  21494942.760    21494936.620          48.850
        42.550
 106455575.961 8  82952373.76847  20257822.880    20257816.720          49.650
        46.800
 107059178.324 8  83422724.93447  20372684.360    20372681.420          51.050
        47.050
 108010958.947 8  84164374.32847  20553802.160    20553799.900          49.850
        45.750
 112161112.743 8  87398323.27747  21343582.880    21343576.840          48.700
        43.000
 122679242.393 7  95594201.33446  23345083.080    23345080.260          45.300
        40.450
 127174618.988 7  99097090.51145  24200525.540    24200523.500          46.550
        34.950
 132565571.866 7 103297837.95446  25226389.820    25226387.280          44.750
        37.800
 130833783.259 7 101948379.39645  24896840.620    24896837.800          42.550
        33.250
 132283564.326 7 103078120.36846  25172727.000    25172728.040          42.900
        37.250
 117217880.005 7  91169496.339 6  21989791.600    21989798.020          45.200
        36.550
 116140645.822 6  90331686.917 7  21718901.260    21718904.880          41.850
        44.250
 114249761.499 7  88860990.622 7  21350313.360    21350314.640          46.900
        44.050
 115443963.716 7  89789784.577 7  21603782.360    21603785.320          46.350
        43.600
 126250572.187 6                  23634397.720                          40.050

 126348711.189 6  98271308.790 6  23603019.440    23603024.200          41.550
        38.850
 19  2 26 15 23 47.0000000  0 17G21G20G10G26G16G27G29G15G31G32R05R10
                                R20R21R11R12R07
 112958695.607 8  88019737.71946  21495325.980    21495319.840          48.350
        41.350
 106456383.221 8  82953002.80647  20257976.500    20257970.340          49.600
        46.800
 107057715.017 8  83421584.70347  20372405.900    20372402.980          51.300
        47.900
 108011523.390 8  84164814.15447  20553909.580    20553907.320          49.850
        46.250
 112159275.046 8  87396891.30647  21343233.200    21343227.140          48.300
        42.100
 122676560.430 7  95592111.48346  23344572.720    23344569.920          44.900
        40.500
 127176786.026 7  99098779.11045  24200937.920    24200935.900          46.000
        33.950
 132565945.481 7 103298129.08246  25226460.920    25226458.380          44.650
        37.400
 130836060.434 7 101950153.78746  24897273.960    24897271.120          42.250
        36.400
 132281041.817 7 103076154.78746  25172247.000    25172248.020          43.550
        37.850
                                  21143607.160                          44.650

 117221322.717 7  91172173.988 6  21990437.460    21990443.860          46.850
        37.550
 116141430.354 6  90332297.111 7  21719048.000    21719051.580          41.300
        43.750
 114248720.645 7  88860181.062 7  21350118.840    21350120.140          45.850
        43.300
 115444445.279 7  89790159.135 7  21603872.500    21603875.460          45.100
        43.650
 126248445.897 6                  23633999.760                          39.550

 126344351.586 7  98267917.985 6  23602205.000    23602209.800          42.900
        40.750
 19  2 26 15 23 48.0000000  0 16G21G20G10G26G16G27G29G15G31G32R10R20
                                R21R11R12R07
 112960709.173 8  88021306.73846  21495709.140    21495703.000          48.650
        41.850
 106457190.991 8  82953632.24547  20258130.220    20258124.060          49.650
        46.800
 107056252.449 8  83420445.04548  20372127.580    20372124.660          51.150
        48.000
 108012088.664 8  84165254.63247  20554017.140    20554014.880          49.600
        45.800
 112157437.933 8  87395459.80047  21342883.600    21342877.560          48.250
        42.150
 122673878.307 7  95590021.51546  23344062.320    23344059.540          44.350
        39.550
 127178953.155 7  99100467.78445  24201350.300    24201348.320          45.650
        32.900
 132566319.150 7 103298420.25546  25226532.020    25226529.460          44.150
        37.750
 130838337.743 7 101951928.30146  24897707.300    24897704.460          42.400
        36.100
 132278519.185 7 103074189.09546  25171766.980    25171767.880          43.400
        36.100
 117224765.991 7  91174852.073 6  21991083.420    21991089.820          46.600
        36.800
 116142214.598 6  90332907.095 7  21719194.640    21719198.220          41.000
        43.450
 114247679.638 7  88859371.388 7  21349924.280    21349925.620          45.750
        43.500
 115444927.778 7  89790534.436 7  21603962.820    21603965.780          45.000
        43.300
 126246320.079 6                  23633601.860                          38.150

 126339992.146 7  98264527.314 6  23601390.620    23601395.440          42.950
        41.050
 19  2 26 15 23 49.0000000  0 16G21G20G10G26G16G27G29G15G31G32R10R20
                                R21R11R12R07
 112962722.798 8  88022875.80346  21496092.320    21496086.180          48.450
        41.550
 106457999.145 8  82954261.97747  20258284.000    20258277.840          49.450
        47.300
 107054790.204 8  83419305.63848  20371849.320    20371846.420          51.300
        48.300
 108012654.248 8  84165695.35247  20554124.760    20554122.500          49.750
        46.100
 112155601.175 8  87394028.56547  21342534.080    21342528.020          48.450
        42.350
 122671195.969 7  95587931.38846  23343551.920    23343549.100          44.400
        40.750
 127181120.337 7  99102156.48945  24201762.720    24201760.720          45.600
        33.250
 132566693.157 7 103298711.69546  25226603.200    25226600.660          45.250
        38.100
 130840614.432 7 101953702.33245  24898140.540    24898137.680          43.750
        34.100
 132275995.966 7 103072222.94546  25171286.820    25171287.620          42.600
        39.850
 117228209.151 7  91177530.076 6  21991729.360    21991735.760          46.400
        37.100
 116142998.788 6  90333517.035 7  21719341.260    21719344.860          41.150
        43.550
 114246638.442 7  88858561.573 7  21349729.680    21349731.040          45.700
        43.850
 115445410.725 7  89790910.066 7  21604053.180    21604056.160          45.550
        43.450
 126244194.820 6                  23633204.020                          38.400

 126335632.248 7  98261136.285 6  23600576.140    23600580.980          42.900
        40.700
 19  2 26 15 23 50.0000000  0 17G21G20G10G26G16G27G29G15G31G32R05R10
                                R20R21R11R12R07
 112964736.336 8  88024444.78946  21496475.480    21496469.340          48.450
        41.650
 106458807.750 8  82954892.06047  20258437.880    20258431.720          49.550
        46.950
 107053328.542 8  83418166.68048  20371571.180    20371568.280          51.350
        48.100
 108013220.520 8  84166136.59947  20554232.520    20554230.280          49.850
        46.150
 112153764.937 8  87392597.72847  21342184.640    21342178.580          48.550
        42.100
 122668513.510 7  95585841.16446  23343041.460    23343038.640          44.500
        40.650
 127183287.469 7  99103845.15345  24202175.100    24202173.060          45.100
        35.600
 132567067.336 7 103299003.26546  25226674.400    25226671.860          45.050
        37.700
 130842890.974 7 101955476.24545  24898573.760    24898570.920          44.950
        35.200
 132273472.485 7 103070256.60046  25170806.600    25170807.360          42.850
        36.800
                                  21144393.260                          45.300

 117231652.636 7  91180208.336 6  21992375.320    21992381.780          46.650
        37.100
 116143782.788 6  90334126.819 7  21719487.880    21719491.460          41.650
        44.150
 114245597.084 7  88857751.622 7  21349535.060    21349536.440          45.800
        43.250
 115445894.495 7  89791286.327 7  21604143.740    21604146.700          45.950
        43.150
 126242070.127 6                  23632806.260                          38.050

 126331272.313 7  98257745.226 6  23599761.700    23599766.540          43.050
        39.800
 19  2 26 15 23 51.0000000  0 16G21G20G10G26G16G27G29G15G31G32R10R20
                                R21R11R12R07
 112966749.679 8  88026013.62247  21496858.620    21496852.460          48.800
        42.850
 106459616.779 8  82955522.46947  20258591.820    20258585.660          49.750
        47.050
 107051867.487 8  83417028.19447  20371293.140    20371290.240          51.100
        47.100
 108013787.070 8  84166578.06347  20554340.340    20554338.080          49.900
        45.550
 112151928.573 8  87391166.78947  21341835.200    21341829.160          49.000
        42.800
 122665830.057 7  95583750.17246  23342530.820    23342528.000          46.000
        41.700
 127185455.273 7  99105534.33946  24202587.600    24202585.620          44.850
        36.800
 132567441.881 7 103299295.11446  25226745.680    25226743.160          44.500
        39.450
 130845167.337 7 101957250.02045  24899006.940    24899004.160          43.050
        34.000
 132270949.067 6 103068290.30645  25170326.340    25170327.140          41.800
        34.700
 117235096.211 7  91182886.660 6  21993021.340    21993027.800          45.850
        36.600
 116144566.574 6  90334736.416 7  21719634.420    21719638.020          41.950
        44.150
 114244554.839 7  88856940.970 7  21349340.320    21349341.680          47.350
        44.150
 115446378.260 7  89791662.570 7  21604234.280    21604237.220          46.550
        43.400
 126239945.116 6                  23632408.460                          40.650

 126326912.627 6  98254354.363 6  23598947.260    23598952.100          41.050
        37.300
 19  2 26 15 23 52.0000000  0 17G21G20G10G26G16G27G29G15G31G32R05R10
                                R20R21R11R12R07
 112968763.164 8  88027582.56747  21497241.780    21497235.620          48.750
        43.250
 106460426.125 8  82956153.12747  20258745.840    20258739.700          49.750
        47.100
 107050406.537 8  83415889.79047  20371015.140    20371012.220          51.100
        47.000
 108014354.034 8  84167019.85047  20554448.220    20554445.980          50.000
        45.950
 112150092.910 8  87389736.39947  21341485.900    21341479.820          49.200
        42.700
 122663146.934 7  95581659.43147  23342020.260    23342017.440          46.350
        42.550
 127187622.610 7  99107223.15345  24203000.040    24202998.020          45.300
        35.100
 132567816.654 7 103299587.15046  25226816.980    25226814.460          45.000
        38.800
 130847442.836 7 101959023.14245  24899439.960    24899437.220          42.550
        34.300
 132268424.561 6 103066323.17145  25169845.980    25169846.780          41.900
        35.350
                                  21144898.580                          44.950

 117238539.531 7  91185564.789 6  21993667.320    21993673.800          45.700
        36.350
 116145350.374 7  90335346.018 7  21719780.960    21719784.580          42.450
        44.300
 114243512.914 7  88856130.574 7  21349145.600    21349146.940          47.800
        44.500
 115446862.915 7  89792039.505 7  21604324.980    21604327.900          46.750
        43.050
 126237821.179 6                  23632010.840                          40.250

 126322552.028 6  98250962.803 6  23598132.640    23598137.480          39.750
        37.100
 19  2 26 15 23 53.0000000  0 16G21G20G10G26G16G27G29G15G31G32R10R20
                                R21R11R12R07
 112970777.004 8  88029151.78946  21497625.000    21497618.840          48.800
        41.950
 106461236.118 8  82956784.28447  20258899.980    20258893.820          49.800
        46.700
 107048946.173 8  83414751.84247  20370737.240    20370734.320          51.300
        47.350
 108014921.861 8  84167462.30947  20554556.280    20554554.040          50.000
        46.050
 112148258.290 8  87388306.82347  21341136.800    21341130.720          48.750
        42.900
 122660464.417 7  95579569.15646  23341509.780    23341507.020          44.800
        40.400
 127189789.876 7  99108911.92145  24203412.460    24203410.480          44.950
        35.950
 132568191.940 7 103299879.57246  25226888.380    25226885.880          45.100
        39.000
 130849718.056 7 101960796.03046  24899872.920    24899870.180          43.450
        36.300
 132265899.522 7 103064355.60846  25169365.560    25169366.120          43.300
        37.450
 117241983.194 7  91188243.190 6  21994313.360    21994319.840          46.300
        36.250
 116146134.390 6  90335955.795 7  21719927.560    21719931.200          41.300
        44.450
 114242471.530 7  88855320.602 7  21348951.000    21348952.340          46.550
        44.150
 115447348.854 7  89792417.446 7  21604415.920    21604418.820          46.000
        43.350
 126235698.625 6                  23631613.480                          39.300

 126318191.159 7  98247571.020 6  23597318.000    23597322.800          42.050
        38.850
 19  2 26 15 23 54.0000000  0 16G21G20G10G26G16G27G29G15G31G32R10R20
                                R21R11R12R07
 112972791.146 8  88030721.24447  21498008.280    21498002.120          48.650
        42.950
 106462047.059 8  82957416.18847  20259054.280    20259048.140          49.750
        47.000
 107047486.963 8  83413614.79047  20370459.560    20370456.620          51.350
        47.350
 108015490.577 8  84167905.45847  20554664.520    20554662.260          50.100
        46.250
 112146424.141 8  87386877.60947  21340787.760    21340781.680          48.700
        42.700
 122657781.495 7  95577478.56747  23340999.240    23340996.460          44.950
        42.000
 127191958.238 7  99110601.56646  24203825.060    24203823.140          44.250
        36.200
 132568568.069 7 103300172.66046  25226959.960    25226957.440          45.650
        38.100
 130851993.760 7 101962569.31645  24900305.960    24900303.160          43.800
        35.100
 132263375.200 7 103062388.59446  25168885.280    25168885.800          42.950
        37.650
 117245427.623 7  91190922.192 6  21994959.500    21994965.980          46.550
        36.200
 116146918.679 6  90336565.796 7  21720074.200    21720077.860          41.350
        44.550
 114241429.849 7  88854510.404 7  21348756.360    21348757.680          46.700
        44.050
 115447835.385 7  89792795.856 7  21604506.980    21604509.880          46.050
        43.750
 126233576.349 6                  23631216.220                          39.000

 126313831.146 6  98244179.901 6  23596503.560    23596508.280          41.900
        38.850
 19  2 26 15 23 55.0000000  0 17G21G20G10G26G16G27G29G15G31G32R05R10
                                R20R21R11R12R07
 112974805.120 8  88032290.57347  21498391.520    21498385.360          48.850
        42.700
 106462858.423 8  82958048.42047  20259208.700    20259202.540          49.750
        47.100
 107046028.338 8  83412478.19847  20370181.980    20370179.060          51.000
        46.950
 108016059.871 8  84168349.06447  20554772.840    20554770.600          49.850
        45.850
 112144590.349 8  87385448.67947  21340438.800    21340432.740          49.050
        42.700
 122655098.237 7  95575387.71746  23340488.620    23340485.840          46.150
        41.000
 127194126.647 7  99112291.22746  24204237.680    24204235.740          45.400
        36.200
 132568944.256 7 103300465.79446  25227031.540    25227029.000          45.750
        38.150
 130854269.227 7 101964342.40145  24900738.960    24900736.180          44.250
        33.750
 132260850.597 6 103060421.36245  25168404.880    25168405.400          41.750
        35.200
                                  21145676.380                          44.950

 117248872.299 7  91193601.387 6  21995605.720    21995612.200          45.550
        36.450
 116147702.640 7  90337175.539 7  21720220.800    21720224.460          42.650
        44.600
 114240387.820 7  88853699.939 7  21348561.620    21348562.960          47.800
        44.650
 115448322.516 7  89793174.734 7  21604598.120    21604601.040          46.300
        43.400
 126231454.405 6                  23630818.980                          40.700

 126309471.096 6  98240788.747 6  23595689.040    23595693.780          40.950
        36.850
 19  2 26 15 23 56.0000000  0 16G21G20G10G26G16G27G29G15G31G32R10R20
                                R21R11R12R07
 112976819.149 8  88033859.94247  21498774.780    21498768.600          49.750
        43.700
 106463670.269 8  82958681.02347  20259363.180    20259357.040          49.750
        46.550
 107044570.226 8  83411342.00947  20369904.520    20369901.580          50.800
        46.150
 108016629.727 8  84168793.10847  20554881.300    20554879.040          49.750
        45.100
 112142757.062 8  87384020.14747  21340089.940    21340083.880          49.550
        43.400
 122652414.840 7  95573296.76047  23339977.980    23339975.200          47.200
        42.350
 127196295.145 7  99113980.93946  24204650.320    24204648.340          44.550
        36.100
 132569320.790 7 103300759.19346  25227103.200    25227100.660          46.650
        38.650
 130856544.355 7 101966115.22845  24901171.920    24901169.160          43.550
        33.000
 132258325.613 6 103058453.83245  25167924.360    25167924.940          39.450
        33.450
 117252317.138 7  91196280.699 5  21996251.960    21996258.440          44.750
        35.250
 116148486.554 7  90337785.244 7  21720367.420    21720371.060          42.650
        44.700
 114239345.695 8  88852889.397 7  21348366.880    21348368.220          48.600
        45.400
 115448810.377 7  89793554.175 7  21604689.400    21604692.300          47.500
        43.000
 126229333.013 7                  23630421.860                          42.250

 126305110.845 6  98237397.441 5  23594874.540    23594879.240          38.800
        35.850
 19  2 26 15 23 57.0000000  0 17G21G20G10G26G16G27G29G15G31G32R05R10
                                R20R21R11R12R07
 112978833.544 8  88035429.59447  21499158.120    21499151.940          49.750
        43.150
 106464482.697 8  82959314.07247  20259517.780    20259511.640          49.600
        46.650
 107043112.516 8  83410206.12547  20369627.120    20369624.200          50.850
        46.550
 108017200.145 8  84169237.59447  20554989.840    20554987.580          49.800
        45.100
 112140924.499 8  87382592.18147  21339741.200    21339735.140          49.600
        43.150
 122649731.729 7  95571206.01447  23339467.420    23339464.620          47.300
        42.750
 127198463.759 7  99115670.73945  24205063.000    24205061.000          44.150
        35.450
 132569697.939 7 103301053.06946  25227174.980    25227172.420          46.350
        37.900
 130858818.976 7 101967887.68745  24901604.780    24901601.960          43.350
        32.050
 132255799.966 6 103056485.77745  25167443.660    25167444.180          39.100
        33.200
                                  21146211.300                          44.950

 117255761.937 7  91198959.979 5  21996898.160    21996904.660          45.050
        35.600
 116149270.747 7  90338395.169 7  21720514.040    21720517.720          42.850
        44.950
 114238303.872 8  88852079.095 7  21348172.200    21348173.500          48.700
        44.850
 115449299.146 7  89793934.331 7  21604780.880    21604783.760          47.750
        43.400
 126227212.716 7                  23630024.960                          42.950

 126300750.126 6  98234005.780 6  23594059.940    23594064.660          39.000
        36.550
 19  2 26 15 23 58.0000000  0 16G21G20G10G26G16G27G29G15G31G32R10R20
                                R21R11R12R07
 112980848.393 8  88036999.60047  21499541.540    21499535.340          49.600
        42.750
 106465295.995 8  82959947.81147  20259672.540    20259666.400          49.650
        46.600
 107041655.729 8  83409070.96947  20369349.900    20369346.980          50.850
        46.200
 108017771.488 8  84169682.80447  20555098.560    20555096.320          50.050
        45.400
 112139092.804 8  87381164.89447  21339392.640    21339386.580          49.600
        43.000
 122647048.881 7  95569115.48147  23338956.880    23338954.080          47.250
        42.750
 127200632.867 7  99117360.93145  24205475.760    24205473.800          45.550
        34.900
 132570075.844 7 103301347.54546  25227246.920    25227244.340          46.300
        37.550
 130861093.681 7 101969660.18545  24902037.620    24902034.940          43.950
        31.250
 132253274.370 6 103054517.77845  25166963.000    25166963.480          39.450
        32.050
 117259207.293 7  91201639.694 5  21997544.500    21997550.940          45.250
        35.600
 116150055.293 7  90339005.374 7  21720660.760    21720664.440          42.550
        44.950
 114237262.338 8  88851269.025 7  21347977.580    21347978.880          48.450
        44.850
 115449788.971 7  89794315.314 7  21604872.500    21604875.420          47.100
        43.700
 126225093.357 6                  23629628.200                          40.650

 126296389.629 6  98230614.291 6  23593245.300    23593250.100          39.250
        36.750
 19  2 26 15 23 59.0000000  0 16G21G20G10G26G16G27G29G15G31G32R10R20
                                R21R11R12R07
 112982864.324 8  88038570.45547  21499925.160    21499918.960          48.650
        42.300
 106466110.426 8  82960582.43647  20259827.520    20259821.380          49.800
        47.150
 107040199.776 8  83407936.46147  20369072.840    20369069.920          51.350
        47.600
 108018343.914 8  84170128.85047  20555207.500    20555205.240          50.000
        46.700
 112137262.544 8  87379738.72147  21339044.360    21339038.280          49.050
        42.900
 122644367.105 7  95567025.78846  23338446.560    23338443.740          45.450
        39.950
 127202802.474 7  99119051.53245  24205888.640    24205886.660          45.500
        35.300
 132570455.042 7 103301643.02646  25227319.080    25227316.540          46.050
        36.750
 130863368.126 7 101971432.48845  24902470.460    24902467.800          43.450
        33.850
 132250748.372 7 103052549.46846  25166482.360    25166483.080          43.100
        36.700
 117262653.014 7  91204319.701 6  21998190.940    21998197.380          45.900
        36.200
 116150840.854 6  90339616.370 7  21720807.660    21720811.340          41.400
        44.050
 114236221.942 7  88850459.832 7  21347783.160    21347784.460          46.800
        43.900
 115450280.313 7  89794697.471 7  21604964.460    21604967.360          46.350
        43.800
 126222975.937 6                  23629231.800                          40.350

 126292028.979 6  98227222.670 6  23592430.700    23592435.500          41.750
        38.950
 19  2 26 15 24  0.0000000  0 17G21G20G10G26G16G27G29G15G31G32R05R10
                                R20R21R11R12R07
 112984880.324 8  88040141.37546  21500308.780    21500302.600          48.600
        41.350
 106466925.716 8  82961217.73947  20259982.680    20259976.520          49.700
        46.650
 107038744.991 8  83406802.87047  20368796.020    20368793.080          51.400
        47.650
 108018917.280 8  84170575.62947  20555316.600    20555314.360          50.100
        46.750
 112135432.735 8  87378312.89647  21338696.160    21338690.080          48.950
        43.450
 122641684.854 7  95564935.72646  23337936.140    23337933.340          44.950
        40.000
 127204972.919 7  99120742.81845  24206301.680    24206299.640          45.150
        35.950
 132570834.731 7 103301938.90046  25227391.340    25227388.820          45.600
        36.950
 130865643.113 7 101973205.21645  24902903.380    24902900.720          43.800
        33.700
 132248223.070 7 103050581.71846  25166001.840    25166002.700          43.550
        37.200
                                  21146990.620                          44.400

 117266099.556 7  91207000.351 6  21998837.500    21998843.940          45.800
        36.050
 116151626.397 6  90340227.363 7  21720954.560    21720958.220          41.100
        43.150
 114235181.109 7  88849650.295 7  21347588.640    21347589.960          46.800
        43.900
 115450772.358 7  89795080.187 7  21605056.540    21605059.460          46.800
        44.050
 126220858.653 6                  23628835.480                          40.100

 126287669.218 7  98223831.728 6  23591616.280    23591621.040          42.050
        39.450
 19  2 26 15 24  1.0000000  0 16G21G20G10G26G16G27G29G15G31G32R10R20
                                R21R11R12R07
 112986895.964 8  88041712.01146  21500692.360    21500686.160          48.650
        41.250
 106467741.171 8  82961853.16947  20260137.860    20260131.700          49.650
        47.100
 107037290.507 8  83405669.52147  20368519.240    20368516.300          51.400
        47.650
 108019490.988 8  84171022.67947  20555425.780    20555423.540          50.100
        47.150
 112133603.100 8  87376887.20647  21338347.980    21338341.900          48.900
        43.550
 122639002.127 7  95562845.30146  23337425.640    23337422.840          45.250
        41.100
 127207143.209 7  99122433.99345  24206714.640    24206712.700          43.300
        33.300
 132571214.363 7 103302234.71345  25227463.580    25227461.060          46.150
        35.750
 130867917.644 7 101974977.57945  24903336.220    24903333.560          43.400
        35.100
 132245697.250 7 103048613.54546  25165521.200    25165521.900          42.350
        37.350
 117269546.127 7  91209681.028 6  21999484.060    21999490.500          45.750
        36.300
 116152411.494 6  90340838.008 7  21721101.400    21721105.060          41.950
        43.350
 114234139.784 7  88848840.386 7  21347394.040    21347395.380          46.400
        44.050
 115451264.849 7  89795463.253 7  21605148.720    21605151.660          46.950
        43.850
 126218741.521 6                  23628439.220                          40.900

 126283309.147 6  98220440.551 6  23590801.760    23590806.520          40.150
        38.950
 19  2 26 15 24  2.0000000  0 17G21G20G10G26G16G27G29G15G31G32R05R10
                                R20R21R11R12R07
 112988911.548 8  88043282.60746  21501075.900    21501069.700          48.450
        41.050
 106468557.026 8  82962488.90447  20260293.120    20260286.960          49.800
        46.900
 107035836.481 8  83404536.52247  20368242.560    20368239.600          51.400
        47.250
 108020065.343 8  84171470.23447  20555535.080    20555532.840          50.050
        46.750
 112131774.127 8  87375462.03647  21337999.940    21337993.840          48.850
        42.650
 122636319.499 7  95560754.95546  23336915.160    23336912.360          45.200
        40.800
 127209313.266 7  99124124.96846  24207127.560    24207125.600          43.500
        36.650
 132571594.042 7 103302530.55946  25227535.840    25227533.340          46.150
        36.600
 130870191.869 7 101976749.69845  24903768.980    24903766.400          43.150
        35.150
 132243170.897 7 103046644.94846  25165040.460    25165041.160          43.000
        37.850
                                  21147505.160                          44.450

 117272992.951 7  91212361.896 6  22000130.680    22000137.120          45.800
        36.400
 116153196.385 6  90341448.483 7  21721248.140    21721251.820          41.750
        43.200
 114233098.509 7  88848030.512 7  21347199.460    21347200.800          46.750
        44.100
 115451758.286 7  89795847.047 7  21605241.060    21605244.000          46.700
        43.750
 126216625.233 6                  23628043.060                          40.100

 126278948.759 6  98217049.135 6  23589987.180    23589991.960          40.650
        38.000
 19  2 26 15 24  3.0000000  0 16G21G20G10G26G16G27G29G15G31G32R10R20
                                R21R11R12R07
 112990927.172 8  88044853.22547  21501459.460    21501453.260          48.550
        42.050
 106469373.453 8  82963125.08347  20260448.480    20260442.320          49.850
        47.000
 107034383.159 8  83403404.06547  20367966.000    20367963.040          51.300
        47.150
 108020640.378 8  84171918.31347  20555644.500    20555642.260          50.100
        46.550
 112129945.629 8  87374037.23747  21337652.000    21337645.880          49.050
        43.150
 122633636.643 7  95558664.42646  23336404.620    23336401.820          45.250
        41.050
 127211483.674 7  99125816.20846  24207540.580    24207538.600          45.700
        36.000
 132571974.097 7 103302826.71746  25227608.160    25227605.640          46.700
        36.800
 130872466.030 7 101978521.77545  24904201.760    24904199.180          42.400
        32.000
 132240644.510 6 103044676.33146  25164559.660    25164560.480          41.650
        38.300
 117276440.154 7  91215043.056 6  22000777.400    22000783.780          45.950
        36.100
 116153981.222 7  90342058.918 7  21721394.920    21721398.580          42.000
        43.750
 114232057.013 7  88847220.464 7  21347004.860    21347006.200          46.850
        44.200
 115452252.353 7  89796231.322 7  21605333.520    21605336.500          46.550
        43.550
 126214509.405 6                  23627647.000                          40.050

 126274588.484 6  98213657.814 6  23589172.660    23589177.420          41.400
        38.400
 19  2 26 15 24  4.0000000  0 16G21G20G10G26G16G27G29G15G31G32R10R20
                                R21R11R12R07
 112992943.154 8  88046424.11346  21501843.100    21501836.880          48.400
        41.200
 106470190.470 8  82963761.72147  20260603.960    20260597.800          49.800
        47.000
 107032930.252 8  83402271.93447  20367689.520    20367686.560          51.350
        47.300
 108021215.812 8  84172366.69947  20555754.000    20555751.760          50.150
        46.700
 112128117.618 8  87372612.81747  21337304.140    21337298.020          49.200
        43.100
 122630953.743 7  95556573.85646  23335894.100    23335891.300          45.300
        41.400
 127213654.372 7  99127507.65845  24207953.700    24207951.640          45.050
        35.350
 132572354.898 7 103303123.44745  25227680.620    25227678.160          45.850
        35.050
 130874739.603 7 101980293.40345  24904634.380    24904631.860          43.350
        35.150
 132238117.534 7 103042707.25946  25164078.740    25164079.480          42.350
        38.000
 117279887.165 7  91217724.060 6  22001424.060    22001430.420          45.500
        36.350
 116154766.361 6  90342669.577 7  21721541.800    21721545.400          41.650
        43.850
 114231015.570 7  88846410.457 7  21346810.220    21346811.580          46.700
        44.250
 115452746.969 7  89796616.019 7  21605426.060    21605429.080          46.450
        43.750
 126212394.303 6                  23627251.100                          40.650

 126270227.797 6  98210266.183 6  23588358.000    23588362.800          41.050
        37.850
 19  2 26 15 24  5.0000000  0 17G21G20G10G26G16G27G29G15G31G32R05R10
                                R20R21R11R12R07
 112994958.899 8  88047994.82046  21502226.680    21502220.480          48.600
        41.350
 106471007.769 8  82964398.57947  20260759.500    20260753.340          49.750
        46.800
 107031477.744 8  83401140.11247  20367413.120    20367410.140          51.350
        47.200
 108021791.706 8  84172815.44847  20555863.580    20555861.360          50.100
        46.800
 112126289.922 8  87371188.63847  21336956.340    21336950.200          49.150
        43.650
 122628270.506 7  95554483.01646  23335383.480    23335380.700          44.950
        41.250
 127215824.946 7  99129199.01345  24208366.740    24208364.680          44.650
        35.600
 132572735.735 7 103303420.20846  25227753.100    25227750.660          45.350
        36.900
 130877012.807 7 101982064.72145  24905066.980    24905064.460          43.300
        35.250
 132235590.167 7 103040737.88446  25163597.780    25163598.480          42.950
        38.550
                                  21148292.380                          44.700

 117283334.334 7  91220405.191 6  22002070.740    22002077.120          45.950
        36.350
 116155551.166 7  90343279.981 7  21721688.560    21721692.180          42.000
        43.450
 114229973.769 7  88845600.169 7  21346615.520    21346616.920          46.650
        44.550
 115453242.150 7  89797001.158 7  21605518.720    21605521.740          46.700
        43.950
 126210279.495 6                  23626855.180                          40.850

 126265867.003 6  98206874.460 6  23587543.360    23587548.140          40.850
        37.800
 19  2 26 15 24  6.0000000  0 16G21G20G10G26G16G27G29G15G31G32R10R20
                                R21R11R12R07
 112996974.835 8  88049565.67346  21502610.300    21502604.100          48.300
        41.400
 106471825.621 8  82965035.86147  20260915.140    20260908.980          49.650
        46.900
 107030025.762 8  83400008.69747  20367136.820    20367133.840          51.400
        47.350
 108022368.218 8  84173264.67747  20555973.300    20555971.060          50.100
        46.750
 112124462.864 8  87369764.95947  21336608.680    21336602.520          49.100
        43.350
 122625587.332 7  95552392.23146  23334872.880    23334870.120          45.100
        39.950
 127217995.591 7  99130890.43145  24208779.780    24208777.720          43.150
        32.100
 132573116.957 7 103303717.26646  25227825.640    25227823.180          45.100
        36.050
 130879285.647 7 101983835.76745  24905499.480    24905496.960          43.850
        35.000
 132233062.313 7 103038768.13846  25163116.700    25163117.520          42.950
        36.200
 117286781.641 7  91223086.426 6  22002717.460    22002723.840          45.850
        36.950
 116156336.019 6  90343890.421 7  21721835.360    21721838.940          41.400
        43.350
 114228932.063 7  88844789.954 7  21346420.880    21346422.260          46.600
        44.550
 115453738.184 7  89797386.962 7  21605611.540    21605614.580          46.800
        44.200
 126208165.542 6                  23626459.480                          41.200

 126261505.917 6  98203482.502 6  23586728.680    23586733.460          41.300
        39.300
 19  2 26 15 24  7.0000000  0 16G21G20G10G26G16G27G29G15G31G32R10R20
                                R21R11R12R07
 112998991.150 8  88051136.82446  21502993.980    21502987.780          48.350
        41.700
 106472644.306 8  82965673.80047  20261070.920    20261064.780          49.650
        46.400
 107028574.637 8  83398877.94847  20366860.680    20366857.700          51.400
        47.650
 108022945.573 8  84173714.56647  20556083.160    20556080.920          50.050
        46.550
 112122636.592 8  87368341.89247  21336261.140    21336255.000          48.800
        42.900
 122622904.274 7  95550301.53446  23334362.320    23334359.560          44.800
        41.650
 127220166.811 7  99132582.29145  24209192.920    24209190.920          43.450
        34.600
 132573498.903 7 103304014.88445  25227898.320    25227895.860          45.500
        35.650
 130881558.466 7 101985606.81346  24905931.980    24905929.500          42.600
        36.250
 132230534.471 7 103036798.39745  25162635.700    25162636.480          43.550
        35.100
 117290229.382 7  91225768.000 6  22003364.260    22003370.640          45.950
        36.750
 116157121.182 6  90344501.107 7  21721982.140    21721985.780          41.650
        43.850
 114227890.516 7  88843979.859 7  21346226.220    21346227.640          46.050
        44.300
 115454235.145 7  89797773.492 7  21605704.520    21605707.600          46.150
        44.050
 126206052.381 6                  23626063.900                          39.600

 126257144.981 6  98200090.659 6  23585913.960    23585918.800          40.700
        38.950
 19  2 26 15 24  8.0000000  0 16G21G20G10G26G16G27G29G15G31G32R10R20
                                R21R11R12R07
 113001006.958 8  88052707.58946  21503377.580    21503371.380          48.300
        41.250
 106473463.269 8  82966311.95347  20261226.760    20261220.620          49.300
        45.450
 107027124.123 8  83397747.67847  20366584.660    20366581.660          50.850
        46.700
 108023523.085 8  84174164.57847  20556193.060    20556190.820          50.400
        46.650
 112120809.795 8  87366918.41847  21335913.520    21335907.380          50.050
        44.700
 122620219.679 7  95548209.64247  23333851.460    23333848.680          46.700
        42.900
 127222338.704 7  99134274.65845  24209606.220    24209604.240          44.550
        32.450
 132573881.015 7 103304312.63445  25227971.040    25227968.560          44.900
        33.700
 130883831.192 7 101987377.77145  24906364.460    24906362.020          42.600
        34.850
 132228006.990 6 103034828.93345  25162154.760    25162155.560          41.950
        34.000
 117293677.259 7  91228449.674 6  22004011.040    22004017.460          46.850
        36.250
 116157905.865 6  90345111.416 7  21722128.860    21722132.520          41.200
        43.400
 114226847.586 7  88843168.697 7  21346031.320    21346032.760          47.750
        44.600
 115454731.663 7  89798159.678 7  21605797.440    21605800.520          47.500
        45.150
 126203938.297 7                  23625668.140                          42.300

 126252784.489 6  98196699.170 6  23585099.420    23585104.220          39.850
        37.600
 19  2 26 15 24  9.0000000  0 16G21G20G10G26G16G27G29G15G31G32R10R20
                                R21R11R12R07
 113003023.018 7  88054278.55146  21503761.220    21503755.040          47.750
        40.650
 106474282.298 8  82966950.16347  20261382.620    20261376.460          49.150
        45.750
 107025673.198 8  83396617.08847  20366308.560    20366305.560          51.100
        47.600
 108024100.974 8  84174614.88947  20556303.020    20556300.780          50.400
        47.400
 112118984.274 8  87365495.94047  21335566.140    21335560.000          49.600
        44.150
 122617536.358 7  95546118.74746  23333340.840    23333338.060          46.150
        41.900
 127224509.149 7  99135965.87345  24210019.240    24210017.240          43.250
        33.700
 132574263.096 7 103304610.35345  25228043.760    25228041.220          44.300
        34.950
 130886102.450 7 101989147.60945  24906796.660    24906794.260          43.200
        35.750
 132225477.269 6 103032857.72246  25161673.340    25161674.080          41.850
        36.850
 117297124.500 7  91231130.859 6  22004657.740    22004664.140          46.800
        37.050
 116158690.442 6  90345721.630 7  21722275.580    21722279.240          40.900
        42.400
 114225805.782 7  88842358.413 7  21345836.640    21345838.080          47.100
        43.850
 115455229.733 7  89798547.072 7  21605890.640    21605893.740          47.450
        45.250
 126201826.414 6                  23625272.800                          41.000

 126248422.083 6  98193306.194 6  23584284.480    23584289.260          40.700
        38.650
 19  2 26 15 24 10.0000000  0 16G21G20G10G26G16G27G29G15G31G32R10R20
                                R21R11R12R07
 113005039.323 8  88055849.70246  21504144.920    21504138.720          48.300
        40.800
 106475102.328 8  82967589.15147  20261538.680    20261532.520          49.300
        46.100
 107024223.604 8  83395487.54147  20366032.700    20366029.720          51.250
        47.650
 108024680.078 8  84175066.14447  20556413.220    20556410.980          50.450
        47.500
 112117159.568 8  87364074.10247  21335218.900    21335212.760          49.400
        43.600
 122614853.005 7  95544027.83546  23332830.200    23332827.440          45.650
        41.750
 127226680.462 7  99137657.79745  24210432.460    24210430.420          44.500
        33.600
 132574645.804 7 103304908.58445  25228116.580    25228114.020          45.200
        33.750
 130888374.494 7 101990918.04445  24907229.020    24907226.640          42.100
        35.050
 132222948.325 6 103030887.12745  25161192.080    25161192.860          41.350
        34.900
 117300572.902 7  91233812.946 6  22005304.640    22005311.080          46.600
        37.650
 116159475.231 6  90346332.022 7  21722422.320    21722426.000          41.200
        42.750
 114224763.929 7  88841548.092 7  21345641.940    21345643.380          46.900
        44.050
 115455728.922 7  89798935.341 7  21605984.080    21605987.180          47.350
        45.100
 126199715.147 6                  23624877.520                          41.050

 126244060.740 6  98189914.049 6  23583469.740    23583474.540          40.400
        39.200
 19  2 26 15 24 11.0000000  0 16G21G20G10G26G16G27G29G15G31G32R10R20
                                R21R11R12R07
 113007055.730 7  88057420.93646  21504528.620    21504522.440          47.950
        40.900
 106475922.872 8  82968228.53347  20261694.820    20261688.660          49.350
        46.500
 107022774.565 8  83394358.42647  20365756.960    20365753.980          51.300
        47.750
 108025259.751 8  84175517.84147  20556523.540    20556521.300          50.150
        46.900
 112115335.346 8  87362652.63847  21334871.760    21334865.640          49.100
        43.600
 122612169.532 7  95541936.82946  23332319.560    23332316.780          44.800
        41.650
 127228852.026 7  99139349.92745  24210845.700    24210843.660          44.150
        35.250
 132575028.962 7 103305207.15845  25228189.500    25228186.940          45.450
        34.550
 130890646.217 7 101992688.21046  24907661.300    24907658.960          42.200
        36.700
 132220419.092 7 103028916.31046  25160710.780    25160711.560          42.300
        38.050
 117304021.507 7  91236495.190 6  22005951.580    22005958.020          46.350
        37.400
 116160260.042 6  90346942.436 7  21722569.100    21722572.760          41.550
        43.400
 114223721.975 7  88840737.690 7  21345447.220    21345448.700          46.700
        44.400
 115456228.820 7  89799324.156 7  21606077.640    21606080.720          46.850
        44.300
 126197604.455 6                  23624482.420                          40.350

 126239699.258 6  98186521.799 6  23582654.920    23582659.780          41.350
        40.000
 19  2 26 15 24 12.0000000  0 16G21G20G10G26G16G27G29G15G31G32R10R20
                                R21R11R12R07
 113009072.494 7  88058992.44746  21504912.400    21504906.220          47.900
        40.300
 106476744.200 8  82968868.52747  20261851.120    20261844.940          49.100
        45.850
 107021326.253 8  83393229.86947  20365481.360    20365478.380          51.150
        47.750
 108025839.928 8  84175969.92547  20556633.940    20556631.700          50.150
        47.200
 112113511.407 8  87361231.38547  21334524.680    21334518.560          49.300
        43.900
 122609485.643 7  95539845.49846  23331808.840    23331806.040          45.850
        41.800
 127231024.279 7  99141042.59045  24211259.080    24211257.080          42.600
        35.200
 132575412.971 7 103305506.38245  25228262.580    25228260.000          44.950
        33.600
 130892917.658 7 101994458.16346  24908093.560    24908091.260          43.250
        37.050
 132217889.823 7 103026945.45745  25160229.440    25160230.240          42.900
        35.600
 117307470.138 7  91239177.450 6  22006598.540    22006604.960          46.900
        37.750
 116161045.213 6  90347553.123 6  21722715.960    21722719.600          41.250
        41.950
 114222679.773 7  88839927.088 7  21345252.460    21345253.940          47.000
        44.500
 115456729.043 7  89799713.219 7  21606171.260    21606174.360          47.250
        45.150
 126195494.044 6                  23624087.340                          40.850

 126235337.870 6  98183129.606 6  23581840.180    23581845.040          41.350
        39.900
 19  2 26 15 24 13.0000000  0 16G21G20G10G26G16G27G29G15G31G32R10R20
                                R21R11R12R07
 113011089.146 7  88060563.85846  21505296.160    21505289.960          47.650
        39.800
 106477565.896 8  82969508.81147  20262007.480    20262001.300          48.800
        45.050
 107019878.412 8  83392101.68547  20365205.840    20365202.880          51.100
        47.550
 108026420.725 8  84176422.49847  20556744.460    20556742.240          50.450
        47.200
 112111688.041 8  87359810.58047  21334177.700    21334171.580          49.550
        44.250
 122606801.689 7  95537754.10946  23331298.080    23331295.300          45.900
        41.900
 127233196.469 6  99142735.19745  24211672.420    24211670.380          41.350
        31.150
 132575797.027 7 103305805.65145  25228335.660    25228333.080          44.000
        31.050
 130895188.785 7 101996227.85745  24908525.740    24908523.460          44.000
        35.550
 132215360.130 7 103024974.29445  25159748.060    25159749.020          42.350
        32.750
 117310919.039 7  91241859.925 6  22007245.540    22007251.960          47.650
        38.000
 116161830.136 6  90348163.620 7  21722862.760    21722866.360          40.400
        42.600
 114221637.476 7  88839116.417 7  21345057.680    21345059.180          46.850
        44.550
 115457230.082 7  89800102.907 7  21606265.040    21606268.120          47.650
        45.800
 126193384.257 6                  23623692.400                          40.450

 126230976.275 6  98179737.257 6  23581025.400    23581030.260          41.000
        39.900
 19  2 26 15 24 14.0000000  0 17G21G20G10G26G16G27G29G15G31G32R05R10
                                R20R21R11R12R07
 113013105.876 7  88062135.33046  21505679.940    21505673.740          47.600
        40.700
 106478388.120 8  82970149.50547  20262163.960    20262157.760          49.100
        45.900
 107018431.233 8  83390974.01847  20364930.460    20364927.480          51.350
        47.900
 108027002.491 8  84176875.82247  20556855.160    20556852.940          50.200
        47.200
 112109865.745 8  87358390.60747  21333830.940    21333824.800          49.100
        42.950
 122604118.313 7  95535663.16447  23330787.440    23330784.680          44.700
        42.200
 127235368.394 7  99144427.59045  24212085.720    24212083.760          44.600
        33.900
 132576181.289 7 103306105.08145  25228408.800    25228406.180          45.650
        33.050
 130897460.027 7 101997997.65246  24908957.940    24908955.680          42.400
        38.250
 132212830.091 7 103023002.82946  25159266.600    25159267.320          42.700
        36.900
                                  21150657.180                          44.500

 117314368.606 7  91244542.919 6  22007892.660    22007899.100          46.800
        38.400
 116162614.927 6  90348774.014 7  21723009.520    21723013.120          40.600
        43.000
 114220595.597 7  88838306.069 7  21344862.960    21344864.480          46.450
        44.550
 115457732.595 7  89800493.745 7  21606359.080    21606362.160          47.000
        44.200
 126191275.843 6                  23623297.720                          40.000

 126226614.643 6  98176344.877 6  23580210.640    23580215.480          41.200
        40.150
 19  2 26 15 24 15.0000000  0 16G21G20G10G26G16G27G29G15G31G32R10R20
                                R21R11R12R07
 113015123.232 7  88063707.29746  21506063.820    21506057.620          47.800
        41.000
 106479211.376 8  82970791.00447  20262320.620    20262314.420          49.150
        46.250
 107016985.019 8  83389847.09748  20364655.260    20364652.280          51.350
        48.300
 108027585.088 8  84177329.79047  20556966.020    20556963.800          50.250
        47.300
 112108044.100 8  87356971.13947  21333484.300    21333478.160          49.100
        43.400
 122601434.911 7  95533572.20546  23330276.800    23330274.060          44.200
        41.900
 127237541.262 7  99146120.74445  24212499.200    24212497.260          44.700
        34.300
 132576566.593 7 103306405.31745  25228482.140    25228479.520          46.000
        35.950
 130899731.201 7 101999767.41246  24909390.120    24909387.900          42.700
        36.700
 132210300.251 7 103021031.51146  25158785.200    25158785.920          42.750
        38.700
 117317818.512 7  91247226.181 6  22008539.860    22008546.260          46.800
        38.500
 116163400.355 6  90349384.898 7  21723156.400    21723159.980          40.700
        43.600
 114219553.820 7  88837495.797 7  21344668.260    21344669.820          46.100
        44.100
 115458235.798 7  89800885.122 7  21606453.260    21606456.320          46.600
        43.950
 126189168.035 6                  23622903.140                          39.750

 126222253.330 6  98172952.746 6  23579395.880    23579400.740          41.650
        39.650
 19  2 26 15 24 16.0000000  0 16G21G20G10G26G16G27G29G15G31G32R10R20
                                R21R11R12R07
 113017140.923 7  88065279.52346  21506447.780    21506441.580          47.550
        40.000
 106480035.379 8  82971433.08447  20262477.420    20262471.240          48.850
        45.500
 107015539.513 8  83388720.72547  20364380.180    20364377.220          51.300
        47.600
 108028168.221 8  84177784.17547  20557076.980    20557074.780          50.550
        47.450
 112106222.812 8  87355551.95247  21333137.720    21333131.560          49.550
        44.000
 122598751.140 7  95531480.95047  23329766.100    23329763.360          45.900
        42.950
 127239714.728 7  99147814.35245  24212912.820    24212910.800          43.400
        34.150
 132576952.625 7 103306706.10945  25228555.600    25228552.980          44.950
        32.700
 130902002.004 7 102001536.89246  24909822.240    24909820.000          43.300
        36.350
 132207770.190 7 103019060.01745  25158303.720    25158304.420          42.000
        34.750
 117321268.465 7  91249909.480 6  22009187.080    22009193.480          47.750
        38.850
 116164186.027 6  90349995.972 7  21723303.340    21723306.900          39.900
        42.300
 114218511.860 7  88836685.380 7  21344473.560    21344475.100          46.800
        44.850
 115458739.406 7  89801276.814 7  21606547.500    21606550.580          47.700
        45.700
 126187060.564 6                  23622508.580                          40.800

 126217891.976 6  98169560.580 6  23578581.140    23578586.020          40.950
        40.350
 19  2 26 15 24 17.0000000  0 17G21G20G10G26G16G27G29G15G31G32R05R10
                                R20R21R11R12R07
 113019158.476 7  88066851.63146  21506831.720    21506825.500          47.250
        39.850
 106480859.655 8  82972075.37747  20262634.280    20262628.080          48.800
        45.450
 107014094.397 8  83387594.66547  20364105.180    20364102.220          51.350
        47.550
 108028752.035 8  84178239.09347  20557188.080    20557185.860          50.350
        47.600
 112104402.342 8  87354133.40447  21332791.300    21332785.140          49.400
        44.000
 122596067.714 7  95529389.96446  23329255.460    23329252.720          45.150
        41.500
 127241887.807 7  99149507.66445  24213326.340    24213324.360          44.050
        32.300
 132577338.692 7 103307006.92745  25228629.060    25228626.440          44.950
        34.300
 130904272.710 7 102003306.26746  24910254.340    24910252.140          43.350
        36.650
 132205239.702 7 103017088.19345  25157822.240    25157822.980          42.450
        35.350
                                  21151440.500                          43.150

 117324718.840 7  91252593.101 6  22009834.360    22009840.760          47.700
        39.050
 116164971.447 6  90350606.856 7  21723450.220    21723453.800          40.000
        42.600
 114217470.104 7  88835875.122 7  21344278.860    21344280.440          46.650
        44.650
 115459244.231 7  89801669.449 7  21606641.980    21606645.040          47.450
        45.100
 126184954.231 6                  23622114.300                          40.400

 126213530.363 6  98166168.216 6  23577766.360    23577771.220          41.300
        39.450
 19  2 26 15 24 18.0000000  0 16G21G20G10G26G16G27G29G15G31G32R10R20
                                R21R11R12R07
 113021176.454 7  88068424.07246  21507215.720    21507209.500          47.500
        39.850
 106481684.974 8  82972718.48647  20262791.340    20262785.140          49.050
        45.950
 107012650.495 8  83386469.55047  20363830.420    20363827.440          51.350
        47.950
 108029337.049 8  84178694.95047  20557299.400    20557297.200          50.350
        47.150
 112102582.804 8  87352715.58447  21332445.060    21332438.900          49.200
        43.550
 122593384.485 7  95527299.14546  23328744.860    23328742.100          44.700
        40.550
 127244061.707 7  99151201.60845  24213740.020    24213738.020          45.050
        34.600
 132577725.528 7 103307308.36445  25228702.680    25228700.060          45.300
        35.650
 130906543.913 7 102005076.02745  24910686.540    24910684.380          43.550
        35.550
 132202709.709 7 103015116.76046  25157340.820    25157341.460          43.400
        36.350
 117328170.153 7  91255277.457 6  22010481.840    22010488.220          47.700
        39.000
 116165757.198 6  90351217.998 7  21723597.140    21723600.760          39.900
        42.700
 114216428.522 7  88835065.000 7  21344084.220    21344085.820          46.050
        44.350
 115459750.201 7  89802062.979 7  21606736.640    21606739.700          46.800
        44.650
 126182848.750 6                  23621720.160                          39.900

 126209169.539 6  98162776.471 6  23576951.720    23576956.560          41.600
        39.800
 19  2 26 15 24 19.0000000  0 16G21G20G10G26G16G27G29G15G31G32R10R20
                                R21R11R12R07
 113023194.624 7  88069996.67246  21507599.780    21507593.540          47.750
        39.550
 106482510.866 8  82973362.03947  20262948.500    20262942.300          49.250
        46.100
 107011207.139 8  83385344.85947  20363555.760    20363552.780          51.400
        47.650
 108029922.620 8  84179151.24147  20557410.840    20557408.620          50.450
        47.150
 112100763.784 8  87351298.17047  21332098.900    21332092.760          49.400
        43.050
 122590701.178 7  95525208.26446  23328234.240    23328231.500          45.150
        41.350
 127246235.786 7  99152895.69245  24214153.780    24214151.760          45.150
        35.150
 132578112.814 7 103307610.14745  25228776.360    25228773.780          45.350
        34.000
 130908814.692 7 102006845.46645  24911118.660    24911116.520          43.650
        35.800
 132200179.252 7 103013144.97546  25156859.260    25156860.060          42.750
        36.650
 117331621.527 7  91257961.860 6  22011129.320    22011135.700          47.500
        38.600
 116166543.076 6  90351829.236 7  21723744.100    21723747.720          40.500
        42.800
 114215386.922 7  88834254.866 7  21343889.560    21343891.180          46.300
        44.350
 115460256.850 7  89802457.046 7  21606831.480    21606834.520          47.100
        44.750
 126180743.928 6                  23621326.120                          40.150

 126204808.440 6  98159384.502 6  23576137.020    23576141.860          41.550
        39.350
 19  2 26 15 24 20.0000000  0 16G21G20G10G26G16G27G29G15G31G32R10R20
                                R21R11R12R07
 113025212.768 7  88071569.25146  21507983.820    21507977.580          47.850
        39.750
 106483337.097 8  82974005.85347  20263105.720    20263099.520          49.400
        46.000
 107009764.114 8  83384220.42448  20363281.160    20363278.200          51.450
        48.050
 108030508.570 8  84179607.82547  20557522.340    20557520.120          50.550
        47.000
 112098945.158 8  87349881.05947  21331752.840    21331746.680          49.350
        43.350
 122588017.688 7  95523117.23346  23327723.600    23327720.820          44.150
        40.850
 127248409.826 7  99154589.74645  24214567.500    24214565.500          46.250
        33.950
 132578500.336 7 103307912.11745  25228850.120    25228847.480          45.400
        33.550
 130911084.931 7 102008614.49546  24911550.660    24911548.540          42.900
        36.050
 132197648.183 7 103011172.73046  25156377.600    25156378.440          43.400
        38.150
 117335072.832 7  91260646.199 6  22011776.760    22011783.180          47.150
        38.800
 116167328.792 6  90352440.347 7  21723891.060    21723894.640          39.900
        42.800
 114214345.158 7  88833444.609 7  21343694.880    21343696.500          45.850
        44.550
 115460764.069 7  89802851.554 7  21606926.400    21606929.440          46.550
        44.400
 126178639.633 6                  23620932.160                          38.850

 126200446.918 7  98155992.207 6  23575322.240    23575327.100          42.050
        39.750
 19  2 26 15 24 21.0000000  0 17G21G20G10G26G16G27G29G15G31G32R05R10
                                R20R21R11R12R07
 113027230.841 8  88073141.77446  21508367.860    21508361.600          48.650
        41.400
 106484163.880 8  82974650.10147  20263263.040    20263256.840          49.600
        46.650
 107008321.888 8  83383096.60948  20363006.720    20363003.740          51.550
        48.300
 108031095.523 8  84180065.19147  20557634.040    20557631.820          50.200
        46.450
 112097127.418 8  87348464.64247  21331406.940    21331400.760          48.900
        42.450
 122585334.431 7  95521026.37546  23327212.980    23327210.220          44.600
        40.150
 127250583.747 7  99156283.70145  24214981.200    24214979.200          46.250
        34.800
 132578887.942 7 103308214.15445  25228923.880    25228921.240          46.350
        34.850
 130913355.453 7 102010383.73146  24911982.740    24911980.620          42.550
        36.600
 132195117.090 7 103009200.45646  25155895.980    25155896.800          44.150
        37.950
                                  21152491.580                          45.000

 117338524.877 7  91263331.120 6  22012424.340    22012430.800          46.800
        37.950
 116168114.260 6  90353051.264 7  21724037.920    21724041.540          41.150
        44.100
 114213303.501 7  88832634.432 7  21343500.220    21343501.860          45.950
        44.300
 115461272.559 7  89803247.044 7  21607021.540    21607024.580          46.050
        43.250
 126176536.296 6                  23620538.400                          39.450

 126196085.612 7  98152600.085 6  23574507.500    23574512.360          42.800
        40.500
 19  2 26 15 24 22.0000000  0 16G21G20G10G26G16G27G29G15G31G32R10R20
                                R21R11R12R07
 113029249.989 8  88074715.14146  21508752.080    21508745.840          48.800
        41.650
 106484991.918 8  82975295.32847  20263420.620    20263414.420          49.650
        46.550
 107006880.579 8  83381973.50547  20362732.440    20362729.480          51.150
        47.200
 108031682.734 8  84180522.76047  20557745.780    20557743.560          49.900
        46.300
 112095309.599 8  87347048.15547  21331061.020    21331054.860          49.000
        43.350
 122582650.321 7  95518934.84547  23326702.240    23326699.440          45.350
        42.050
 127252759.671 7  99157979.22245  24215395.260    24215393.280          45.450
        35.550
 132579277.556 7 103308517.74746  25228998.040    25228995.380          46.200
        36.650
 130915625.287 7 102012152.41046  24912414.660    24912412.600          42.550
        37.550
 132192586.309 7 103007228.43146  25155414.380    25155415.280          42.900
        36.700
 117341976.579 7  91266015.777 6  22013071.880    22013078.320          46.000
        37.150
 116168900.948 6  90353663.137 7  21724185.020    21724188.660          41.950
        43.950
 114212261.493 7  88831823.982 7  21343305.480    21343307.140          46.550
        44.650
 115461780.686 7  89803642.251 7  21607116.620    21607119.680          46.150
        43.950
 126174432.800 6                  23620144.620                          39.050

 126191724.567 6  98149208.158 6  23573692.800    23573697.680          40.450
        38.650
 19  2 26 15 24 23.0000000  0 16G21G20G10G26G16G27G29G15G31G32R10R20
                                R21R11R12R07
 113031268.443 8  88076287.97346  21509136.180    21509129.940          49.300
        41.800
 106485819.865 8  82975940.48147  20263578.180    20263571.980          49.750
        46.600
 107005439.474 8  83380850.57147  20362458.200    20362455.240          50.950
        47.100
 108032270.938 8  84180981.09747  20557857.720    20557855.480          49.750
        46.100
 112093493.075 8  87345632.67847  21330715.340    21330709.160          48.950
        43.550
 122579967.058 7  95516843.99046  23326191.640    23326188.840          45.600
        41.900
 127254933.939 7  99159673.45945  24215809.020    24215807.060          46.000
        35.650
 132579666.024 7 103308820.43746  25229071.980    25229069.320          47.050
        37.150
 130917895.094 6 102013921.08745  24912846.600    24912844.520          41.300
        32.850
 132190054.441 7 103005255.51445  25154932.580    25154933.520          42.550
        35.550
 117345428.950 7  91268700.946 6  22013719.520    22013725.980          45.150
        36.100
 116169686.611 7  90354274.210 7  21724331.940    21724335.580          42.250
        44.400
 114211219.933 7  88831013.881 7  21343110.820    21343112.500          47.000
        45.300
 115462290.723 7  89804038.945 7  21607212.060    21607215.140          46.000
        44.150
 126172330.882 6                  23619751.180                          39.200

 126187362.865 6  98145815.716 6  23572877.960    23572882.880          40.150
        38.700
 19  2 26 15 24 24.0000000  0 17G21G20G10G26G16G27G29G15G31G32R05R10
                                R20R21R11R12R07
 113033287.157 8  88077860.98946  21509520.340    21509514.100          49.100
        41.750
 106486648.450 8  82976586.12847  20263735.860    20263729.640          49.700
        46.850
 107003998.990 8  83379728.11447  20362184.100    20362181.120          51.000
        47.300
 108032859.620 8  84181439.80447  20557969.740    20557967.500          49.650
        45.800
 112091676.853 8  87344217.43247  21330369.740    21330363.540          49.050
        42.800
 122577283.493 7  95514752.90946  23325680.980    23325678.160          45.200
        40.650
 127257108.854 7  99161368.20045  24216222.900    24216220.940          46.250
        35.100
 132580055.264 7 103309123.73746  25229146.060    25229143.420          47.300
        38.100
 130920164.592 6 102015689.51945  24913278.480    24913276.380          41.300
        33.300
 132187522.447 7 103003282.49946  25154450.740    25154451.680          42.800
        37.150
                                  21153276.060                          44.850

 117348881.401 7  91271386.179 6  22014367.180    22014373.660          45.300
        36.000
 116170472.475 7  90354885.431 7  21724478.900    21724482.560          42.650
        44.850
 114210178.158 7  88830203.608 7  21342916.140    21342917.820          47.100
        45.050
 115462801.164 7  89804435.950 7  21607307.560    21607310.660          45.750
        43.550
 126170229.332 6                  23619357.740                          40.050

 126183001.246 6  98142423.331 6  23572063.200    23572068.100          40.850
        39.050
 19  2 26 15 24 25.0000000  0 16G21G20G10G26G16G27G29G15G31G32R10R20
                                R21R11R12R07
 113035306.070 8  88079434.16646  21509904.520    21509898.280          49.150
        41.950
 106487477.644 8  82977232.24947  20263893.640    20263887.440          49.850
        46.750
 107002559.134 8  83378606.14447  20361910.100    20361907.140          51.000
        47.050
 108033448.880 8  84181898.96247  20558081.880    20558079.640          49.750
        46.150
 112089861.120 8  87342802.56947  21330024.200    21330018.020          48.900
        43.600
 122574599.759 7  95512661.67547  23325170.300    23325167.460          45.850
        42.700
 127259284.089 7  99163063.17445  24216636.840    24216634.880          46.650
        33.550
 132580445.051 7 103309427.46546  25229220.240    25229217.580          47.300
        38.800
 130922433.792 6 102017457.74145  24913710.300    24913708.220          40.950
        32.700
 132184990.261 7 103001309.36746  25153968.900    25153969.800          42.550
        37.050
 117352334.009 7  91274071.539 6  22015014.880    22015021.380          45.600
        36.600
 116171258.496 7  90355496.773 7  21724625.880    21724629.560          42.650
        44.950
 114209136.282 7  88829393.253 7  21342721.420    21342723.120          47.150
        44.850
 115463312.243 7  89804833.450 7  21607403.200    21607406.300          45.450
        43.900
 126168128.351 6                  23618964.440                          39.450

 126178639.588 6  98139030.911 6  23571248.400    23571253.300          41.100
        38.700
 19  2 26 15 24 26.0000000  0 16G21G20G10G26G16G27G29G15G31G32R10R20
                                R21R11R12R07
 113037324.879 8  88081007.25747  21510288.680    21510282.440          49.350
        42.050
 106488307.199 8  82977878.65847  20264051.500    20264045.300          49.800
        46.950
 107001119.725 8  83377484.52247  20361636.180    20361633.220          50.950
        46.900
 108034038.708 8  84182358.56647  20558194.100    20558191.880          49.650
        45.750
 112088045.915 8  87341388.12047  21329678.780    21329672.600          48.800
        42.700
 122571915.913 7  95510570.35246  23324659.580    23324656.740          45.850
        40.800
 127261459.185 7  99164758.04645  24217050.740    24217048.780          47.050
        35.550
 132580834.901 7 103309731.24646  25229294.420    25229291.740          47.150
        38.700
 130924702.754 6 102019225.77545  24914142.080    24914140.040          40.250
        33.600
 132182457.578 7 102999335.85045  25153486.920    25153487.840          42.700
        35.300
 117355786.831 7  91276757.065 5  22015662.620    22015669.140          44.000
        35.700
 116172044.280 7  90356107.938 7  21724772.860    21724776.520          42.750
        45.250
 114208094.258 7  88828582.784 7  21342526.700    21342528.380          47.300
        44.750
 115463824.115 7  89805231.569 7  21607499.000    21607502.100          45.300
        43.700
 126166027.929 6                  23618571.220                          41.400

 126174277.723 6  98135638.341 6  23570433.580    23570438.480          40.850
        38.300
 19  2 26 15 24 27.0000000  0 16G21G20G10G26G16G27G29G15G31G32R10R20
                                R21R11R12R07
 113039343.661 8  88082580.33347  21510672.860    21510666.600          49.250
        42.300
 106489137.051 8  82978525.29947  20264209.420    20264203.220          49.800
        46.650
 106999680.568 8  83376363.10147  20361362.320    20361359.360          50.950
        46.750
 108034628.688 8  84182818.28747  20558306.380    20558304.160          49.600
        45.650
 112086230.771 8  87339973.72347  21329333.360    21329327.180          48.700
        42.150
 122569231.520 7  95508478.61546  23324148.760    23324145.900          45.700
        41.250
 127263634.465 7  99166453.05745  24217464.700    24217462.700          46.650
        35.300
 132581225.164 7 103310035.35346  25229368.680    25229366.000          46.800
        38.500
 130926970.984 6 102020993.24045  24914573.720    24914571.640          40.850
        34.250
 132179924.404 7 102997361.95646  25153004.880    25153005.760          42.750
        36.550
 117359239.348 7  91279442.356 5  22016310.300    22016316.840          44.500
        35.750
 116172829.930 7  90356718.997 7  21724919.780    21724923.440          42.800
        45.000
 114207051.774 7  88827771.957 7  21342331.900    21342333.560          47.450
        44.800
 115464336.165 7  89805629.827 7  21607594.800    21607597.920          45.250
        43.900
 126163927.741 6                  23618178.100                          41.300

 126169915.456 6  98132245.469 6  23569618.640    23569623.560          41.250
        38.750
 19  2 26 15 24 28.0000000  0 17G21G20G10G26G16G27G29G15G31G32R05R10
                                R20R21R11R12R07
 113041362.706 8  88084153.61646  21511057.060    21511050.800          48.950
        41.350
 106489967.493 8  82979172.39847  20264367.440    20264361.260          49.650
        47.100
 106998241.926 8  83375242.08147  20361088.560    20361085.600          51.250
        47.600
 108035219.320 8  84183278.51747  20558418.760    20558416.560          49.850
        46.050
 112084416.386 8  87338559.92147  21328988.100    21328981.920          48.750
        42.700
 122566547.369 7  95506387.07546  23323638.000    23323635.120          45.700
        40.550
 127265809.818 7  99168148.14145  24217878.660    24217876.660          46.800
        34.600
 132581615.941 7 103310339.85346  25229443.040    25229440.380          45.750
        38.200
 130929238.798 7 102022760.35945  24915005.260    24915003.200          42.300
        35.850
 132177390.696 7 102995387.64745  25152522.700    25152523.620          43.200
        34.200
                                  21154326.320                          45.600

 117362692.023 7  91282127.766 6  22016958.040    22016964.560          45.300
        36.650
 116173615.740 6  90357330.185 7  21725066.720    21725070.400          41.900
        44.700
 114206009.566 7  88826961.355 7  21342137.140    21342138.800          46.600
        44.650
 115464849.135 7  89806028.805 7  21607690.800    21607693.920          45.850
        43.600
 126161828.496 6                  23617785.120                          38.400

 126165552.834 6  98128852.329 6  23568803.700    23568808.580          41.750
        39.900
 19  2 26 15 24 29.0000000  0 16G21G20G10G26G16G27G29G15G31G32R10R20
                                R21R11R12R07
 113043381.998 8  88085727.08747  21511441.320    21511435.080          48.100
        42.000
 106490798.819 8  82979820.17647  20264525.640    20264519.460          49.150
        46.050
 106996804.306 8  83374121.85847  20360815.000    20360812.020          50.900
        46.700
 108035810.530 8  84183739.19247  20558531.260    20558529.060          50.300
        46.650
 112082602.016 8  87337146.12347  21328642.840    21328636.660          49.650
        44.200
 122563862.316 7  95504294.83947  23323127.060    23323124.180          46.950
        42.900
 127267986.417 7  99169844.17445  24218292.860    24218290.880          44.400
        33.900
 132582007.633 7 103310645.04746  25229517.580    25229514.920          44.000
        36.900
 130931506.729 7 102024527.58545  24915436.840    24915434.780          42.600
        34.650
 132174857.541 7 102993413.75545  25152040.660    25152041.460          42.450
        33.800
 117366145.031 7  91284813.434 6  22017605.800    22017612.360          45.700
        37.650
 116174401.856 6  90357941.604 7  21725213.720    21725217.420          41.300
        43.550
 114204966.654 7  88826150.195 7  21341942.240    21341943.900          47.850
        45.600
 115465362.133 7  89806427.792 7  21607786.800    21607789.920          47.300
        45.600
 126159728.955 6                  23617392.080                          40.050

 126161190.886 6  98125459.711 6  23567988.880    23567993.760          41.600
        38.300
 19  2 26 15 24 30.0000000  0 16G21G20G10G26G16G27G29G15G31G32R10R20
                                R21R11R12R07
 113045401.041 7  88087300.36246  21511825.540    21511819.280          47.900
        40.750
 106491630.268 8  82980468.05247  20264683.860    20264677.680          48.950
        46.000
 106995366.835 8  83373001.75547  20360541.460    20360538.480          50.900
        46.450
 108036402.323 8  84184200.33247  20558643.880    20558641.680          50.550
        46.900
 112080788.501 8  87335732.98847  21328297.740    21328291.560          49.900
        44.350
 122561177.700 7  95502202.93247  23322616.200    23322613.300          47.100
        42.950
 127270162.136 7  99171539.54745  24218706.920    24218704.940          44.500
        32.100
 132582398.999 7 103310949.99146  25229592.060    25229589.380          44.200
        36.800
 130933774.156 7 102026294.38645  24915868.320    24915866.260          42.950
        33.500
 132172323.350 7 102991439.08445  25151558.420    25151559.260          42.850
        32.150
 117369598.169 7  91287499.194 6  22018253.620    22018260.180          46.200
        37.400
 116175187.463 6  90358552.625 7  21725360.680    21725364.340          40.950
        43.050
 114203924.016 8  88825339.248 7  21341747.400    21341749.060          48.150
        45.400
 115465876.365 7  89806827.746 7  21607883.040    21607886.160          47.900
        45.850
 126157630.648 7                  23616999.260                          42.350

 126156828.202 6  98122066.523 6  23567173.900    23567178.780          41.100
        38.550
 19  2 26 15 24 31.0000000  0 16G21G20G10G26G16G27G29G15G31G32R10R20
                                R21R11R12R07
 113047420.199 8  88088873.72847  21512209.780    21512203.540          48.450
        42.150
 106492462.290 8  82981116.38147  20264842.180    20264836.000          49.250
        45.950
 106993930.077 8  83371882.20747  20360268.040    20360265.060          50.900
        46.750
 108036995.057 8  84184662.20447  20558756.680    20558754.480          50.300
        46.900
 112078975.929 8  87334320.60047  21327952.820    21327946.620          49.750
        44.050
 122558493.433 7  95500111.29347  23322105.420    23322102.520          46.300
        42.250
 127272337.842 7  99173234.90445  24219120.960    24219118.960          44.700
        33.600
 132582790.660 7 103311255.18146  25229666.580    25229663.880          44.300
        36.450
 130936041.667 7 102028061.27245  24916299.820    24916297.760          43.000
        35.300
 132169788.935 7 102989464.23445  25151076.140    25151076.840          42.650
        34.500
 117373051.886 7  91290185.419 6  22018901.540    22018908.100          45.700
        37.550
 116175973.043 6  90359163.630 7  21725507.580    21725511.240          41.200
        44.050
 114202881.617 7  88824528.498 7  21341552.600    21341554.260          47.850
        44.700
 115466391.869 7  89807228.696 7  21607979.520    21607982.620          47.250
        45.000
 126155533.465 6                  23616606.680                          40.550

 126152465.594 6  98118673.391 6  23566358.900    23566363.800          41.400
        39.200
 19  2 26 15 24 32.0000000  0 16G21G20G10G26G16G27G29G15G31G32R10R20
                                R21R11R12R07
 113049439.864 8  88090447.49547  21512594.120    21512587.860          49.100
        42.000
 106493295.376 8  82981765.54147  20265000.720    20264994.540          49.700
        47.550
 106992494.480 8  83370763.56347  20359994.860    20359991.880          51.000
        47.500
 108037589.110 8  84185125.10747  20558869.720    20558867.520          49.700
        46.000
 112077164.634 8  87332909.20346  21327608.140    21327601.940          48.650
        41.850
 122555809.857 7  95498020.19546  23321594.760    23321591.860          45.100
        41.800
 127274513.975 7  99174930.59145  24219535.080    24219533.060          47.800
        35.750
 132583182.932 7 103311560.85046  25229741.240    25229738.520          45.650
        38.000
 130938309.475 6 102029828.38145  24916731.400    24916729.320          40.750
        32.100
 132167254.695 7 102987489.50345  25150593.880    25150594.560          42.700
        35.900
 117376506.547 7  91292872.377 5  22019549.600    22019556.180          44.050
        35.450
 116176759.017 7  90359774.951 7  21725654.560    21725658.220          42.400
        45.350
 114201839.829 7  88823718.218 7  21341357.920    21341359.580          47.150
        43.750
 115466908.906 7  89807630.838 7  21608076.280    21608079.380          46.000
        43.750
 126153437.594 6                  23616214.340                          40.100

 126148103.316 6  98115280.515 6  23565543.980    23565548.900          41.800
        39.450
 19  2 26 15 24 33.0000000  0 17G21G20G10G26G16G27G29G15G31G32R05R10
                                R20R21R11R12R07
 113051460.283 8  88092021.85046  21512978.580    21512972.340          49.350
        41.900
 106494129.566 8  82982415.56247  20265159.460    20265153.280          49.800
        47.050
 106991059.940 8  83369645.73947  20359721.880    20359718.900          50.950
        47.200
 108038183.809 8  84185588.50947  20558982.900    20558980.700          49.600
        46.350
 112075353.649 8  87331498.05047  21327263.520    21327257.300          48.900
        42.650
 122553125.819 7  95495928.73946  23321084.000    23321081.120          45.450
        41.450
 127276691.594 7  99176627.43446  24219949.460    24219947.460          47.150
        36.000
 132583576.663 7 103311867.65646  25229816.160    25229813.460          46.400
        38.200
 130940577.362 6 102031595.58845  24917162.960    24917160.860          41.650
        34.400
 132164720.974 7 102985515.16745  25150111.740    25150112.420          43.000
        34.550
                                  21155667.340                          45.400

 117379961.489 7  91295559.557 5  22020197.720    22020204.320          44.700
        35.500
 116177545.782 7  90360386.886 7  21725801.660    21725805.360          42.400
        45.050
 114200797.867 7  88822907.805 7  21341163.200    21341164.840          46.850
        44.200
 115467426.211 7  89808033.180 7  21608173.100    21608176.180          45.900
        43.900
 126151342.035 6                  23615822.060                          40.200

 126143741.709 6  98111888.166 6  23564729.200    23564734.100          40.350
        38.800
 19  2 26 15 24 34.0000000  0 16G21G20G10G26G16G27G29G15G31G32R10R20
                                R21R11R12R07
 113053480.495 8  88093596.04347  21513363.020    21513356.760          49.300
        42.050
 106494963.997 8  82983065.77547  20265318.240    20265312.060          49.750
        46.900
 106989625.675 8  83368528.13247  20359448.940    20359445.980          50.950
        47.400
 108038779.034 8  84186052.32447  20559096.160    20559093.960          49.700
        46.200
 112073543.328 8  87330087.41747  21326919.040    21326912.820          49.050
        42.750
 122550441.883 7  95493837.36446  23320573.260    23320570.400          45.600
        41.500
 127278868.737 7  99178323.91146  24220363.780    24220361.760          46.900
        36.550
 132583970.334 7 103312174.41046  25229891.080    25229888.360          46.250
        37.750
 130942844.726 6 102033362.37546  24917594.440    24917592.300          41.400
        36.650
 132162186.481 7 102983540.24145  25149629.440    25149630.220          42.450
        34.850
 117383416.536 7  91298246.817 5  22020845.920    22020852.480          44.950
        35.700
 116178332.223 7  90360998.569 7  21725948.720    21725952.420          42.650
        45.250
 114199755.938 7  88822097.417 7  21340968.500    21340970.140          47.000
        44.600
 115467944.485 7  89808436.291 7  21608270.080    21608273.140          45.850
        43.900
 126149247.246 6                  23615429.920                          39.800

 126139379.552 6  98108495.380 6  23563914.320    23563919.220          40.600
        38.900
 19  2 26 15 24 35.0000000  0 16G21G20G10G26G16G27G29G15G31G32R10R20
                                R21R11R12R07
 113055500.685 8  88095170.22247  21513747.460    21513741.200          49.250
        43.200
 106495798.901 8  82983716.35047  20265477.120    20265470.940          49.750
        47.150
 106988191.980 8  83367410.97147  20359176.120    20359173.160          50.900
        47.000
 108039374.881 8  84186516.62347  20559209.540    20559207.360          49.650
        45.850
 112071733.502 8  87328677.16947  21326574.640    21326568.440          48.750
        42.600
 122547757.790 7  95491745.86346  23320062.500    23320059.640          45.450
        40.900
 127281045.982 7  99180020.45646  24220778.100    24220776.060          46.900
        36.150
 132584364.225 7 103312481.33446  25229966.020    25229963.280          46.150
        38.850
 130945111.921 6 102035129.02345  24918025.880    24918023.680          40.200
        35.050
 132159651.757 7 102981565.11946  25149147.100    25149147.900          42.700
        37.100
 117386871.820 7  91300934.256 5  22021494.140    22021500.680          44.150
        35.650
 116179118.536 7  90361610.150 7  21726095.780    21726099.480          42.950
        45.050
 114198713.826 7  88821286.892 7  21340773.740    21340775.380          47.200
        44.250
 115468463.481 7  89808839.956 7  21608367.200    21608370.260          45.700
        43.900
 126147153.057 6                  23615037.920                          41.000

 126135017.428 6  98105102.616 6  23563099.460    23563104.340          41.900
        39.600
 19  2 26 15 24 36.0000000  0 16G21G20G10G26G16G27G29G15G31G32R10R20
                                R21R11R12R07
 113057520.984 8  88096744.48247  21514131.900    21514125.640          49.350
        42.700
 106496634.302 8  82984367.31147  20265636.100    20265629.920          49.750
        46.800
 106986758.777 8  83366294.18647  20358903.400    20358900.420          50.950
        46.750
 108039971.139 8  84186981.23947  20559323.000    20559320.820          49.650
        45.800
 112069923.960 8  87327267.13247  21326230.280    21326224.100          48.650
        42.850
 122545073.357 7  95489654.09146  23319551.680    23319548.820          45.600
        40.550
 127283223.611 7  99181717.29545  24221192.480    24221190.460          46.650
        35.750
 132584758.668 7 103312788.70446  25230041.080    25230038.340          45.700
        38.250
 130947378.660 6 102036895.30045  24918457.240    24918455.020          40.350
        33.800
 132157116.683 7 102979589.71445  25148664.720    25148665.460          43.600
        35.300
 117390327.110 7  91303621.702 5  22022142.340    22022148.900          44.450
        35.150
 116179904.908 7  90362221.770 7  21726242.820    21726246.540          42.950
        45.450
 114197671.438 7  88820476.147 7  21340578.960    21340580.580          47.250
        44.500
 115468982.886 7  89809243.929 7  21608464.420    21608467.460          45.750
        43.700
 126145059.224 6                  23614645.940                          40.400

 126130655.132 7  98101709.718 6  23562284.540    23562289.420          42.250
        38.650
 19  2 26 15 24 37.0000000  0 17G21G20G10G26G16G27G29G15G31G32R05R10
                                R20R21R11R12R07
 113059541.390 8  88098318.82347  21514516.380    21514510.120          49.300
        42.600
 106497470.113 8  82985018.59247  20265795.140    20265788.960          49.750
        47.550
 106985325.897 8  83365177.65647  20358630.740    20358627.740          51.050
        47.600
 108040567.929 8  84187446.27147  20559436.580    20559434.400          49.700
        45.800
 112068115.150 8  87325857.66447  21325886.080    21325879.880          48.600
        42.400
 122542389.167 7  95487562.51646  23319040.900    23319038.040          44.850
        38.750
 127285400.898 7  99183413.87545  24221606.800    24221604.760          47.400
        35.650
 132585153.321 7 103313096.22846  25230116.160    25230113.440          45.600
        38.850
 130949644.815 6 102038661.13046  24918888.480    24918886.300          41.200
        37.150
 132154580.829 7 102977613.72045  25148182.160    25148182.900          42.600
        35.350
                                  21156732.020                          45.900

 117393782.391 7  91306309.141 5  22022790.540    22022797.120          45.000
        35.550
 116180691.250 7  90362833.363 7  21726389.880    21726393.600          42.600
        44.600
 114196629.308 7  88819665.601 7  21340384.220    21340385.820          46.350
        44.050
 115469503.220 7  89809648.636 7  21608561.780    21608564.840          45.100
        42.950
 126142966.424 6                  23614254.160                          39.800

 126126292.239 7  98098316.354 6  23561469.500    23561474.380          42.350
        39.350
 19  2 26 15 24 38.0000000  0 16G21G20G10G26G16G27G29G15G31G32R10R20
                                R21R11R12R07
 113061562.009 8  88099893.32747  21514900.880    21514894.620          49.000
        42.100
 106498306.699 8  82985670.47147  20265954.340    20265948.160          49.850
        47.200
 106983893.926 8  83364061.83047  20358358.240    20358355.260          51.150
        47.250
 108041165.214 8  84187911.68147  20559550.240    20559548.060          49.800
        45.850
 112066306.301 8  87324448.16747  21325541.880    21325535.680          48.900
        42.600
 122539704.109 7  95485470.25546  23318529.940    23318527.080          45.050
        41.000
 127287579.410 7  99185111.40046  24222021.360    24222019.320          47.050
        36.050
 132585548.907 7 103313404.48346  25230191.440    25230188.740          45.850
        39.250
 130951911.020 7 102040426.98745  24919319.720    24919317.540          43.100
        34.800
 132152045.466 6 102975638.11946  25147699.680    25147700.480          41.650
        36.000
 117397237.947 7  91308996.785 6  22023438.800    22023445.360          45.750
        36.600
 116181477.804 7  90363445.119 7  21726536.960    21726540.700          42.300
        45.050
 114195586.500 7  88818854.518 7  21340189.340    21340190.960          46.900
        44.500
 115470023.541 7  89810053.326 7  21608659.160    21608662.200          46.000
        43.350
 126140873.344 6                  23613862.360                          38.900

 126121929.927 7  98094923.447 6  23560654.580    23560659.460          42.000
        39.350
 19  2 26 15 24 39.0000000  0 16G21G20G10G26G16G27G29G15G31G32R10R20
                                R21R11R12R07
 113063583.153 8  88101468.23447  21515285.500    21515279.240          48.700
        42.350
 106499143.650 8  82986322.63347  20266113.620    20266107.420          49.700
        47.150
 106982461.774 8  83362945.85747  20358085.700    20358082.720          51.250
        47.750
 108041762.859 8  84188377.37047  20559663.960    20559661.780          49.750
        45.500
 112064498.627 8  87323039.57347  21325197.880    21325191.680          48.700
        42.450
 122537020.065 7  95483378.78746  23318019.180    23318016.340          43.650
        41.100
 127289756.991 7  99186808.20046  24222435.740    24222433.720          47.300
        36.900
 132585944.863 7 103313713.02146  25230266.780    25230264.080          45.850
        38.200
 130954175.707 7 102042191.66246  24919750.680    24919748.480          44.350
        37.400
 132149508.072 7 102973660.93545  25147216.800    25147217.560          42.800
        33.700
 117400692.781 7  91311683.859 6  22024086.920    22024093.460          45.900
        36.000
 116182264.678 7  90364057.126 7  21726684.120    21726687.840          42.100
        44.900
 114194544.723 7  88818044.228 7  21339994.660    21339996.280          46.700
        44.250
 115470545.182 7  89810459.036 7  21608756.760    21608759.800          46.050
        42.900
 126138782.328 6                  23613470.940                          38.000

 126117565.849 7  98091529.160 6  23559839.340    23559844.220          42.300
        39.050
 19  2 26 15 24 40.0000000  0 16G21G20G10G26G16G27G29G15G31G32R10R20
                                R21R11R12R07
 113065603.996 8  88103042.90647  21515670.040    21515663.800          48.450
        42.100
 106499981.326 8  82986975.35747  20266273.020    20266266.840          49.600
        47.000
 106981030.962 8  83361830.93547  20357813.440    20357810.460          51.400
        47.950
 108042361.646 8  84188843.94447  20559777.920    20559775.720          49.650
        45.600
 112062691.368 8  87321631.30547  21324853.980    21324847.780          48.150
        42.100
 122534335.449 7  95481286.87446  23317508.300    23317505.460          43.400
        39.750
 127291935.385 7  99188505.63146  24222850.300    24222848.240          47.700
        37.400
 132586341.006 7 103314021.70646  25230342.180    25230339.460          45.350
        38.150
 130956441.468 7 102043957.17746  24920181.840    24920179.620          44.000
        38.350
 132146971.863 7 102971684.65645  25146734.180    25146734.860          44.300
        35.500
 117404148.968 7  91314371.990 5  22024735.320    22024741.800          46.400
        35.950
 116183051.213 6  90364668.867 7  21726831.220    21726834.940          41.950
        44.400
 114193502.239 7  88817233.395 7  21339799.860    21339801.480          46.050
        43.850
 115471067.625 7  89810865.368 7  21608854.520    21608857.580          45.350
        42.600
 126136691.179 6                  23613079.460                          38.100

 126113203.170 6  98088135.966 6  23559024.380    23559029.240          41.800
        38.900
